header: 
  seq: 958
  stamp: 
    secs: 1602557429
    nsecs: 704812552
  frame_id: ''
D: 0.728481728615
delta: -0.190493168524
dD: -0.458951234758
ddelta: -0.280500714207
---
header: 
  seq: 959
  stamp: 
    secs: 1602557429
    nsecs: 724824002
  frame_id: ''
D: 0.716983345189
delta: -0.192003212681
dD: -0.574919171294
ddelta: -0.0755022078139
---
header: 
  seq: 960
  stamp: 
    secs: 1602557429
    nsecs: 744814064
  frame_id: ''
D: 0.705238017254
delta: -0.187243733045
dD: -0.587266396734
ddelta: 0.237973981756
---
header: 
  seq: 961
  stamp: 
    secs: 1602557429
    nsecs: 764816467
  frame_id: ''
D: 0.691799696049
delta: -0.179558967592
dD: -0.67191606026
ddelta: 0.384238272651
---
header: 
  seq: 962
  stamp: 
    secs: 1602557429
    nsecs: 784826647
  frame_id: ''
D: 0.677676570581
delta: -0.171896530045
dD: -0.706156273407
ddelta: 0.383121877377
---
header: 
  seq: 963
  stamp: 
    secs: 1602557429
    nsecs: 804819414
  frame_id: ''
D: 0.664916226713
delta: -0.164939877604
dD: -0.63801719355
ddelta: 0.347832622574
---
header: 
  seq: 964
  stamp: 
    secs: 1602557429
    nsecs: 824817165
  frame_id: ''
D: 0.658011613001
delta: -0.159968896259
dD: -0.345230685624
ddelta: 0.248549067388
---
header: 
  seq: 965
  stamp: 
    secs: 1602557429
    nsecs: 844844906
  frame_id: ''
D: 0.649938781695
delta: -0.154752282122
dD: -0.403641565345
ddelta: 0.260830707022
---
header: 
  seq: 966
  stamp: 
    secs: 1602557429
    nsecs: 864819539
  frame_id: ''
D: 0.637337207678
delta: -0.148457697935
dD: -0.6300787009
ddelta: 0.314729209432
---
header: 
  seq: 967
  stamp: 
    secs: 1602557429
    nsecs: 884818063
  frame_id: ''
D: 0.622453725963
delta: -0.142573008603
dD: -0.744174085763
ddelta: 0.294234466629
---
header: 
  seq: 968
  stamp: 
    secs: 1602557429
    nsecs: 904825146
  frame_id: ''
D: 0.611859316662
delta: -0.138134753764
dD: -0.529720465074
ddelta: 0.221912741983
---
header: 
  seq: 969
  stamp: 
    secs: 1602557429
    nsecs: 924820024
  frame_id: ''
D: 0.601812874914
delta: -0.134075949013
dD: -0.502322087384
ddelta: 0.20294023755
---
header: 
  seq: 970
  stamp: 
    secs: 1602557429
    nsecs: 944817187
  frame_id: ''
D: 0.590577161654
delta: -0.130678902559
dD: -0.561785663011
ddelta: 0.169852322723
---
header: 
  seq: 971
  stamp: 
    secs: 1602557429
    nsecs: 964826125
  frame_id: ''
D: 0.581408917581
delta: -0.128506714782
dD: -0.458412203656
ddelta: 0.108609388867
---
header: 
  seq: 972
  stamp: 
    secs: 1602557429
    nsecs: 984819331
  frame_id: ''
D: 0.576750613294
delta: -0.12741820892
dD: -0.232915214321
ddelta: 0.0544252931109
---
header: 
  seq: 973
  stamp: 
    secs: 1602557430
    nsecs:   4816978
  frame_id: ''
D: 0.572369244106
delta: -0.126481393483
dD: -0.219068459409
ddelta: 0.0468407718952
---
header: 
  seq: 974
  stamp: 
    secs: 1602557430
    nsecs:  24823599
  frame_id: ''
D: 0.569918404206
delta: -0.126257539512
dD: -0.122541995016
ddelta: 0.0111926985458
---
header: 
  seq: 975
  stamp: 
    secs: 1602557430
    nsecs:  44817686
  frame_id: ''
D: 0.565386779252
delta: -0.113770494204
dD: -0.226581247699
ddelta: 0.624352265401
---
header: 
  seq: 976
  stamp: 
    secs: 1602557430
    nsecs:  64816976
  frame_id: ''
D: 0.562493833458
delta: -0.0964802281659
dD: -0.144647289708
ddelta: 0.864513302014
---
header: 
  seq: 977
  stamp: 
    secs: 1602557430
    nsecs:  84826520
  frame_id: ''
D: 0.55969077941
delta: -0.0777391374576
dD: -0.140152702436
ddelta: 0.937054535419
---
header: 
  seq: 978
  stamp: 
    secs: 1602557430
    nsecs: 104824140
  frame_id: ''
D: 0.558635605173
delta: -0.0600724260344
dD: -0.0527587118552
ddelta: 0.88333557116
---
header: 
  seq: 979
  stamp: 
    secs: 1602557430
    nsecs: 124817760
  frame_id: ''
D: 0.556163964061
delta: -0.0432072229265
dD: -0.123582055588
ddelta: 0.843260155393
---
header: 
  seq: 980
  stamp: 
    secs: 1602557430
    nsecs: 144825275
  frame_id: ''
D: 0.549473753744
delta: -0.0497778629089
dD: -0.334510515868
ddelta: -0.328531999121
---
header: 
  seq: 981
  stamp: 
    secs: 1602557430
    nsecs: 164819319
  frame_id: ''
D: 0.542521099072
delta: -0.0613128775811
dD: -0.347632733557
ddelta: -0.576750733601
---
header: 
  seq: 982
  stamp: 
    secs: 1602557430
    nsecs: 184816596
  frame_id: ''
D: 0.539949050125
delta: -0.0732804793535
dD: -0.128602447383
ddelta: -0.598380088592
---
header: 
  seq: 983
  stamp: 
    secs: 1602557430
    nsecs: 204824760
  frame_id: ''
D: 0.537399896735
delta: -0.0701427453664
dD: -0.127457669501
ddelta: 0.156886699356
---
header: 
  seq: 984
  stamp: 
    secs: 1602557430
    nsecs: 224818748
  frame_id: ''
D: 0.533667541983
delta: -0.0585479860326
dD: -0.186617737576
ddelta: 0.57973796669
---
header: 
  seq: 985
  stamp: 
    secs: 1602557430
    nsecs: 244811744
  frame_id: ''
D: 0.529527928797
delta: -0.0431363236391
dD: -0.206980659323
ddelta: 0.770583119729
---
header: 
  seq: 986
  stamp: 
    secs: 1602557430
    nsecs: 264829278
  frame_id: ''
D: 0.527110400144
delta: -0.0271798378243
dD: -0.120876432664
ddelta: 0.797824290747
---
header: 
  seq: 987
  stamp: 
    secs: 1602557430
    nsecs: 284811485
  frame_id: ''
D: 0.52517208416
delta: -0.0263730824988
dD: -0.0969157992214
ddelta: 0.0403377662746
---
header: 
  seq: 988
  stamp: 
    secs: 1602557430
    nsecs: 304817360
  frame_id: ''
D: 0.522515707556
delta: -0.0332439077055
dD: -0.132818830185
ddelta: -0.343541260334
---
header: 
  seq: 989
  stamp: 
    secs: 1602557430
    nsecs: 324845538
  frame_id: ''
D: 0.518944671212
delta: -0.0426841070432
dD: -0.178551817189
ddelta: -0.472009966886
---
header: 
  seq: 990
  stamp: 
    secs: 1602557430
    nsecs: 344817782
  frame_id: ''
D: 0.51361441179
delta: -0.0385382586323
dD: -0.266512971135
ddelta: 0.207292420546
---
header: 
  seq: 991
  stamp: 
    secs: 1602557430
    nsecs: 364813712
  frame_id: ''
D: 0.511120622222
delta: -0.0271072363526
dD: -0.124689478357
ddelta: 0.571551113982
---
header: 
  seq: 992
  stamp: 
    secs: 1602557430
    nsecs: 384845845
  frame_id: ''
D: 0.510468210263
delta: -0.00551903389722
dD: -0.032620597957
ddelta: 1.07941012277
---
header: 
  seq: 993
  stamp: 
    secs: 1602557430
    nsecs: 404813928
  frame_id: ''
D: 0.508928133476
delta: 0.0199599490749
dD: -0.0770038393447
ddelta: 1.2739491486
---
header: 
  seq: 994
  stamp: 
    secs: 1602557430
    nsecs: 424818528
  frame_id: ''
D: 0.501698629968
delta: 0.015540106687
dD: -0.361475175435
ddelta: -0.220992119394
---
header: 
  seq: 995
  stamp: 
    secs: 1602557430
    nsecs: 444820990
  frame_id: ''
D: 0.496371021478
delta: 0.0189189004744
dD: -0.266380424505
ddelta: 0.168939689372
---
header: 
  seq: 996
  stamp: 
    secs: 1602557430
    nsecs: 464817422
  frame_id: ''
D: 0.492451039421
delta: 0.0277740429736
dD: -0.195999102827
ddelta: 0.442757124957
---
header: 
  seq: 997
  stamp: 
    secs: 1602557430
    nsecs: 484813342
  frame_id: ''
D: 0.486993827433
delta: 0.0309005304231
dD: -0.27286059941
ddelta: 0.156324372474
---
header: 
  seq: 998
  stamp: 
    secs: 1602557430
    nsecs: 504824441
  frame_id: ''
D: 0.481831819644
delta: 0.0246101771127
dD: -0.25810038942
ddelta: -0.314517665516
---
header: 
  seq: 999
  stamp: 
    secs: 1602557430
    nsecs: 524813964
  frame_id: ''
D: 0.477971403384
delta: 0.0149218121357
dD: -0.193020813007
ddelta: -0.484418248852
---
header: 
  seq: 1000
  stamp: 
    secs: 1602557430
    nsecs: 544811558
  frame_id: ''
D: 0.475645025236
delta: 0.00541377756903
dD: -0.116318907417
ddelta: -0.475401728334
---
header: 
  seq: 1001
  stamp: 
    secs: 1602557430
    nsecs: 564826283
  frame_id: ''
D: 0.474665345006
delta: -0.00228967002629
dD: -0.0489840114904
ddelta: -0.385172379766
---
header: 
  seq: 1002
  stamp: 
    secs: 1602557430
    nsecs: 584818732
  frame_id: ''
D: 0.471136661939
delta: -0.00139826576076
dD: -0.176434153365
ddelta: 0.0445702132765
---
header: 
  seq: 1003
  stamp: 
    secs: 1602557430
    nsecs: 604815868
  frame_id: ''
D: 0.467054447286
delta: 0.0116979077832
dD: -0.204110732661
ddelta: 0.654808677195
---
header: 
  seq: 1004
  stamp: 
    secs: 1602557430
    nsecs: 634817356
  frame_id: ''
D: 0.465659457702
delta: 0.0263798073857
dD: -0.0697494791766
ddelta: 0.734094980129
---
header: 
  seq: 1005
  stamp: 
    secs: 1602557430
    nsecs: 654818042
  frame_id: ''
D: 0.469143377368
delta: 0.0303403821992
dD: 0.174195983291
ddelta: 0.198028740671
---
header: 
  seq: 1006
  stamp: 
    secs: 1602557430
    nsecs: 664817604
  frame_id: ''
D: 0.472027398862
delta: 0.0306649882901
dD: 0.144201074698
ddelta: 0.0162303045468
---
header: 
  seq: 1007
  stamp: 
    secs: 1602557430
    nsecs: 684826067
  frame_id: ''
D: 0.472837445721
delta: 0.0272629462691
dD: 0.0405023429435
ddelta: -0.170102101053
---
header: 
  seq: 1008
  stamp: 
    secs: 1602557430
    nsecs: 704818537
  frame_id: ''
D: 0.473111804304
delta: 0.0228011192918
dD: 0.0137179291425
ddelta: -0.223091348863
---
header: 
  seq: 1009
  stamp: 
    secs: 1602557430
    nsecs: 724818921
  frame_id: ''
D: 0.473576017113
delta: 0.0186972817377
dD: 0.0232106404527
ddelta: -0.205191877705
---
header: 
  seq: 1010
  stamp: 
    secs: 1602557430
    nsecs: 754821606
  frame_id: ''
D: 0.477086549856
delta: 0.0155798702128
dD: 0.175526637177
ddelta: -0.155870576248
---
header: 
  seq: 1011
  stamp: 
    secs: 1602557430
    nsecs: 774819194
  frame_id: ''
D: 0.47835156082
delta: 0.0134177079305
dD: 0.0632505481958
ddelta: -0.108108114112
---
header: 
  seq: 1012
  stamp: 
    secs: 1602557430
    nsecs: 794825580
  frame_id: ''
D: 0.478453392898
delta: 0.0120075126755
dD: 0.0050916038907
ddelta: -0.0705097627531
---
header: 
  seq: 1013
  stamp: 
    secs: 1602557430
    nsecs: 814821559
  frame_id: ''
D: 0.483016422192
delta: 0.0111599352091
dD: 0.228151464707
ddelta: -0.0423788733196
---
header: 
  seq: 1014
  stamp: 
    secs: 1602557430
    nsecs: 834817696
  frame_id: ''
D: 0.488827914111
delta: 0.0105787977849
dD: 0.290574595937
ddelta: -0.0290568712066
---
header: 
  seq: 1015
  stamp: 
    secs: 1602557430
    nsecs: 854822533
  frame_id: ''
D: 0.491507160177
delta: 0.0118452991232
dD: 0.133962303331
ddelta: 0.0633250669149
---
header: 
  seq: 1016
  stamp: 
    secs: 1602557430
    nsecs: 874816687
  frame_id: ''
D: 0.491905449251
delta: 0.0148171129887
dD: 0.0199144536648
ddelta: 0.148590693272
---
header: 
  seq: 1017
  stamp: 
    secs: 1602557430
    nsecs: 894816373
  frame_id: ''
D: 0.493627621456
delta: 0.017637962233
dD: 0.0861086102435
ddelta: 0.141042462216
---
header: 
  seq: 1018
  stamp: 
    secs: 1602557430
    nsecs: 914827825
  frame_id: ''
D: 0.495490124287
delta: 0.020013356369
dD: 0.0931251415533
ddelta: 0.118769706799
---
header: 
  seq: 1019
  stamp: 
    secs: 1602557430
    nsecs: 934818401
  frame_id: ''
D: 0.500428353657
delta: 0.0219325248123
dD: 0.246911468533
ddelta: 0.0959584221665
---
header: 
  seq: 1020
  stamp: 
    secs: 1602557430
    nsecs: 944813496
  frame_id: ''
D: 0.501276938369
delta: 0.024181755014
dD: 0.0424292356066
ddelta: 0.112461510085
---
header: 
  seq: 1021
  stamp: 
    secs: 1602557430
    nsecs: 974826160
  frame_id: ''
D: 0.503586346596
delta: 0.0272709068705
dD: 0.115470411349
ddelta: 0.154457592823
---
header: 
  seq: 1022
  stamp: 
    secs: 1602557430
    nsecs: 994817556
  frame_id: ''
D: 0.505440277551
delta: 0.0305449582912
dD: 0.0926965477013
ddelta: 0.163702571034
---
header: 
  seq: 1023
  stamp: 
    secs: 1602557431
    nsecs:  14817395
  frame_id: ''
D: 0.508477469654
delta: 0.0336665494358
dD: 0.151859605151
ddelta: 0.156079557232
---
header: 
  seq: 1024
  stamp: 
    secs: 1602557431
    nsecs:  34826851
  frame_id: ''
D: 0.513217992279
delta: 0.0363894772598
dD: 0.237026131256
ddelta: 0.1361463912
---
header: 
  seq: 1025
  stamp: 
    secs: 1602557431
    nsecs:  44817389
  frame_id: ''
D: 0.515696160426
delta: 0.0384384035985
dD: 0.123908407384
ddelta: 0.102446316935
---
header: 
  seq: 1026
  stamp: 
    secs: 1602557431
    nsecs:  64813598
  frame_id: ''
D: 0.51352522391
delta: 0.0400836514445
dD: -0.108546825802
ddelta: 0.082262392302
---
header: 
  seq: 1027
  stamp: 
    secs: 1602557431
    nsecs:  84813130
  frame_id: ''
D: 0.508969669493
delta: 0.0414728133614
dD: -0.227777720863
ddelta: 0.0694580958435
---
header: 
  seq: 1028
  stamp: 
    secs: 1602557431
    nsecs: 104821193
  frame_id: ''
D: 0.505430100568
delta: 0.0426678390304
dD: -0.17697844623
ddelta: 0.0597512834468
---
header: 
  seq: 1029
  stamp: 
    secs: 1602557431
    nsecs: 124813023
  frame_id: ''
D: 0.502430261258
delta: 0.0436454519255
dD: -0.149991965503
ddelta: 0.048880644759
---
header: 
  seq: 1030
  stamp: 
    secs: 1602557431
    nsecs: 144810896
  frame_id: ''
D: 0.497896216823
delta: 0.0444746611286
dD: -0.226702221792
ddelta: 0.0414604601543
---
header: 
  seq: 1031
  stamp: 
    secs: 1602557431
    nsecs: 174818826
  frame_id: ''
D: 0.491361559098
delta: 0.0453871535662
dD: -0.326732886249
ddelta: 0.0456246218777
---
header: 
  seq: 1032
  stamp: 
    secs: 1602557431
    nsecs: 184813236
  frame_id: ''
D: 0.487884124707
delta: 0.0462795452464
dD: -0.173871719539
ddelta: 0.0446195840104
---
header: 
  seq: 1033
  stamp: 
    secs: 1602557431
    nsecs: 204854968
  frame_id: ''
D: 0.487071671687
delta: 0.0471917044208
dD: -0.0406226509903
ddelta: 0.0456079587225
---
header: 
  seq: 1034
  stamp: 
    secs: 1602557431
    nsecs: 224822984
  frame_id: ''
D: 0.482388016307
delta: 0.0454104670686
dD: -0.234182768988
ddelta: -0.0890618676129
---
header: 
  seq: 1035
  stamp: 
    secs: 1602557431
    nsecs: 244811519
  frame_id: ''
D: 0.474573319404
delta: 0.0417339718854
dD: -0.390734845148
ddelta: -0.183824759158
---
header: 
  seq: 1036
  stamp: 
    secs: 1602557431
    nsecs: 264811600
  frame_id: ''
D: 0.467121132014
delta: 0.0375574940422
dD: -0.372609369503
ddelta: -0.208823892159
---
header: 
  seq: 1037
  stamp: 
    secs: 1602557431
    nsecs: 284827049
  frame_id: ''
D: 0.464220514043
delta: 0.0336995049156
dD: -0.145030898574
ddelta: -0.192899456329
---
header: 
  seq: 1038
  stamp: 
    secs: 1602557431
    nsecs: 304811440
  frame_id: ''
D: 0.464648029081
delta: 0.0125983308699
dD: 0.0213757518979
ddelta: -1.05505870229
---
header: 
  seq: 1039
  stamp: 
    secs: 1602557431
    nsecs: 324817813
  frame_id: ''
D: 0.460436040349
delta: -0.00441125172375
dD: -0.210599436579
ddelta: -0.850479129683
---
header: 
  seq: 1040
  stamp: 
    secs: 1602557431
    nsecs: 344815402
  frame_id: ''
D: 0.45567789009
delta: -0.024560571197
dD: -0.237907512942
ddelta: -1.00746597366
---
header: 
  seq: 1041
  stamp: 
    secs: 1602557431
    nsecs: 364816789
  frame_id: ''
D: 0.453047571719
delta: -0.0431855047647
dD: -0.131515918544
ddelta: -0.931246678385
---
header: 
  seq: 1042
  stamp: 
    secs: 1602557431
    nsecs: 384821853
  frame_id: ''
D: 0.454093079597
delta: -0.0580797746874
dD: 0.0522753939014
ddelta: -0.744713496138
---
header: 
  seq: 1043
  stamp: 
    secs: 1602557431
    nsecs: 404821613
  frame_id: ''
D: 0.456592091099
delta: -0.0788298360526
dD: 0.124950575069
ddelta: -1.03750306826
---
header: 
  seq: 1044
  stamp: 
    secs: 1602557431
    nsecs: 424817153
  frame_id: ''
D: 0.456366208774
delta: -0.0940855649205
dD: -0.0112941162574
ddelta: -0.762786443397
---
header: 
  seq: 1045
  stamp: 
    secs: 1602557431
    nsecs: 444825174
  frame_id: ''
D: 0.456095740694
delta: -0.105087678589
dD: -0.0135234039648
ddelta: -0.550105683416
---
header: 
  seq: 1046
  stamp: 
    secs: 1602557431
    nsecs: 464820530
  frame_id: ''
D: 0.456529706494
delta: -0.111039244282
dD: 0.0216982899945
ddelta: -0.29757828467
---
header: 
  seq: 1047
  stamp: 
    secs: 1602557431
    nsecs: 484818085
  frame_id: ''
D: 0.460239256039
delta: -0.113999936308
dD: 0.185477477225
ddelta: -0.148034601274
---
header: 
  seq: 1048
  stamp: 
    secs: 1602557431
    nsecs: 504823664
  frame_id: ''
D: 0.463199715558
delta: -0.114786471
dD: 0.148022975947
ddelta: -0.0393267345956
---
header: 
  seq: 1049
  stamp: 
    secs: 1602557431
    nsecs: 524820048
  frame_id: ''
D: 0.460425558406
delta: -0.103964294166
dD: -0.138707857603
ddelta: 0.541108841671
---
header: 
  seq: 1050
  stamp: 
    secs: 1602557431
    nsecs: 544818170
  frame_id: ''
D: 0.459645724551
delta: -0.0939216181475
dD: -0.0389916927238
ddelta: 0.502133800938
---
header: 
  seq: 1051
  stamp: 
    secs: 1602557431
    nsecs: 564825076
  frame_id: ''
D: 0.463077876256
delta: -0.101734927283
dD: 0.171607585272
ddelta: -0.39066545677
---
header: 
  seq: 1052
  stamp: 
    secs: 1602557431
    nsecs: 584815012
  frame_id: ''
D: 0.467919382245
delta: -0.101441786622
dD: 0.242075299429
ddelta: 0.0146570330289
---
header: 
  seq: 1053
  stamp: 
    secs: 1602557431
    nsecs: 604816861
  frame_id: ''
D: 0.467583318417
delta: -0.105635371875
dD: -0.0168031914259
ddelta: -0.209679262656
---
header: 
  seq: 1054
  stamp: 
    secs: 1602557431
    nsecs: 624827176
  frame_id: ''
D: 0.467426292816
delta: -0.112327288167
dD: -0.00785128004153
ddelta: -0.334595814597
---
header: 
  seq: 1055
  stamp: 
    secs: 1602557431
    nsecs: 644824893
  frame_id: ''
D: 0.468150336172
delta: -0.119904556336
dD: 0.0362021678178
ddelta: -0.378863408446
---
header: 
  seq: 1056
  stamp: 
    secs: 1602557431
    nsecs: 664814560
  frame_id: ''
D: 0.469765808899
delta: -0.127378859696
dD: 0.080773636371
ddelta: -0.373715167971
---
header: 
  seq: 1057
  stamp: 
    secs: 1602557431
    nsecs: 684826885
  frame_id: ''
D: 0.47284562364
delta: -0.133208510963
dD: 0.153990737036
ddelta: -0.291482563371
---
header: 
  seq: 1058
  stamp: 
    secs: 1602557431
    nsecs: 704817039
  frame_id: ''
D: 0.472631348881
delta: -0.125842347865
dD: -0.0107137379688
ddelta: 0.368308154899
---
header: 
  seq: 1059
  stamp: 
    secs: 1602557431
    nsecs: 724814595
  frame_id: ''
D: 0.471691615226
delta: -0.11421881333
dD: -0.0469866827571
ddelta: 0.581176726737
---
header: 
  seq: 1060
  stamp: 
    secs: 1602557431
    nsecs: 744819635
  frame_id: ''
D: 0.471197736354
delta: -0.103696120172
dD: -0.0246939435816
ddelta: 0.526134657897
---
header: 
  seq: 1061
  stamp: 
    secs: 1602557431
    nsecs: 764815057
  frame_id: ''
D: 0.473365063911
delta: -0.0967164209347
dD: 0.108366377847
ddelta: 0.348984961889
---
header: 
  seq: 1062
  stamp: 
    secs: 1602557431
    nsecs: 784816338
  frame_id: ''
D: 0.472437883161
delta: -0.0941067889036
dD: -0.0463590374753
ddelta: 0.130481601553
---
header: 
  seq: 1063
  stamp: 
    secs: 1602557431
    nsecs: 804845407
  frame_id: ''
D: 0.470652651461
delta: -0.0958099209856
dD: -0.0892615850447
ddelta: -0.0851566040997
---
header: 
  seq: 1064
  stamp: 
    secs: 1602557431
    nsecs: 834818324
  frame_id: ''
D: 0.473756795166
delta: -0.102357313518
dD: 0.155207185252
ddelta: -0.327369626612
---
header: 
  seq: 1065
  stamp: 
    secs: 1602557431
    nsecs: 854814591
  frame_id: ''
D: 0.478876839589
delta: -0.110733621778
dD: 0.256002221182
ddelta: -0.418815413026
---
header: 
  seq: 1066
  stamp: 
    secs: 1602557431
    nsecs: 864818598
  frame_id: ''
D: 0.483399360629
delta: -0.11859779457
dD: 0.226126051969
ddelta: -0.393208639582
---
header: 
  seq: 1067
  stamp: 
    secs: 1602557431
    nsecs: 884819309
  frame_id: ''
D: 0.483366255336
delta: -0.128691679975
dD: -0.00165526464968
ddelta: -0.504694270272
---
header: 
  seq: 1068
  stamp: 
    secs: 1602557431
    nsecs: 904816781
  frame_id: ''
D: 0.483766712473
delta: -0.14038221027
dD: 0.0200228568764
ddelta: -0.584526514739
---
header: 
  seq: 1069
  stamp: 
    secs: 1602557431
    nsecs: 924818139
  frame_id: ''
D: 0.486288443835
delta: -0.152586816593
dD: 0.126086568094
ddelta: -0.610230316145
---
header: 
  seq: 1070
  stamp: 
    secs: 1602557431
    nsecs: 944820332
  frame_id: ''
D: 0.487428656367
delta: -0.165555186085
dD: 0.0570106265759
ddelta: -0.6484184746
---
header: 
  seq: 1071
  stamp: 
    secs: 1602557431
    nsecs: 964815945
  frame_id: ''
D: 0.487108515445
delta: -0.179996279638
dD: -0.0160070460665
ddelta: -0.722054677639
---
header: 
  seq: 1072
  stamp: 
    secs: 1602557431
    nsecs: 984815925
  frame_id: ''
D: 0.486685775769
delta: -0.19488601765
dD: -0.0211369838044
ddelta: -0.744486900595
---
header: 
  seq: 1073
  stamp: 
    secs: 1602557432
    nsecs:   4820593
  frame_id: ''
D: 0.48633173132
delta: -0.209369410536
dD: -0.0177022224487
ddelta: -0.724169644315
---
header: 
  seq: 1074
  stamp: 
    secs: 1602557432
    nsecs:  24817124
  frame_id: ''
D: 0.486090983813
delta: -0.222824347538
dD: -0.0120373753552
ddelta: -0.672746850096
---
header: 
  seq: 1075
  stamp: 
    secs: 1602557432
    nsecs:  44810222
  frame_id: ''
D: 0.487562994123
delta: -0.232962691006
dD: 0.0736005155216
ddelta: -0.506917173402
---
header: 
  seq: 1076
  stamp: 
    secs: 1602557432
    nsecs:  64820152
  frame_id: ''
D: 0.48444127396
delta: -0.233083616294
dD: -0.156086008154
ddelta: -0.00604626441793
---
header: 
  seq: 1077
  stamp: 
    secs: 1602557432
    nsecs:  84820512
  frame_id: ''
D: 0.479991709704
delta: -0.23813511149
dD: -0.222478212833
ddelta: -0.252574759776
---
header: 
  seq: 1078
  stamp: 
    secs: 1602557432
    nsecs: 104810661
  frame_id: ''
D: 0.478426471691
delta: -0.245944926213
dD: -0.0782619006426
ddelta: -0.390490736162
---
header: 
  seq: 1079
  stamp: 
    secs: 1602557432
    nsecs: 124821597
  frame_id: ''
D: 0.478811984588
delta: -0.256002917403
dD: 0.0192756448535
ddelta: -0.502899559507
---
header: 
  seq: 1080
  stamp: 
    secs: 1602557432
    nsecs: 144821809
  frame_id: ''
D: 0.480160474662
delta: -0.253277903579
dD: 0.0674245037072
ddelta: 0.136250691206
---
header: 
  seq: 1081
  stamp: 
    secs: 1602557432
    nsecs: 164816558
  frame_id: ''
D: 0.478039544893
delta: -0.252133260131
dD: -0.106046488474
ddelta: 0.0572321724276
---
header: 
  seq: 1082
  stamp: 
    secs: 1602557432
    nsecs: 194818867
  frame_id: ''
D: 0.472738833926
delta: -0.242637625696
dD: -0.265035548347
ddelta: 0.474781721734
---
header: 
  seq: 1083
  stamp: 
    secs: 1602557432
    nsecs: 204817876
  frame_id: ''
D: 0.469670817242
delta: -0.232801445855
dD: -0.153400834169
ddelta: 0.491808992063
---
header: 
  seq: 1084
  stamp: 
    secs: 1602557432
    nsecs: 224817583
  frame_id: ''
D: 0.467389476475
delta: -0.221120464922
dD: -0.114067038385
ddelta: 0.584049046661
---
header: 
  seq: 1085
  stamp: 
    secs: 1602557432
    nsecs: 244819976
  frame_id: ''
D: 0.465129917261
delta: -0.206434529261
dD: -0.112977960669
ddelta: 0.734296783037
---
header: 
  seq: 1086
  stamp: 
    secs: 1602557432
    nsecs: 264816928
  frame_id: ''
D: 0.462698735027
delta: -0.195019117616
dD: -0.12155911172
ddelta: 0.570770582265
---
header: 
  seq: 1087
  stamp: 
    secs: 1602557432
    nsecs: 284818878
  frame_id: ''
D: 0.461322201035
delta: -0.203770723894
dD: -0.0688266995741
ddelta: -0.437580313902
---
header: 
  seq: 1088
  stamp: 
    secs: 1602557432
    nsecs: 314822362
  frame_id: ''
D: 0.464328723497
delta: -0.215041628496
dD: 0.150326123102
ddelta: -0.56354523011
---
header: 
  seq: 1089
  stamp: 
    secs: 1602557432
    nsecs: 334817181
  frame_id: ''
D: 0.466836417192
delta: -0.224419533787
dD: 0.125384684735
ddelta: -0.468895264539
---
header: 
  seq: 1090
  stamp: 
    secs: 1602557432
    nsecs: 344818697
  frame_id: ''
D: 0.467081874203
delta: -0.227770526081
dD: 0.0122728505518
ddelta: -0.167549614728
---
header: 
  seq: 1091
  stamp: 
    secs: 1602557432
    nsecs: 364824106
  frame_id: ''
D: 0.466247435076
delta: -0.227348615803
dD: -0.0417219563433
ddelta: 0.0210955139192
---
header: 
  seq: 1092
  stamp: 
    secs: 1602557432
    nsecs: 384815670
  frame_id: ''
D: 0.468328573286
delta: -0.228280722871
dD: 0.104056910477
ddelta: -0.0466053534143
---
header: 
  seq: 1093
  stamp: 
    secs: 1602557432
    nsecs: 404815903
  frame_id: ''
D: 0.472571891409
delta: -0.233854285958
dD: 0.212165906183
ddelta: -0.278678154344
---
header: 
  seq: 1094
  stamp: 
    secs: 1602557432
    nsecs: 424818888
  frame_id: ''
D: 0.474462705528
delta: -0.250183644165
dD: 0.094540705933
ddelta: -0.816467910369
---
header: 
  seq: 1095
  stamp: 
    secs: 1602557432
    nsecs: 444814483
  frame_id: ''
D: 0.474293215749
delta: -0.269812450922
dD: -0.00847448896521
ddelta: -0.981440337853
---
header: 
  seq: 1096
  stamp: 
    secs: 1602557432
    nsecs: 464812800
  frame_id: ''
D: 0.474619712819
delta: -0.292813057285
dD: 0.0163248534941
ddelta: -1.15003031814
---
header: 
  seq: 1097
  stamp: 
    secs: 1602557432
    nsecs: 484822242
  frame_id: ''
D: 0.477920514165
delta: -0.316803708741
dD: 0.165040067327
ddelta: -1.19953257281
---
header: 
  seq: 1098
  stamp: 
    secs: 1602557432
    nsecs: 504813363
  frame_id: ''
D: 0.483561926173
delta: -0.317575588247
dD: 0.282070600379
ddelta: -0.0385939752663
---
header: 
  seq: 1099
  stamp: 
    secs: 1602557432
    nsecs: 524810820
  frame_id: ''
D: 0.487698681001
delta: -0.303222806632
dD: 0.20683774142
ddelta: 0.717639080739
---
header: 
  seq: 1100
  stamp: 
    secs: 1602557432
    nsecs: 544819281
  frame_id: ''
D: 0.489375143241
delta: -0.296710428688
dD: 0.0838231120005
ddelta: 0.325618897181
---
header: 
  seq: 1101
  stamp: 
    secs: 1602557432
    nsecs: 574818978
  frame_id: ''
D: 0.49227814667
delta: -0.285010950028
dD: 0.145150171416
ddelta: 0.584973933024
---
header: 
  seq: 1102
  stamp: 
    secs: 1602557432
    nsecs: 584816600
  frame_id: ''
D: 0.49607583721
delta: -0.284532204012
dD: 0.189884527008
ddelta: 0.023937300813
---
header: 
  seq: 1103
  stamp: 
    secs: 1602557432
    nsecs: 604826067
  frame_id: ''
D: 0.501103821275
delta: -0.29109951755
dD: 0.251399203259
ddelta: -0.328365676897
---
header: 
  seq: 1104
  stamp: 
    secs: 1602557432
    nsecs: 624820495
  frame_id: ''
D: 0.500067707041
delta: -0.305484407872
dD: -0.0518057116784
ddelta: -0.719244516096
---
header: 
  seq: 1105
  stamp: 
    secs: 1602557432
    nsecs: 644817657
  frame_id: ''
D: 0.496548329615
delta: -0.324816199206
dD: -0.175968871338
ddelta: -0.966589566721
---
header: 
  seq: 1106
  stamp: 
    secs: 1602557432
    nsecs: 664825673
  frame_id: ''
D: 0.496884699997
delta: -0.337078991634
dD: 0.0168185191026
ddelta: -0.613139621404
---
header: 
  seq: 1107
  stamp: 
    secs: 1602557432
    nsecs: 684819569
  frame_id: ''
D: 0.50023006338
delta: -0.348108982773
dD: 0.167268169172
ddelta: -0.551499556957
---
header: 
  seq: 1108
  stamp: 
    secs: 1602557432
    nsecs: 704818146
  frame_id: ''
D: 0.501966016398
delta: -0.360764029353
dD: 0.0867976509176
ddelta: -0.632752328968
---
header: 
  seq: 1109
  stamp: 
    secs: 1602557432
    nsecs: 724850137
  frame_id: ''
D: 0.496204623977
delta: -0.380498456536
dD: -0.288069621073
ddelta: -0.986721359196
---
header: 
  seq: 1110
  stamp: 
    secs: 1602557432
    nsecs: 744817315
  frame_id: ''
D: 0.490353443775
delta: -0.394916828008
dD: -0.292559010108
ddelta: -0.720918573562
---
header: 
  seq: 1111
  stamp: 
    secs: 1602557432
    nsecs: 764815226
  frame_id: ''
D: 0.49031165812
delta: -0.399999999681
dD: -0.00208928276033
ddelta: -0.254158583676
---
header: 
  seq: 1112
  stamp: 
    secs: 1602557432
    nsecs: 794822701
  frame_id: ''
D: 0.487588794166
delta: -0.399999999994
dD: -0.136143197684
ddelta: -1.56199734258e-08
---
header: 
  seq: 1113
  stamp: 
    secs: 1602557432
    nsecs: 804814991
  frame_id: ''
D: 0.48146253337
delta: -0.399999999999
dD: -0.306313039797
ddelta: -2.83863307203e-10
---
header: 
  seq: 1114
  stamp: 
    secs: 1602557432
    nsecs: 824816743
  frame_id: ''
D: 0.478345466489
delta: -0.399999999995
dD: -0.15585334404
ddelta: 1.9366760359e-10
---
header: 
  seq: 1115
  stamp: 
    secs: 1602557432
    nsecs: 844823110
  frame_id: ''
D: 0.474172105608
delta: -0.4
dD: -0.208668044081
ddelta: -2.27726572675e-10
---
header: 
  seq: 1116
  stamp: 
    secs: 1602557432
    nsecs: 864819535
  frame_id: ''
D: 0.473077033291
delta: -0.399999999996
dD: -0.0547536158249
ddelta: 2.03130378885e-10
---
header: 
  seq: 1117
  stamp: 
    secs: 1602557432
    nsecs: 884816022
  frame_id: ''
D: 0.475808654153
delta: -0.399999999973
dD: 0.136581043083
ddelta: 1.14880489016e-09
---
header: 
  seq: 1118
  stamp: 
    secs: 1602557432
    nsecs: 904818223
  frame_id: ''
D: 0.47640570626
delta: -0.399999999864
dD: 0.0298526053841
ddelta: 5.45133988062e-09
---
header: 
  seq: 1119
  stamp: 
    secs: 1602557432
    nsecs: 924815895
  frame_id: ''
D: 0.483986527306
delta: -0.399999982242
dD: 0.379041052301
ddelta: 8.81072860937e-07
---
header: 
  seq: 1120
  stamp: 
    secs: 1602557432
    nsecs: 944810555
  frame_id: ''
D: 0.501178937219
delta: -0.399999999983
dD: 0.859620495634
ddelta: -8.87040812726e-07
---
header: 
  seq: 1121
  stamp: 
    secs: 1602557432
    nsecs: 964817466
  frame_id: ''
D: 0.519714270176
delta: -0.399999999988
dD: 0.926766647849
ddelta: -2.62707461115e-10
---
header: 
  seq: 1122
  stamp: 
    secs: 1602557432
    nsecs: 984822987
  frame_id: ''
D: 0.545734973556
delta: -0.399999999945
dD: 1.301035169
ddelta: 2.18520705606e-09
---
header: 
  seq: 1123
  stamp: 
    secs: 1602557433
    nsecs:   4816387
  frame_id: ''
D: 0.582009045034
delta: -0.399999999728
dD: 1.81370357392
ddelta: 1.08235288259e-08
---
header: 
  seq: 1124
  stamp: 
    secs: 1602557433
    nsecs:  24811088
  frame_id: ''
D: 0.616326894128
delta: -0.399999984767
dD: 1.71589245469
ddelta: 7.48076636222e-07
---
header: 
  seq: 1125
  stamp: 
    secs: 1602557433
    nsecs:  44823416
  frame_id: ''
D: 0.6469646115
delta: -0.399999276993
dD: 1.53188586857
ddelta: 3.53887109188e-05
---
header: 
  seq: 1126
  stamp: 
    secs: 1602557433
    nsecs:  64814809
  frame_id: ''
D: 0.67303543289
delta: -0.3998815049
dD: 1.30354106952
ddelta: 0.00588860463061
---
header: 
  seq: 1127
  stamp: 
    secs: 1602557433
    nsecs:  84816792
  frame_id: ''
D: 0.694032542345
delta: -0.399409470854
dD: 1.04985547274
ddelta: 0.0236017022861
---
header: 
  seq: 1128
  stamp: 
    secs: 1602557433
    nsecs: 104825333
  frame_id: ''
D: 0.707483178814
delta: -0.398975157494
dD: 0.672531823465
ddelta: 0.0217156680103
---
header: 
  seq: 1129
  stamp: 
    secs: 1602557433
    nsecs: 124819527
  frame_id: ''
D: 0.715802901481
delta: -0.398921055288
dD: 0.415986133335
ddelta: 0.00270511031384
---
header: 
  seq: 1130
  stamp: 
    secs: 1602557433
    nsecs: 144812415
  frame_id: ''
D: 0.645986725704
delta: -0.360521035006
dD: -3.49080878886
ddelta: 1.9200010141
---
header: 
  seq: 1131
  stamp: 
    secs: 1602557433
    nsecs: 164819704
  frame_id: ''
D: 0.545986725845
delta: -0.326449257261
dD: -4.99999999297
ddelta: 1.70358888722
---
header: 
  seq: 1132
  stamp: 
    secs: 1602557433
    nsecs: 184811948
  frame_id: ''
D: 0.445986725847
delta: -0.292933882843
dD: -4.99999999986
ddelta: 1.67576872091
---
header: 
  seq: 1133
  stamp: 
    secs: 1602557433
    nsecs: 204811308
  frame_id: ''
D: 0.382385126005
delta: -0.299882486564
dD: -3.18007999213
ddelta: -0.347430186016
---
header: 
  seq: 1134
  stamp: 
    secs: 1602557433
    nsecs: 224820315
  frame_id: ''
D: 0.358160270775
delta: -0.317498747467
dD: -1.21124276147
ddelta: -0.880813045193
---
header: 
  seq: 1135
  stamp: 
    secs: 1602557433
    nsecs: 244817859
  frame_id: ''
D: 0.367811986554
delta: -0.336620249425
dD: 0.48258578892
ddelta: -0.95607509788
---
header: 
  seq: 1136
  stamp: 
    secs: 1602557433
    nsecs: 264816528
  frame_id: ''
D: 0.36115759463
delta: -0.325160428847
dD: -0.332719596186
ddelta: 0.572991028908
---
header: 
  seq: 1137
  stamp: 
    secs: 1602557433
    nsecs: 284825457
  frame_id: ''
D: 0.348478503717
delta: -0.306277108557
dD: -0.63395454568
ddelta: 0.944166014467
---
header: 
  seq: 1138
  stamp: 
    secs: 1602557433
    nsecs: 304818439
  frame_id: ''
D: 0.342565364877
delta: -0.292671027446
dD: -0.295656941994
ddelta: 0.680304055576
---
header: 
  seq: 1139
  stamp: 
    secs: 1602557433
    nsecs: 324816121
  frame_id: ''
D: 0.343051850802
delta: -0.287911642981
dD: 0.0243242962762
ddelta: 0.237969223259
---
header: 
  seq: 1140
  stamp: 
    secs: 1602557433
    nsecs: 344825799
  frame_id: ''
D: 0.351681565322
delta: -0.269083393585
dD: 0.431485725976
ddelta: 0.941412469796
---
header: 
  seq: 1141
  stamp: 
    secs: 1602557433
    nsecs: 364819236
  frame_id: ''
D: 0.368190734829
delta: -0.266300903374
dD: 0.825458475357
ddelta: 0.13912451053
---
header: 
  seq: 1142
  stamp: 
    secs: 1602557433
    nsecs: 384816542
  frame_id: ''
D: 0.383990551311
delta: -0.265304497908
dD: 0.789990824131
ddelta: 0.049820273329
---
header: 
  seq: 1143
  stamp: 
    secs: 1602557433
    nsecs: 404824820
  frame_id: ''
D: 0.400618000678
delta: -0.264956534992
dD: 0.831372468328
ddelta: 0.0173981458302
---
header: 
  seq: 1144
  stamp: 
    secs: 1602557433
    nsecs: 424842596
  frame_id: ''
D: 0.418137559324
delta: -0.277038379267
dD: 0.875977932314
ddelta: -0.604092213765
---
header: 
  seq: 1145
  stamp: 
    secs: 1602557433
    nsecs: 444816578
  frame_id: ''
D: 0.433220967968
delta: -0.28737509205
dD: 0.754170432189
ddelta: -0.516835639178
---
header: 
  seq: 1146
  stamp: 
    secs: 1602557433
    nsecs: 464825087
  frame_id: ''
D: 0.445804829401
delta: -0.295597985604
dD: 0.629193071631
ddelta: -0.411144677656
---
header: 
  seq: 1147
  stamp: 
    secs: 1602557433
    nsecs: 484814871
  frame_id: ''
D: 0.456885031492
delta: -0.304355927769
dD: 0.554010104573
ddelta: -0.437897108263
---
header: 
  seq: 1148
  stamp: 
    secs: 1602557433
    nsecs: 504811365
  frame_id: ''
D: 0.468085643283
delta: -0.308514349789
dD: 0.560030589524
ddelta: -0.207921100995
---
header: 
  seq: 1149
  stamp: 
    secs: 1602557433
    nsecs: 524826870
  frame_id: ''
D: 0.477965676132
delta: -0.297909893894
dD: 0.494001642472
ddelta: 0.530222794735
---
header: 
  seq: 1150
  stamp: 
    secs: 1602557433
    nsecs: 544813981
  frame_id: ''
D: 0.483265786042
delta: -0.284868311842
dD: 0.265005495503
ddelta: 0.652079102606
---
header: 
  seq: 1151
  stamp: 
    secs: 1602557433
    nsecs: 564812936
  frame_id: ''
D: 0.486802213464
delta: -0.275274512635
dD: 0.176821371114
ddelta: 0.479689960344
---
header: 
  seq: 1152
  stamp: 
    secs: 1602557433
    nsecs: 584822426
  frame_id: ''
D: 0.489675800103
delta: -0.273070486777
dD: 0.14367933194
ddelta: 0.11020129291
---
header: 
  seq: 1153
  stamp: 
    secs: 1602557433
    nsecs: 604819063
  frame_id: ''
D: 0.492319684578
delta: -0.278255434315
dD: 0.132194223756
ddelta: -0.259247376883
---
header: 
  seq: 1154
  stamp: 
    secs: 1602557433
    nsecs: 624817998
  frame_id: ''
D: 0.494820894081
delta: -0.289311522871
dD: 0.125060475151
ddelta: -0.552804427809
---
header: 
  seq: 1155
  stamp: 
    secs: 1602557433
    nsecs: 644817001
  frame_id: ''
D: 0.494586814849
delta: -0.298568495496
dD: -0.0117039616224
ddelta: -0.462848631266
---
header: 
  seq: 1156
  stamp: 
    secs: 1602557433
    nsecs: 664819060
  frame_id: ''
D: 0.494933625633
delta: -0.300439567309
dD: 0.0173405392105
ddelta: -0.093553590667
---
header: 
  seq: 1157
  stamp: 
    secs: 1602557433
    nsecs: 684816704
  frame_id: ''
D: 0.497894768326
delta: -0.303315429328
dD: 0.148057134651
ddelta: -0.143793100954
---
header: 
  seq: 1158
  stamp: 
    secs: 1602557433
    nsecs: 704819717
  frame_id: ''
D: 0.501427200695
delta: -0.309196906354
dD: 0.176621618452
ddelta: -0.294073851284
---
header: 
  seq: 1159
  stamp: 
    secs: 1602557433
    nsecs: 724823208
  frame_id: ''
D: 0.501323900277
delta: -0.308378148458
dD: -0.00516502092875
ddelta: 0.0409378948114
---
header: 
  seq: 1160
  stamp: 
    secs: 1602557433
    nsecs: 744812184
  frame_id: ''
D: 0.498645228109
delta: -0.301922444814
dD: -0.133933608379
ddelta: 0.322785182183
---
header: 
  seq: 1161
  stamp: 
    secs: 1602557433
    nsecs: 764822065
  frame_id: ''
D: 0.49523924376
delta: -0.290346690548
dD: -0.170299217443
ddelta: 0.578787713324
---
header: 
  seq: 1162
  stamp: 
    secs: 1602557433
    nsecs: 784817958
  frame_id: ''
D: 0.493003375998
delta: -0.275018447077
dD: -0.111793388086
ddelta: 0.766412173528
---
header: 
  seq: 1163
  stamp: 
    secs: 1602557433
    nsecs: 804815773
  frame_id: ''
D: 0.49187763595
delta: -0.26078270152
dD: -0.0562870024048
ddelta: 0.711787277852
---
header: 
  seq: 1164
  stamp: 
    secs: 1602557433
    nsecs: 824819466
  frame_id: ''
D: 0.487225213317
delta: -0.249332890045
dD: -0.232621131642
ddelta: 0.572490573744
---
header: 
  seq: 1165
  stamp: 
    secs: 1602557433
    nsecs: 844821380
  frame_id: ''
D: 0.47997199373
delta: -0.235898400113
dD: -0.362660979371
ddelta: 0.671724496601
---
header: 
  seq: 1166
  stamp: 
    secs: 1602557433
    nsecs: 864816705
  frame_id: ''
D: 0.474517965656
delta: -0.21494556718
dD: -0.272701403722
ddelta: 1.04764164666
---
header: 
  seq: 1167
  stamp: 
    secs: 1602557433
    nsecs: 884821934
  frame_id: ''
D: 0.472304560641
delta: -0.200373593396
dD: -0.110670250754
ddelta: 0.728598689221
---
header: 
  seq: 1168
  stamp: 
    secs: 1602557433
    nsecs: 904821340
  frame_id: ''
D: 0.469674350513
delta: -0.177732403149
dD: -0.131510506387
ddelta: 1.13205951231
---
header: 
  seq: 1169
  stamp: 
    secs: 1602557433
    nsecs: 924814747
  frame_id: ''
D: 0.465436253685
delta: -0.157229203537
dD: -0.21190484137
ddelta: 1.02515998061
---
header: 
  seq: 1170
  stamp: 
    secs: 1602557433
    nsecs: 944813887
  frame_id: ''
D: 0.460888075079
delta: -0.131217603558
dD: -0.227408930333
ddelta: 1.30057999897
---
header: 
  seq: 1171
  stamp: 
    secs: 1602557433
    nsecs: 964818599
  frame_id: ''
D: 0.459568565533
delta: -0.0915201911143
dD: -0.0659754772856
ddelta: 1.98487062217
---
header: 
  seq: 1172
  stamp: 
    secs: 1602557433
    nsecs: 984811991
  frame_id: ''
D: 0.462426932706
delta: -0.0655676356729
dD: 0.142918358652
ddelta: 1.29762777207
---
header: 
  seq: 1173
  stamp: 
    secs: 1602557434
    nsecs:   4817034
  frame_id: ''
D: 0.459768513937
delta: -0.0321944618453
dD: -0.132920938462
ddelta: 1.66865869138
---
header: 
  seq: 1174
  stamp: 
    secs: 1602557434
    nsecs:  24819837
  frame_id: ''
D: 0.455929865693
delta: 0.00259606177377
dD: -0.191932412171
ddelta: 1.73952618095
---
header: 
  seq: 1175
  stamp: 
    secs: 1602557434
    nsecs:  44817694
  frame_id: ''
D: 0.453277486147
delta: 0.0346345153489
dD: -0.132618977309
ddelta: 1.60192267876
---
header: 
  seq: 1176
  stamp: 
    secs: 1602557434
    nsecs:  64816075
  frame_id: ''
D: 0.453933812506
delta: 0.0628751601583
dD: 0.0328163179462
ddelta: 1.41203224047
---
header: 
  seq: 1177
  stamp: 
    secs: 1602557434
    nsecs:  84814363
  frame_id: ''
D: 0.456832642254
delta: 0.0792740071197
dD: 0.144941487401
ddelta: 0.819942348071
---
header: 
  seq: 1178
  stamp: 
    secs: 1602557434
    nsecs: 104818291
  frame_id: ''
D: 0.454841263879
delta: 0.104434977334
dD: -0.0995689187603
ddelta: 1.25804851074
---
header: 
  seq: 1179
  stamp: 
    secs: 1602557434
    nsecs: 124821443
  frame_id: ''
D: 0.452155120508
delta: 0.132012487043
dD: -0.134307168553
ddelta: 1.37887548544
---
header: 
  seq: 1180
  stamp: 
    secs: 1602557434
    nsecs: 144818231
  frame_id: ''
D: 0.454248319131
delta: 0.157640323812
dD: 0.104659931153
ddelta: 1.28139183845
---
header: 
  seq: 1181
  stamp: 
    secs: 1602557434
    nsecs: 164816337
  frame_id: ''
D: 0.461041978357
delta: 0.165203960835
dD: 0.339682961299
ddelta: 0.378181851134
---
header: 
  seq: 1182
  stamp: 
    secs: 1602557434
    nsecs: 184826655
  frame_id: ''
D: 0.465868786786
delta: 0.17764938959
dD: 0.241340421457
ddelta: 0.622271437751
---
header: 
  seq: 1183
  stamp: 
    secs: 1602557434
    nsecs: 204820188
  frame_id: ''
D: 0.466798105762
delta: 0.201290045341
dD: 0.0464659488013
ddelta: 1.18203278757
---
header: 
  seq: 1184
  stamp: 
    secs: 1602557434
    nsecs: 224814952
  frame_id: ''
D: 0.469104060358
delta: 0.219807367368
dD: 0.115297729788
ddelta: 0.925866101306
---
header: 
  seq: 1185
  stamp: 
    secs: 1602557434
    nsecs: 244822445
  frame_id: ''
D: 0.4719407354
delta: 0.227637342773
dD: 0.141833752088
ddelta: 0.391498770273
---
header: 
  seq: 1186
  stamp: 
    secs: 1602557434
    nsecs: 264821463
  frame_id: ''
D: 0.478736666917
delta: 0.226344701365
dD: 0.339796575889
ddelta: -0.0646320703975
---
header: 
  seq: 1187
  stamp: 
    secs: 1602557434
    nsecs: 284814979
  frame_id: ''
D: 0.481922432358
delta: 0.217015701629
dD: 0.159288272048
ddelta: -0.46644998682
---
header: 
  seq: 1188
  stamp: 
    secs: 1602557434
    nsecs: 304827508
  frame_id: ''
D: 0.484310997378
delta: 0.211041968309
dD: 0.119428250986
ddelta: -0.298686665976
---
header: 
  seq: 1189
  stamp: 
    secs: 1602557434
    nsecs: 324842620
  frame_id: ''
D: 0.486653087399
delta: 0.211074764763
dD: 0.117104501064
ddelta: 0.00163982267459
---
header: 
  seq: 1190
  stamp: 
    secs: 1602557434
    nsecs: 344817081
  frame_id: ''
D: 0.4894467727
delta: 0.217989029312
dD: 0.139684265021
ddelta: 0.345713227486
---
header: 
  seq: 1191
  stamp: 
    secs: 1602557434
    nsecs: 364823174
  frame_id: ''
D: 0.493945807256
delta: 0.22310309218
dD: 0.224951727798
ddelta: 0.255703143376
---
header: 
  seq: 1192
  stamp: 
    secs: 1602557434
    nsecs: 384843543
  frame_id: ''
D: 0.494202631975
delta: 0.241495958855
dD: 0.01284123594
ddelta: 0.919643333748
---
header: 
  seq: 1193
  stamp: 
    secs: 1602557434
    nsecs: 404813549
  frame_id: ''
D: 0.494590208113
delta: 0.250098974801
dD: 0.0193788069468
ddelta: 0.430150797317
---
header: 
  seq: 1194
  stamp: 
    secs: 1602557434
    nsecs: 424826608
  frame_id: ''
D: 0.496436641396
delta: 0.256884011965
dD: 0.0923216641365
ddelta: 0.339251858199
---
header: 
  seq: 1195
  stamp: 
    secs: 1602557434
    nsecs: 444814365
  frame_id: ''
D: 0.499905268617
delta: 0.257944946626
dD: 0.173431361036
ddelta: 0.0530467330431
---
header: 
  seq: 1196
  stamp: 
    secs: 1602557434
    nsecs: 464813407
  frame_id: ''
D: 0.500621108614
delta: 0.259565733916
dD: 0.0357919998376
ddelta: 0.081039364508
---
header: 
  seq: 1197
  stamp: 
    secs: 1602557434
    nsecs: 484823741
  frame_id: ''
D: 0.498793506804
delta: 0.266055081083
dD: -0.0913800905036
ddelta: 0.324467358343
---
header: 
  seq: 1198
  stamp: 
    secs: 1602557434
    nsecs: 504816867
  frame_id: ''
D: 0.497842094285
delta: 0.27736799147
dD: -0.0475706259223
ddelta: 0.565645519338
---
header: 
  seq: 1199
  stamp: 
    secs: 1602557434
    nsecs: 524817773
  frame_id: ''
D: 0.496535566608
delta: 0.293244717853
dD: -0.0653263838385
ddelta: 0.793836319146
---
header: 
  seq: 1200
  stamp: 
    secs: 1602557434
    nsecs: 554819146
  frame_id: ''
D: 0.492408260422
delta: 0.317775701767
dD: -0.206365309317
ddelta: 1.22654919569
---
header: 
  seq: 1201
  stamp: 
    secs: 1602557434
    nsecs: 574817200
  frame_id: ''
D: 0.487173664944
delta: 0.330336319789
dD: -0.261729773903
ddelta: 0.628030901098
---
header: 
  seq: 1202
  stamp: 
    secs: 1602557434
    nsecs: 584814043
  frame_id: ''
D: 0.484440819208
delta: 0.340880675535
dD: -0.136642286797
ddelta: 0.527217787303
---
header: 
  seq: 1203
  stamp: 
    secs: 1602557434
    nsecs: 604823783
  frame_id: ''
D: 0.481582443967
delta: 0.352063517462
dD: -0.142918762055
ddelta: 0.559142096355
---
header: 
  seq: 1204
  stamp: 
    secs: 1602557434
    nsecs: 624814217
  frame_id: ''
D: 0.478284266816
delta: 0.367277038773
dD: -0.164908857522
ddelta: 0.76067606555
---
header: 
  seq: 1205
  stamp: 
    secs: 1602557434
    nsecs: 644813805
  frame_id: ''
D: 0.475133021381
delta: 0.372307785565
dD: -0.157562271797
ddelta: 0.251537339626
---
header: 
  seq: 1206
  stamp: 
    secs: 1602557434
    nsecs: 664820967
  frame_id: ''
D: 0.470814337119
delta: 0.370780618808
dD: -0.215934213092
ddelta: -0.0763583378741
---
header: 
  seq: 1207
  stamp: 
    secs: 1602557434
    nsecs: 684813411
  frame_id: ''
D: 0.467968917798
delta: 0.370959875461
dD: -0.142270966018
ddelta: 0.00896283265008
---
header: 
  seq: 1208
  stamp: 
    secs: 1602557434
    nsecs: 704810289
  frame_id: ''
D: 0.469243737121
delta: 0.363097667016
dD: 0.0637409661431
ddelta: -0.393110422235
---
header: 
  seq: 1209
  stamp: 
    secs: 1602557434
    nsecs: 724820797
  frame_id: ''
D: 0.47301661306
delta: 0.35845121816
dD: 0.188643796947
ddelta: -0.232322442829
---
header: 
  seq: 1210
  stamp: 
    secs: 1602557434
    nsecs: 744811082
  frame_id: ''
D: 0.4755024909
delta: 0.351635265334
dD: 0.124293892004
ddelta: -0.340797641298
---
header: 
  seq: 1211
  stamp: 
    secs: 1602557434
    nsecs: 764818882
  frame_id: ''
D: 0.475617532714
delta: 0.34772035437
dD: 0.00575209067368
ddelta: -0.195745548182
---
header: 
  seq: 1212
  stamp: 
    secs: 1602557434
    nsecs: 784825688
  frame_id: ''
D: 0.478626377434
delta: 0.345364814031
dD: 0.150442236008
ddelta: -0.11777701693
---
header: 
  seq: 1213
  stamp: 
    secs: 1602557434
    nsecs: 804820459
  frame_id: ''
D: 0.482507093006
delta: 0.351415817753
dD: 0.194035778612
ddelta: 0.302550186096
---
header: 
  seq: 1214
  stamp: 
    secs: 1602557434
    nsecs: 824816446
  frame_id: ''
D: 0.490939971339
delta: 0.342411577633
dD: 0.421643916643
ddelta: -0.450212006036
---
header: 
  seq: 1215
  stamp: 
    secs: 1602557434
    nsecs: 844818879
  frame_id: ''
D: 0.495102281641
delta: 0.332646307759
dD: 0.208115515079
ddelta: -0.488263493687
---
header: 
  seq: 1216
  stamp: 
    secs: 1602557434
    nsecs: 864815824
  frame_id: ''
D: 0.499141654876
delta: 0.33093724823
dD: 0.201968661785
ddelta: -0.085452976438
---
header: 
  seq: 1217
  stamp: 
    secs: 1602557434
    nsecs: 884812339
  frame_id: ''
D: 0.503908223319
delta: 0.334600038201
dD: 0.238328422161
ddelta: 0.183139498552
---
header: 
  seq: 1218
  stamp: 
    secs: 1602557434
    nsecs: 904813278
  frame_id: ''
D: 0.506739449914
delta: 0.340716332634
dD: 0.141561329724
ddelta: 0.305814721638
---
header: 
  seq: 1219
  stamp: 
    secs: 1602557434
    nsecs: 924824833
  frame_id: ''
D: 0.516170590818
delta: 0.307756871175
dD: 0.471557045181
ddelta: -1.64797307294
---
header: 
  seq: 1220
  stamp: 
    secs: 1602557434
    nsecs: 944813873
  frame_id: ''
D: 0.523141059533
delta: 0.279086256185
dD: 0.348523435749
ddelta: -1.43353074948
---
header: 
  seq: 1221
  stamp: 
    secs: 1602557434
    nsecs: 964817388
  frame_id: ''
D: 0.531081726547
delta: 0.259251774953
dD: 0.3970333507
ddelta: -0.991724061625
---
header: 
  seq: 1222
  stamp: 
    secs: 1602557434
    nsecs: 984826080
  frame_id: ''
D: 0.536404069781
delta: 0.250343547909
dD: 0.266117161741
ddelta: -0.445411352179
---
header: 
  seq: 1223
  stamp: 
    secs: 1602557435
    nsecs:   4819429
  frame_id: ''
D: 0.541476107531
delta: 0.251102092803
dD: 0.253601887489
ddelta: 0.0379272446584
---
header: 
  seq: 1224
  stamp: 
    secs: 1602557435
    nsecs:  24812618
  frame_id: ''
D: 0.540335627554
delta: 0.252781150142
dD: -0.0570239988865
ddelta: 0.0839528669899
---
header: 
  seq: 1225
  stamp: 
    secs: 1602557435
    nsecs:  44817363
  frame_id: ''
D: 0.54133282748
delta: 0.247722069434
dD: 0.0498599963293
ddelta: -0.252954035421
---
header: 
  seq: 1226
  stamp: 
    secs: 1602557435
    nsecs:  64816199
  frame_id: ''
D: 0.543644067334
delta: 0.241821816234
dD: 0.115561992718
ddelta: -0.295012660016
---
header: 
  seq: 1227
  stamp: 
    secs: 1602557435
    nsecs:  84816570
  frame_id: ''
D: 0.547630550947
delta: 0.239007782563
dD: 0.199324180644
ddelta: -0.140701683541
---
header: 
  seq: 1228
  stamp: 
    secs: 1602557435
    nsecs: 104819207
  frame_id: ''
D: 0.54976620739
delta: 0.241679242507
dD: 0.106782822111
ddelta: 0.133572997217
---
header: 
  seq: 1229
  stamp: 
    secs: 1602557435
    nsecs: 124817481
  frame_id: ''
D: 0.548462910001
delta: 0.243125158317
dD: -0.0651648694283
ddelta: 0.0722957904755
---
header: 
  seq: 1230
  stamp: 
    secs: 1602557435
    nsecs: 144816893
  frame_id: ''
D: 0.547559258133
delta: 0.249396687228
dD: -0.0451825933997
ddelta: 0.313576445585
---
header: 
  seq: 1231
  stamp: 
    secs: 1602557435
    nsecs: 164817906
  frame_id: ''
D: 0.545139864007
delta: 0.262415727527
dD: -0.120969706314
ddelta: 0.65095201493
---
header: 
  seq: 1232
  stamp: 
    secs: 1602557435
    nsecs: 184820137
  frame_id: ''
D: 0.545150717548
delta: 0.26618428267
dD: 0.000542677060804
ddelta: 0.188427757133
---
header: 
  seq: 1233
  stamp: 
    secs: 1602557435
    nsecs: 204814432
  frame_id: ''
D: 0.543259945088
delta: 0.270630713476
dD: -0.0945386230024
ddelta: 0.222321540337
---
header: 
  seq: 1234
  stamp: 
    secs: 1602557435
    nsecs: 224818966
  frame_id: ''
D: 0.539424817547
delta: 0.272636388065
dD: -0.191756377039
ddelta: 0.100283729434
---
header: 
  seq: 1235
  stamp: 
    secs: 1602557435
    nsecs: 244818157
  frame_id: ''
D: 0.537200014132
delta: 0.273008222109
dD: -0.111240170779
ddelta: 0.0185917021963
---
header: 
  seq: 1236
  stamp: 
    secs: 1602557435
    nsecs: 264816737
  frame_id: ''
D: 0.536002274911
delta: 0.276259797545
dD: -0.0598869610337
ddelta: 0.162578771795
---
header: 
  seq: 1237
  stamp: 
    secs: 1602557435
    nsecs: 284817852
  frame_id: ''
D: 0.536832075143
delta: 0.275150215313
dD: 0.0414900116133
ddelta: -0.0554791116104
---
header: 
  seq: 1238
  stamp: 
    secs: 1602557435
    nsecs: 304818968
  frame_id: ''
D: 0.533759960638
delta: 0.274420078656
dD: -0.153605725252
ddelta: -0.0365068328611
---
header: 
  seq: 1239
  stamp: 
    secs: 1602557435
    nsecs: 324818789
  frame_id: ''
D: 0.529290765189
delta: 0.276712813575
dD: -0.223459772444
ddelta: 0.114636745997
---
header: 
  seq: 1240
  stamp: 
    secs: 1602557435
    nsecs: 344815079
  frame_id: ''
D: 0.526596391265
delta: 0.282550755576
dD: -0.134718696223
ddelta: 0.291897100046
---
header: 
  seq: 1241
  stamp: 
    secs: 1602557435
    nsecs: 364845278
  frame_id: ''
D: 0.525822610131
delta: 0.289027079193
dD: -0.0386890567081
ddelta: 0.323816180834
---
header: 
  seq: 1242
  stamp: 
    secs: 1602557435
    nsecs: 384818802
  frame_id: ''
D: 0.525486922431
delta: 0.295910780832
dD: -0.0167843849563
ddelta: 0.344185081963
---
header: 
  seq: 1243
  stamp: 
    secs: 1602557435
    nsecs: 404816177
  frame_id: ''
D: 0.52278049051
delta: 0.302818693209
dD: -0.135321596051
ddelta: 0.345395618809
---
header: 
  seq: 1244
  stamp: 
    secs: 1602557435
    nsecs: 424816570
  frame_id: ''
D: 0.520396308362
delta: 0.311483686553
dD: -0.119209107441
ddelta: 0.433249667219
---
header: 
  seq: 1245
  stamp: 
    secs: 1602557435
    nsecs: 444825367
  frame_id: ''
D: 0.519753435385
delta: 0.315900014837
dD: -0.0321436488232
ddelta: 0.220816414208
---
header: 
  seq: 1246
  stamp: 
    secs: 1602557435
    nsecs: 464819936
  frame_id: ''
D: 0.520109370147
delta: 0.316035832297
dD: 0.0177967380899
ddelta: 0.00679087297726
---
header: 
  seq: 1247
  stamp: 
    secs: 1602557435
    nsecs: 484817661
  frame_id: ''
D: 0.518075247334
delta: 0.31968109758
dD: -0.10170614064
ddelta: 0.182263264156
---
header: 
  seq: 1248
  stamp: 
    secs: 1602557435
    nsecs: 504825437
  frame_id: ''
D: 0.514469883009
delta: 0.312920682488
dD: -0.18026821628
ddelta: -0.338020754569
---
header: 
  seq: 1249
  stamp: 
    secs: 1602557435
    nsecs: 524811794
  frame_id: ''
D: 0.512472130097
delta: 0.305058978564
dD: -0.0998876455558
ddelta: -0.393085196216
---
header: 
  seq: 1250
  stamp: 
    secs: 1602557435
    nsecs: 544816429
  frame_id: ''
D: 0.513104591521
delta: 0.301276551166
dD: 0.0316230711822
ddelta: -0.18912136989
---
header: 
  seq: 1251
  stamp: 
    secs: 1602557435
    nsecs: 564825013
  frame_id: ''
D: 0.513787079181
delta: 0.30209467944
dD: 0.0341243830046
ddelta: 0.0409064137104
---
header: 
  seq: 1252
  stamp: 
    secs: 1602557435
    nsecs: 584818423
  frame_id: ''
D: 0.512314808699
delta: 0.305708389263
dD: -0.0736135240913
ddelta: 0.180685491109
---
header: 
  seq: 1253
  stamp: 
    secs: 1602557435
    nsecs: 604818826
  frame_id: ''
D: 0.50879370154
delta: 0.312532673247
dD: -0.176055357984
ddelta: 0.341214199207
---
header: 
  seq: 1254
  stamp: 
    secs: 1602557435
    nsecs: 624825073
  frame_id: ''
D: 0.505111652722
delta: 0.320009552469
dD: -0.184102440883
ddelta: 0.373843961137
---
header: 
  seq: 1255
  stamp: 
    secs: 1602557435
    nsecs: 644821407
  frame_id: ''
D: 0.50141638562
delta: 0.309948410172
dD: -0.184763355119
ddelta: -0.503057114883
---
header: 
  seq: 1256
  stamp: 
    secs: 1602557435
    nsecs: 664811895
  frame_id: ''
D: 0.496370357944
delta: 0.29710934879
dD: -0.252301383801
ddelta: -0.641953069092
---
header: 
  seq: 1257
  stamp: 
    secs: 1602557435
    nsecs: 684826388
  frame_id: ''
D: 0.491661679397
delta: 0.279853477442
dD: -0.235433927338
ddelta: -0.862793567375
---
header: 
  seq: 1258
  stamp: 
    secs: 1602557435
    nsecs: 704817540
  frame_id: ''
D: 0.489645026582
delta: 0.264651873799
dD: -0.100832640747
ddelta: -0.760080182188
---
header: 
  seq: 1259
  stamp: 
    secs: 1602557435
    nsecs: 724815487
  frame_id: ''
D: 0.48918321602
delta: 0.243768788351
dD: -0.0230905281076
ddelta: -1.04415427239
---
header: 
  seq: 1260
  stamp: 
    secs: 1602557435
    nsecs: 744825784
  frame_id: ''
D: 0.489129390615
delta: 0.220977413684
dD: -0.00269127022142
ddelta: -1.13956873333
---
header: 
  seq: 1261
  stamp: 
    secs: 1602557435
    nsecs: 764816919
  frame_id: ''
D: 0.484767119409
delta: 0.198905079247
dD: -0.218113560325
ddelta: -1.10361672186
---
header: 
  seq: 1262
  stamp: 
    secs: 1602557435
    nsecs: 784816602
  frame_id: ''
D: 0.479936639834
delta: 0.180425561997
dD: -0.241523978724
ddelta: -0.923975862499
---
header: 
  seq: 1263
  stamp: 
    secs: 1602557435
    nsecs: 804826600
  frame_id: ''
D: 0.476382045773
delta: 0.157982339826
dD: -0.177729703068
ddelta: -1.12216110856
---
header: 
  seq: 1264
  stamp: 
    secs: 1602557435
    nsecs: 824816512
  frame_id: ''
D: 0.476094858597
delta: 0.130175746448
dD: -0.0143593588228
ddelta: -1.39032966888
---
header: 
  seq: 1265
  stamp: 
    secs: 1602557435
    nsecs: 844816778
  frame_id: ''
D: 0.477319872681
delta: 0.0964509331469
dD: 0.0612507042279
ddelta: -1.68624066506
---
header: 
  seq: 1266
  stamp: 
    secs: 1602557435
    nsecs: 864819311
  frame_id: ''
D: 0.470044338863
delta: 0.0564509331969
dD: -0.363776690893
ddelta: -1.9999999975
---
header: 
  seq: 1267
  stamp: 
    secs: 1602557435
    nsecs: 884816321
  frame_id: ''
D: 0.460281311361
delta: 0.0164509331985
dD: -0.488151375112
ddelta: -1.99999999992
---
header: 
  seq: 1268
  stamp: 
    secs: 1602557435
    nsecs: 904816845
  frame_id: ''
D: 0.454521615536
delta: -0.0235490668014
dD: -0.287984791257
ddelta: -2.0
---
header: 
  seq: 1269
  stamp: 
    secs: 1602557435
    nsecs: 934819329
  frame_id: ''
D: 0.455736672395
delta: -0.0635490667984
dD: 0.0607528429774
ddelta: -1.99999999985
---
header: 
  seq: 1270
  stamp: 
    secs: 1602557435
    nsecs: 954818382
  frame_id: ''
D: 0.458090448168
delta: -0.0998966909458
dD: 0.117688788646
ddelta: -1.81738120737
---
header: 
  seq: 1271
  stamp: 
    secs: 1602557435
    nsecs: 964817937
  frame_id: ''
D: 0.45973972695
delta: -0.12658203235
dD: 0.0824639390624
ddelta: -1.33426707023
---
header: 
  seq: 1272
  stamp: 
    secs: 1602557435
    nsecs: 984825252
  frame_id: ''
D: 0.460964083587
delta: -0.150064811247
dD: 0.0612178318604
ddelta: -1.17413894482
---
header: 
  seq: 1273
  stamp: 
    secs: 1602557436
    nsecs:   4814658
  frame_id: ''
D: 0.462577726577
delta: -0.172650397825
dD: 0.0806821495331
ddelta: -1.1292793289
---
header: 
  seq: 1274
  stamp: 
    secs: 1602557436
    nsecs:  24813462
  frame_id: ''
D: 0.464766151537
delta: -0.195557212471
dD: 0.10942124798
ddelta: -1.14534073231
---
header: 
  seq: 1275
  stamp: 
    secs: 1602557436
    nsecs:  44818303
  frame_id: ''
D: 0.462643431664
delta: -0.220996517925
dD: -0.106135993648
ddelta: -1.27196527271
---
header: 
  seq: 1276
  stamp: 
    secs: 1602557436
    nsecs:  64825622
  frame_id: ''
D: 0.46307551458
delta: -0.248369942704
dD: 0.0216041457699
ddelta: -1.36867123895
---
header: 
  seq: 1277
  stamp: 
    secs: 1602557436
    nsecs:  84817392
  frame_id: ''
D: 0.465665727758
delta: -0.271190505066
dD: 0.129510658922
ddelta: -1.14102811808
---
header: 
  seq: 1278
  stamp: 
    secs: 1602557436
    nsecs: 104819345
  frame_id: ''
D: 0.468926927433
delta: -0.291010472807
dD: 0.163059983744
ddelta: -0.990998387082
---
header: 
  seq: 1279
  stamp: 
    secs: 1602557436
    nsecs: 124814015
  frame_id: ''
D: 0.467515471699
delta: -0.318582432286
dD: -0.0705727866764
ddelta: -1.37859797394
---
header: 
  seq: 1280
  stamp: 
    secs: 1602557436
    nsecs: 144821420
  frame_id: ''
D: 0.467661982139
delta: -0.331710725304
dD: 0.00732552199695
ddelta: -0.656414650886
---
header: 
  seq: 1281
  stamp: 
    secs: 1602557436
    nsecs: 164827566
  frame_id: ''
D: 0.47025808583
delta: -0.339466773645
dD: 0.129805184516
ddelta: -0.387802417069
---
header: 
  seq: 1282
  stamp: 
    secs: 1602557436
    nsecs: 184820185
  frame_id: ''
D: 0.474645220507
delta: -0.352269386101
dD: 0.219356733874
ddelta: -0.64013062279
---
header: 
  seq: 1283
  stamp: 
    secs: 1602557436
    nsecs: 204815996
  frame_id: ''
D: 0.480811900159
delta: -0.356783918151
dD: 0.308333982619
ddelta: -0.225726602514
---
header: 
  seq: 1284
  stamp: 
    secs: 1602557436
    nsecs: 224819470
  frame_id: ''
D: 0.484220186151
delta: -0.353204474392
dD: 0.170414299601
ddelta: 0.17897218796
---
header: 
  seq: 1285
  stamp: 
    secs: 1602557436
    nsecs: 244816297
  frame_id: ''
D: 0.485596552631
delta: -0.353944643596
dD: 0.0688183239796
ddelta: -0.037008460186
---
header: 
  seq: 1286
  stamp: 
    secs: 1602557436
    nsecs: 264815983
  frame_id: ''
D: 0.487666688605
delta: -0.347849268316
dD: 0.103506798693
ddelta: 0.304768764004
---
header: 
  seq: 1287
  stamp: 
    secs: 1602557436
    nsecs: 284821707
  frame_id: ''
D: 0.491270078257
delta: -0.341282599537
dD: 0.180169482591
ddelta: 0.328333438921
---
header: 
  seq: 1288
  stamp: 
    secs: 1602557436
    nsecs: 304817760
  frame_id: ''
D: 0.49417425607
delta: -0.340217429225
dD: 0.145208890666
ddelta: 0.0532585156132
---
header: 
  seq: 1289
  stamp: 
    secs: 1602557436
    nsecs: 324811360
  frame_id: ''
D: 0.494296316048
delta: -0.333171968591
dD: 0.00610299889969
ddelta: 0.35227303168
---
header: 
  seq: 1290
  stamp: 
    secs: 1602557436
    nsecs: 344817527
  frame_id: ''
D: 0.495013127329
delta: -0.326032756484
dD: 0.0358405640518
ddelta: 0.356960605378
---
header: 
  seq: 1291
  stamp: 
    secs: 1602557436
    nsecs: 374814345
  frame_id: ''
D: 0.496590220455
delta: -0.3264209475
dD: 0.0788546562787
ddelta: -0.0194095507799
---
header: 
  seq: 1292
  stamp: 
    secs: 1602557436
    nsecs: 394811876
  frame_id: ''
D: 0.498037489991
delta: -0.334983047119
dD: 0.0723634768181
ddelta: -0.428104980978
---
header: 
  seq: 1293
  stamp: 
    secs: 1602557436
    nsecs: 404819338
  frame_id: ''
D: 0.495806978266
delta: -0.340215185125
dD: -0.111525586256
ddelta: -0.261606900312
---
header: 
  seq: 1294
  stamp: 
    secs: 1602557436
    nsecs: 424813373
  frame_id: ''
D: 0.493194928235
delta: -0.33264786627
dD: -0.130602501527
ddelta: 0.378365942763
---
header: 
  seq: 1295
  stamp: 
    secs: 1602557436
    nsecs: 444816783
  frame_id: ''
D: 0.492612808435
delta: -0.325081715679
dD: -0.0291059900165
ddelta: 0.37830752955
---
header: 
  seq: 1296
  stamp: 
    secs: 1602557436
    nsecs: 464824883
  frame_id: ''
D: 0.492858577905
delta: -0.320660734808
dD: 0.0122884735017
ddelta: 0.221049043562
---
header: 
  seq: 1297
  stamp: 
    secs: 1602557436
    nsecs: 484812720
  frame_id: ''
D: 0.491832507488
delta: -0.325358187896
dD: -0.0513035208412
ddelta: -0.234872654431
---
header: 
  seq: 1298
  stamp: 
    secs: 1602557436
    nsecs: 504813363
  frame_id: ''
D: 0.484770396569
delta: -0.342551389422
dD: -0.353105545978
ddelta: -0.859660076287
---
header: 
  seq: 1299
  stamp: 
    secs: 1602557436
