header: 
  seq: 3
  stamp: 
    secs: 0
    nsecs:         0
  frame_id: ''
D: 0.396484021304
delta: -8.89537935033e-07
dD: 4.82420108863
ddelta: -1.36055249445e-05
---
header: 
  seq: 4
  stamp: 
    secs: 0
    nsecs:         0
  frame_id: ''
D: 0.462140542884
delta: -1.14167940275e-06
dD: 3.282826079
ddelta: -1.26070733856e-05
---
header: 
  seq: 5
  stamp: 
    secs: 0
    nsecs:         0
  frame_id: ''
D: 0.506723923008
delta: -1.36799955984e-06
dD: 2.22916900617
ddelta: -1.13160078548e-05
---
header: 
  seq: 6
  stamp: 
    secs: 0
    nsecs:         0
  frame_id: ''
D: 0.53697630855
delta: -1.56529732579e-06
dD: 1.51261927712
ddelta: -9.86488829715e-06
---
header: 
  seq: 7
  stamp: 
    secs: 0
    nsecs:         0
  frame_id: ''
D: 0.557501220829
delta: -1.73374578499e-06
dD: 1.02624561395
ddelta: -8.42242296029e-06
---
header: 
  seq: 8
  stamp: 
    secs: 0
    nsecs:         0
  frame_id: ''
D: 0.571427078151
delta: -1.87540976049e-06
dD: 0.696292866101
ddelta: -7.08319877485e-06
---
header: 
  seq: 9
  stamp: 
    secs: 0
    nsecs:         0
  frame_id: ''
D: 0.580876448307
delta: -1.99324345232e-06
dD: 0.472468507792
ddelta: -5.89168459143e-06
---
header: 
  seq: 10
  stamp: 
    secs: 0
    nsecs:         0
  frame_id: ''
D: 0.587288886757
delta: -2.09045659663e-06
dD: 0.320621922499
ddelta: -4.86065721582e-06
---
header: 
  seq: 11
  stamp: 
    secs: 0
    nsecs:         0
  frame_id: ''
D: 0.591640754662
delta: -2.17016451885e-06
dD: 0.217593395263
ddelta: -3.98539611066e-06
---
header: 
  seq: 12
  stamp: 
    secs: 0
    nsecs:         0
  frame_id: ''
D: 0.59459435986
delta: -2.23521083528e-06
dD: 0.147680259899
ddelta: -3.25231582184e-06
---
header: 
  seq: 13
  stamp: 
    secs: 0
    nsecs:         0
  frame_id: ''
D: 0.596599047616
delta: -2.28809759129e-06
dD: 0.100234387768
ddelta: -2.64433780028e-06
---
header: 
  seq: 14
  stamp: 
    secs: 0
    nsecs:         0
  frame_id: ''
D: 0.597959719616
delta: -2.33097370423e-06
dD: 0.0680336000304
ddelta: -2.14380564733e-06
---
header: 
  seq: 15
  stamp: 
    secs: 0
    nsecs:         0
  frame_id: ''
D: 0.598883287485
delta: -2.3656542297e-06
dD: 0.0461783934491
ddelta: -1.73402627335e-06
---
header: 
  seq: 16
  stamp: 
    secs: 0
    nsecs:         0
  frame_id: ''
D: 0.599510175784
delta: -2.39365402151e-06
dD: 0.0313444149374
ddelta: -1.3999895905e-06
---
header: 
  seq: 17
  stamp: 
    secs: 0
    nsecs:         0
  frame_id: ''
D: 0.599935691514
delta: -2.41622630601e-06
dD: 0.0212757865203
ddelta: -1.12861422472e-06
---
header: 
  seq: 18
  stamp: 
    secs: 0
    nsecs:         0
  frame_id: ''
D: 0.600224522569
delta: -2.43440101781e-06
dD: 0.0144415527404
ddelta: -9.08735590415e-07
---
header: 
  seq: 19
  stamp: 
    secs: 0
    nsecs:         0
  frame_id: ''
D: 0.60042057583
delta: -2.44902028891e-06
dD: 0.00980266306012
ddelta: -7.3096355458e-07
---
header: 
  seq: 20
  stamp: 
    secs: 0
    nsecs:         0
  frame_id: ''
D: 0.600553653615
delta: -2.46076996717e-06
dD: 0.00665388922393
ddelta: -5.87483912973e-07
---
header: 
  seq: 21
  stamp: 
    secs: 0
    nsecs:         0
  frame_id: ''
D: 0.600643984849
delta: -2.47020687145e-06
dD: 0.00451656168992
ddelta: -4.71845214085e-07
---
header: 
  seq: 22
  stamp: 
    secs: 0
    nsecs:         0
  frame_id: ''
D: 0.600705300441
delta: -2.47778193452e-06
dD: 0.00306577960712
ddelta: -3.78753153853e-07
---
header: 
  seq: 23
  stamp: 
    secs: 0
    nsecs:         0
  frame_id: ''
D: 0.600746920656
delta: -2.48385960089e-06
dD: 0.0020810107631
ddelta: -3.03883318241e-07
---
header: 
  seq: 24
  stamp: 
    secs: 0
    nsecs:         0
  frame_id: ''
D: 0.600775171927
delta: -2.48873393081e-06
dD: 0.00141256356733
ddelta: -2.43716496217e-07
---
header: 
  seq: 25
  stamp: 
    secs: 0
    nsecs:         0
  frame_id: ''
D: 0.600794348538
delta: -2.49264187381e-06
dD: 0.000958830553767
ddelta: -1.95397149653e-07
---
header: 
  seq: 26
  stamp: 
    secs: 0
    nsecs:         0
  frame_id: ''
D: 0.600807365387
delta: -2.49577414834e-06
dD: 0.000650842428962
ddelta: -1.56613726801e-07
---
header: 
  seq: 27
  stamp: 
    secs: 0
    nsecs:         0
  frame_id: ''
D: 0.600816201066
delta: -2.49828412079e-06
dD: 0.000441783953265
ddelta: -1.25498622412e-07
---
header: 
  seq: 28
  stamp: 
    secs: 0
    nsecs:         0
  frame_id: ''
D: 0.600822198619
delta: -2.50029502649e-06
dD: 0.00029987763449
ddelta: -1.00545284861e-07
---
header: 
  seq: 29
  stamp: 
    secs: 0
    nsecs:         0
  frame_id: ''
D: 0.600826269686
delta: -2.50190582623e-06
dD: 0.000203553350758
ddelta: -8.05399869198e-08
---
header: 
  seq: 30
  stamp: 
    secs: 0
    nsecs:         0
  frame_id: ''
D: 0.600829033077
delta: -2.50319594535e-06
dD: 0.000138169588015
ddelta: -6.45059563569e-08
---
header: 
  seq: 31
  stamp: 
    secs: 0
    nsecs:         0
  frame_id: ''
D: 0.600830908835
delta: -2.50422910164e-06
dD: 9.37878732981e-05
ddelta: -5.16578142186e-08
---
header: 
  seq: 32
  stamp: 
    secs: 0
    nsecs:         0
  frame_id: ''
D: 0.600832182077
delta: -2.50505639245e-06
dD: 6.36620949499e-05
ddelta: -4.13645404729e-08
---
header: 
  seq: 33
  stamp: 
    secs: 0
    nsecs:         0
  frame_id: ''
D: 0.600833046338
delta: -2.50571878146e-06
dD: 4.32130751107e-05
ddelta: -3.31194505204e-08
---
header: 
  seq: 34
  stamp: 
    secs: 0
    nsecs:         0
  frame_id: ''
D: 0.600833632989
delta: -2.50624909961e-06
dD: 2.93325233307e-05
ddelta: -2.65159077413e-08
---
header: 
  seq: 35
  stamp: 
    secs: 0
    nsecs:         0
  frame_id: ''
D: 0.6008340312
delta: -2.50667365383e-06
dD: 1.99105694473e-05
ddelta: -2.1227710883e-08
---
header: 
  seq: 36
  stamp: 
    secs: 0
    nsecs:         0
  frame_id: ''
D: 0.600834301501
delta: -2.50701351942e-06
dD: 1.35150588189e-05
ddelta: -1.69932795459e-08
---
header: 
  seq: 37
  stamp: 
    secs: 0
    nsecs:         0
  frame_id: ''
D: 0.600834484979
delta: -2.50728557777e-06
dD: 9.17386195978e-06
ddelta: -1.36029176338e-08
---
header: 
  seq: 38
  stamp: 
    secs: 0
    nsecs:         0
  frame_id: ''
D: 0.600834609521
delta: -2.50750334909e-06
dD: 6.22710892941e-06
ddelta: -1.08885660235e-08
---
header: 
  seq: 39
  stamp: 
    secs: 0
    nsecs:         0
  frame_id: ''
D: 0.600834694059
delta: -2.50767766039e-06
dD: 4.22688786303e-06
ddelta: -8.71556487101e-09
---
header: 
  seq: 40
  stamp: 
    secs: 0
    nsecs:         0
  frame_id: ''
D: 0.600834751442
delta: -2.50781718111e-06
dD: 2.86916146526e-06
ddelta: -6.97603608948e-09
---
header: 
  seq: 41
  stamp: 
    secs: 0
    nsecs:         0
  frame_id: ''
D: 0.600834790393
delta: -2.50792885252e-06
dD: 1.94755285534e-06
ddelta: -5.58357048321e-09
---
header: 
  seq: 42
  stamp: 
    secs: 0
    nsecs:         0
  frame_id: ''
D: 0.600834816832
delta: -2.50801823181e-06
dD: 1.32197583735e-06
ddelta: -4.4689644269e-09
---
header: 
  seq: 43
  stamp: 
    secs: 0
    nsecs:         0
  frame_id: ''
D: 0.600834834779
delta: -2.50808976782e-06
dD: 8.97341564392e-07
ddelta: -3.57680018715e-09
---
header: 
  seq: 44
  stamp: 
    secs: 0
    nsecs:         0
  frame_id: ''
D: 0.600834846961
delta: -2.50814702189e-06
dD: 6.09104841612e-07
ddelta: -2.86270390297e-09
---
header: 
  seq: 45
  stamp: 
    secs: 0
    nsecs:         0
  frame_id: ''
D: 0.60083485523
delta: -2.50819284485e-06
dD: 4.13453151327e-07
ddelta: -2.29114758985e-09
---
header: 
  seq: 46
  stamp: 
    secs: 0
    nsecs:         0
  frame_id: ''
D: 0.600834860843
delta: -2.5082295186e-06
dD: 2.80647107555e-07
ddelta: -1.83368767218e-09
---
header: 
  seq: 47
  stamp: 
    secs: 0
    nsecs:         0
  frame_id: ''
D: 0.600834864653
delta: -2.50825886967e-06
dD: 1.90499932603e-07
ddelta: -1.46755364791e-09
---
header: 
  seq: 48
  stamp: 
    secs: 0
    nsecs:         0
  frame_id: ''
D: 0.600834867239
delta: -2.50828236002e-06
dD: 1.29309108749e-07
ddelta: -1.17451748944e-09
---
header: 
  seq: 49
  stamp: 
    secs: 0
    nsecs:         0
  frame_id: ''
D: 0.600834868995
delta: -2.50830115978e-06
dD: 8.77734909463e-08
ddelta: -9.39988076559e-10
---
header: 
  seq: 50
  stamp: 
    secs: 0
    nsecs:         0
  frame_id: ''
D: 0.600834870187
delta: -2.5083162055e-06
dD: 5.95793835852e-08
ddelta: -7.52285994389e-10
---
header: 
  seq: 51
  stamp: 
    secs: 0
    nsecs:         0
  frame_id: ''
D: 0.600834870995
delta: -2.50832824676e-06
dD: 4.04420164571e-08
ddelta: -6.0206261887e-10
---
header: 
  seq: 52
  stamp: 
    secs: 0
    nsecs:         0
  frame_id: ''
D: 0.600834871544
delta: -2.50833788346e-06
dD: 2.74515612656e-08
ddelta: -4.81835462239e-10
---
header: 
  seq: 53
  stamp: 
    secs: 0
    nsecs:         0
  frame_id: ''
D: 0.600834871917
delta: -2.50834559577e-06
dD: 1.86338029714e-08
ddelta: -3.8561550511e-10
---
header: 
  seq: 54
  stamp: 
    secs: 0
    nsecs:         0
  frame_id: ''
D: 0.60083487217
delta: -2.50835176796e-06
dD: 1.26484091589e-08
ddelta: -3.08609332434e-10
---
header: 
  seq: 55
  stamp: 
    secs: 0
    nsecs:         0
  frame_id: ''
D: 0.600834872342
delta: -2.50835670757e-06
dD: 8.58558535604e-09
ddelta: -2.46980484235e-10
---
header: 
  seq: 56
  stamp: 
    secs: 0
    nsecs:         0
  frame_id: ''
D: 0.600834872458
delta: -2.50836066074e-06
dD: 5.82777657841e-09
ddelta: -1.97658450126e-10
---
header: 
  seq: 57
  stamp: 
    secs: 0
    nsecs:         0
  frame_id: ''
D: 0.600834872537
delta: -2.50836382446e-06
dD: 3.95584416675e-09
ddelta: -1.58185774495e-10
---
header: 
  seq: 58
  stamp: 
    secs: 0
    nsecs:         0
  frame_id: ''
D: 0.600834872591
delta: -2.50836635637e-06
dD: 2.68516501168e-09
ddelta: -1.26595673455e-10
---
header: 
  seq: 59
  stamp: 
    secs: 0
    nsecs:         0
  frame_id: ''
D: 0.600834872628
delta: -2.50836838265e-06
dD: 1.82266975497e-09
ddelta: -1.01314077213e-10
---
header: 
  seq: 60
  stamp: 
    secs: 0
    nsecs:         0
  frame_id: ''
D: 0.600834872652
delta: -2.50837000427e-06
dD: 1.23720668577e-09
ddelta: -8.10812229783e-11
---
header: 
  seq: 61
  stamp: 
    secs: 0
    nsecs:         0
  frame_id: ''
D: 0.600834872669
delta: -2.50837130205e-06
dD: 8.39799820437e-10
ddelta: -6.48889011559e-11
---
header: 
  seq: 62
  stamp: 
    secs: 0
    nsecs:         0
  frame_id: ''
D: 0.600834872681
delta: -2.50837234066e-06
dD: 5.7003890585e-10
ddelta: -5.193022938e-11
---
header: 
  seq: 63
  stamp: 
    secs: 0
    nsecs:         0
  frame_id: ''
D: 0.600834872688
delta: -2.50837317185e-06
dD: 3.86942365895e-10
ddelta: -4.15594506261e-11
---
header: 
  seq: 64
  stamp: 
    secs: 0
    nsecs:         0
  frame_id: ''
D: 0.600834872694
delta: -2.50837383704e-06
dD: 2.62654885179e-10
ddelta: -3.32597614371e-11
---
header: 
  seq: 65
  stamp: 
    secs: 0
    nsecs:         0
  frame_id: ''
D: 0.600834872697
delta: -2.50837436939e-06
dD: 1.78274372215e-10
ddelta: -2.66175618254e-11
---
header: 
  seq: 66
  stamp: 
    secs: 0
    nsecs:         0
  frame_id: ''
D: 0.6008348727
delta: -2.50837479543e-06
dD: 1.21019939955e-10
ddelta: -2.13018464826e-11
---
header: 
  seq: 67
  stamp: 
    secs: 0
    nsecs:         0
  frame_id: ''
D: 0.600834872701
delta: -2.50837513638e-06
dD: 8.21556601414e-11
ddelta: -1.70477118562e-11
---
header: 
  seq: 68
  stamp: 
    secs: 0
    nsecs:         0
  frame_id: ''
D: 0.600834872702
delta: -2.50837540925e-06
dD: 5.57678076137e-11
ddelta: -1.36431554444e-11
---
header: 
  seq: 69
  stamp: 
    secs: 0
    nsecs:         0
  frame_id: ''
D: 0.600834872703
delta: -2.50837562762e-06
dD: 3.78605325399e-11
ddelta: -1.09185120178e-11
---
header: 
  seq: 70
  stamp: 
    secs: 0
    nsecs:         0
  frame_id: ''
D: 0.600834872704
delta: -2.50837580238e-06
dD: 2.56968963299e-11
ddelta: -8.73799932172e-12
---
header: 
  seq: 71
  stamp: 
    secs: 0
    nsecs:         0
  frame_id: ''
D: 0.600834872704
delta: -2.50837594224e-06
dD: 1.74550814885e-11
ddelta: -6.99295093873e-12
---
header: 
  seq: 72
  stamp: 
    secs: 0
    nsecs:         0
  frame_id: ''
D: 0.600834872704
delta: -2.50837605416e-06
dD: 1.18401075602e-11
ddelta: -5.59640199608e-12
---
header: 
  seq: 73
  stamp: 
    secs: 0
    nsecs:         0
  frame_id: ''
D: 0.600834872704
delta: -2.50837614374e-06
dD: 8.05253765733e-12
ddelta: -4.47875462687e-12
---
header: 
  seq: 74
  stamp: 
    secs: 0
    nsecs:         0
  frame_id: ''
D: 0.600834872704
delta: -2.50837621543e-06
dD: 5.45434642937e-12
ddelta: -3.58431023488e-12
---
header: 
  seq: 75
  stamp: 
    secs: 0
    nsecs:         0
  frame_id: ''
D: 0.600834872704
delta: -2.5083762728e-06
dD: 3.70899078852e-12
ddelta: -2.86849356895e-12
---
header: 
  seq: 76
  stamp: 
    secs: 0
    nsecs:         0
  frame_id: ''
D: 0.600834872705
delta: -2.50837631871e-06
dD: 2.51362426615e-12
ddelta: -2.29563126663e-12
---
header: 
  seq: 77
  stamp: 
    secs: 0
    nsecs:         0
  frame_id: ''
D: 0.600834872705
delta: -2.50837635545e-06
dD: 1.70855803891e-12
ddelta: -1.83717428445e-12
---
header: 
  seq: 78
  stamp: 
    secs: 0
    nsecs:         0
  frame_id: ''
D: 0.600834872705
delta: -2.50837638486e-06
dD: 1.16956434746e-12
ddelta: -1.47027502772e-12
---
header: 
  seq: 79
  stamp: 
    secs: 0
    nsecs:         0
  frame_id: ''
D: 0.600834872705
delta: -2.50837640839e-06
dD: 7.87494369505e-13
ddelta: -1.17664852889e-12
---
header: 
  seq: 80
  stamp: 
    secs: 0
    nsecs:         0
  frame_id: ''
D: 0.600834872705
delta: -2.50837642722e-06
dD: 5.34702155828e-13
ddelta: -9.41661785101e-13
---
header: 
  seq: 81
  stamp: 
    secs: 0
    nsecs:         0
  frame_id: ''
D: 0.600834872705
delta: -2.5083764423e-06
dD: 3.66093995092e-13
ddelta: -7.53603835937e-13
---
header: 
  seq: 82
  stamp: 
    secs: 0
    nsecs:         0
  frame_id: ''
D: 0.600834872705
delta: -2.50837645436e-06
dD: 2.44478123244e-13
ddelta: -6.03102629407e-13
---
header: 
  seq: 83
  stamp: 
    secs: 0
    nsecs:         0
  frame_id: ''
D: 0.600834872705
delta: -2.50837646401e-06
dD: 1.7099868486e-13
ddelta: -4.82657848809e-13
---
header: 
  seq: 84
  stamp: 
    secs: 0
    nsecs:         0
  frame_id: ''
D: 0.600834872705
delta: -2.50837647174e-06
dD: 1.07979003716e-13
ddelta: -3.86266938151e-13
---
header: 
  seq: 85
  stamp: 
    secs: 0
    nsecs:         0
  frame_id: ''
D: 0.600834872705
delta: -2.50837647792e-06
dD: 8.87853546566e-14
ddelta: -3.09126050023e-13
---
header: 
  seq: 86
  stamp: 
    secs: 0
    nsecs:         0
  frame_id: ''
D: 0.600834872705
delta: -2.50837648287e-06
dD: 5.17875732193e-14
ddelta: -2.47390914136e-13
---
header: 
  seq: 87
  stamp: 
    secs: 0
    nsecs:         0
  frame_id: ''
D: 0.600834872705
delta: -2.50837648683e-06
dD: 2.96169349641e-14
ddelta: -1.97984809229e-13
---
header: 
  seq: 88
  stamp: 
    secs: 0
    nsecs:         0
  frame_id: ''
D: 0.600834872705
delta: -2.50837649e-06
dD: 1.92342827117e-14
ddelta: -1.58445558049e-13
---
header: 
  seq: 89
  stamp: 
    secs: 0
    nsecs:         0
  frame_id: ''
D: 0.600834872705
delta: -2.50837649253e-06
dD: 1.28648518111e-14
ddelta: -1.26802562352e-13
---
header: 
  seq: 90
  stamp: 
    secs: 0
    nsecs:         0
  frame_id: ''
D: 0.600834872705
delta: -2.50837649456e-06
dD: 2.29195561998e-14
ddelta: -1.01478986219e-13
---
header: 
  seq: 91
  stamp: 
    secs: 0
    nsecs:         0
  frame_id: ''
D: 0.600834872705
delta: -2.50837649619e-06
dD: 1.46362244969e-14
ddelta: -8.12127842576e-14
---
header: 
  seq: 92
  stamp: 
    secs: 1611878362
    nsecs: 764036278
  frame_id: ''
D: 0.600261873793
delta: -4.86786645561e-06
dD: -0.0286499455578
ddelta: -0.000117974497971
---
header: 
  seq: 93
  stamp: 
    secs: 1611878362
    nsecs: 834125287
  frame_id: ''
D: 0.519285772068
delta: -0.00294062132063
dD: -4.04880508625
ddelta: -0.146787672709
---
header: 
  seq: 94
  stamp: 
    secs: 1611878362
    nsecs: 864092853
  frame_id: ''
D: 0.619285772068
delta: -0.0429406213206
dD: 5.0
ddelta: -2.0
---
header: 
  seq: 95
  stamp: 
    secs: 1611878362
    nsecs: 894093284
  frame_id: ''
D: 0.519285772068
delta: -0.00294062132063
dD: -5.0
ddelta: 2.0
---
header: 
  seq: 96
  stamp: 
    secs: 1611878362
    nsecs: 914096105
  frame_id: ''
D: 0.434691228002
delta: 0.0370593786794
dD: -4.22972720334
ddelta: 2.0
---
header: 
  seq: 97
  stamp: 
    secs: 1611878362
    nsecs: 934097503
  frame_id: ''
D: 0.397422486676
delta: -0.00239430878077
dD: -1.86343706627
ddelta: -1.97268437301
---
header: 
  seq: 98
  stamp: 
    secs: 1611878362
    nsecs: 954098066
  frame_id: ''
D: 0.397470991839
delta: -0.0151570418065
dD: 0.00242525813434
ddelta: -0.638136651286
---
header: 
  seq: 99
  stamp: 
    secs: 1611878362
    nsecs: 964101405
  frame_id: ''
D: 0.407530880582
delta: -0.0230781815497
dD: 0.502994437132
ddelta: -0.396056987161
---
header: 
  seq: 100
  stamp: 
    secs: 1611878362
    nsecs: 984101176
  frame_id: ''
D: 0.432301690197
delta: -0.0288764637525
dD: 1.23854048078
ddelta: -0.289914110142
---
header: 
  seq: 101
  stamp: 
    secs: 1611878363
    nsecs:   4092405
  frame_id: ''
D: 0.463675482835
delta: -0.0325909234618
dD: 1.5686896319
ddelta: -0.185722985464
---
header: 
  seq: 102
  stamp: 
    secs: 1611878363
    nsecs:  24100847
  frame_id: ''
D: 0.500037192461
delta: -0.0347280704271
dD: 1.81808548128
ddelta: -0.106857348265
---
header: 
  seq: 103
  stamp: 
    secs: 1611878363
    nsecs:  44096629
  frame_id: ''
D: 0.530861851639
delta: -0.0356773833888
dD: 1.54123295892
ddelta: -0.047465648083
---
header: 
  seq: 104
  stamp: 
    secs: 1611878363
    nsecs:  64093722
  frame_id: ''
D: 0.55123109832
delta: -0.0359616353509
dD: 1.01846233403
ddelta: -0.0142125981079
---
header: 
  seq: 105
  stamp: 
    secs: 1611878363
    nsecs:  84097898
  frame_id: ''
D: 0.562922123376
delta: -0.0360165001235
dD: 0.584551252797
ddelta: -0.00274323862855
---
header: 
  seq: 106
  stamp: 
    secs: 1611878363
    nsecs: 104097285
  frame_id: ''
D: 0.569937034944
delta: -0.0360221927518
dD: 0.35074557841
ddelta: -0.000284631414392
---
header: 
  seq: 107
  stamp: 
    secs: 1611878363
    nsecs: 124099434
  frame_id: ''
D: 0.57466550617
delta: -0.0359930007834
dD: 0.236423561309
ddelta: 0.00145959841877
---
header: 
  seq: 108
  stamp: 
    secs: 1611878363
    nsecs: 144097166
  frame_id: ''
D: 0.578381908508
delta: -0.0359461844688
dD: 0.185820116883
ddelta: 0.00234081573086
---
header: 
  seq: 109
  stamp: 
    secs: 1611878363
    nsecs: 164092033
  frame_id: ''
D: 0.581685842519
delta: -0.0358951789796
dD: 0.16519670056
ddelta: 0.0025502744597
---
header: 
  seq: 110
  stamp: 
    secs: 1611878363
    nsecs: 184105236
  frame_id: ''
D: 0.584797012385
delta: -0.0358485686333
dD: 0.155558493287
ddelta: 0.00233051731757
---
header: 
  seq: 111
  stamp: 
    secs: 1611878363
    nsecs: 204097784
  frame_id: ''
D: 0.587743524776
delta: -0.0358108544989
dD: 0.147325619547
ddelta: 0.00188570671807
---
header: 
  seq: 112
  stamp: 
    secs: 1611878363
    nsecs: 224095572
  frame_id: ''
D: 0.590475296208
delta: -0.0357836284567
dD: 0.136588571607
ddelta: 0.0013613021088
---
header: 
  seq: 113
  stamp: 
    secs: 1611878363
    nsecs: 244103051
  frame_id: ''
D: 0.592927039651
delta: -0.0357666280768
dD: 0.12258717214
ddelta: 0.000850018996845
---
header: 
  seq: 114
  stamp: 
    secs: 1611878363
    nsecs: 264095378
  frame_id: ''
D: 0.595048879254
delta: -0.035758540085
dD: 0.106091980182
ddelta: 0.000404399588861
---
header: 
  seq: 115
  stamp: 
    secs: 1611878363
    nsecs: 284095147
  frame_id: ''
D: 0.59681736328
delta: -0.0357575654834
dD: 0.0884242012973
ddelta: 4.87300775639e-05
---
header: 
  seq: 116
  stamp: 
    secs: 1611878363
    nsecs: 304097150
  frame_id: ''
D: 0.59818330869
delta: -0.0357600547206
dD: 0.0682972704869
ddelta: -0.000124461855231
---
header: 
  seq: 117
  stamp: 
    secs: 1611878363
    nsecs: 324092788
  frame_id: ''
D: 0.598990053511
delta: -0.0357602395818
dD: 0.0403372410347
ddelta: -9.24306227363e-06
---
header: 
  seq: 118
  stamp: 
    secs: 1611878363
    nsecs: 344105343
  frame_id: ''
D: 0.599474152122
delta: -0.0357702811804
dD: 0.0242049305655
ddelta: -0.000502079931518
---
header: 
  seq: 119
  stamp: 
    secs: 1611878363
    nsecs: 364095942
  frame_id: ''
D: 0.599785520846
delta: -0.0357847614227
dD: 0.0155684361742
ddelta: -0.000724012112138
---
header: 
  seq: 120
  stamp: 
    secs: 1611878363
    nsecs: 384091366
  frame_id: ''
D: 0.599795437667
delta: -0.0404759563514
dD: 0.000495841095917
ddelta: -0.234559746434
---
header: 
  seq: 121
  stamp: 
    secs: 1611878363
    nsecs: 404100130
  frame_id: ''
D: 0.599953542393
delta: -0.0422672245664
dD: 0.0079052362682
ddelta: -0.0895634107528
---
header: 
  seq: 122
  stamp: 
    secs: 1611878363
    nsecs: 424091738
  frame_id: ''
D: 0.600183347944
delta: -0.0422427120627
dD: 0.0114902775533
ddelta: 0.00122562518501
---
header: 
  seq: 123
  stamp: 
    secs: 1611878363
    nsecs: 444095300
  frame_id: ''
D: 0.600334906188
delta: -0.0412887616604
dD: 0.00757791218613
ddelta: 0.0476975201178
---
header: 
  seq: 124
  stamp: 
    secs: 1611878363
    nsecs: 464102522
  frame_id: ''
D: 0.600411289399
delta: -0.0400248762404
dD: 0.00381916056286
ddelta: 0.0631942709979
---
header: 
  seq: 125
  stamp: 
    secs: 1611878363
    nsecs: 484098034
  frame_id: ''
D: 0.600456963305
delta: -0.0388159325679
dD: 0.00228369529383
ddelta: 0.0604471836246
---
header: 
  seq: 126
  stamp: 
    secs: 1611878363
    nsecs: 504090124
  frame_id: ''
D: 0.600501072435
delta: -0.0378322156695
dD: 0.00220545652098
ddelta: 0.0491858449212
---
header: 
  seq: 127
  stamp: 
    secs: 1611878363
    nsecs: 524128227
  frame_id: ''
D: 0.600555899334
delta: -0.0371171066537
dD: 0.00274134492725
ddelta: 0.0357554507874
---
header: 
  seq: 128
  stamp: 
    secs: 1611878363
    nsecs: 544095884
  frame_id: ''
D: 0.600623101654
delta: -0.0366440337185
dD: 0.00336011599148
ddelta: 0.0236536467636
---
header: 
  seq: 129
  stamp: 
    secs: 1611878363
    nsecs: 564090747
  frame_id: ''
D: 0.600699017375
delta: -0.0363574624581
dD: 0.0037957860551
ddelta: 0.0143285630171
---
header: 
  seq: 130
  stamp: 
    secs: 1611878363
    nsecs: 584099511
  frame_id: ''
D: 0.600778146983
delta: -0.0361982134439
dD: 0.00395648043873
ddelta: 0.00796245071291
---
header: 
  seq: 131
  stamp: 
    secs: 1611878363
    nsecs: 604091249
  frame_id: ''
D: 0.600855140845
delta: -0.0361163256881
dD: 0.00384969308905
ddelta: 0.0040943877863
---
header: 
  seq: 132
  stamp: 
    secs: 1611878363
    nsecs: 624090477
  frame_id: ''
D: 0.600925735297
delta: -0.0360754624213
dD: 0.0035297225811
ddelta: 0.00204316333989
---
header: 
  seq: 133
  stamp: 
    secs: 1611878363
    nsecs: 644096766
  frame_id: ''
D: 0.600986957369
delta: -0.0360524232006
dD: 0.00306110359164
ddelta: 0.00115196103505
---
header: 
  seq: 134
  stamp: 
    secs: 1611878363
    nsecs: 664091648
  frame_id: ''
D: 0.601036582964
delta: -0.0360344076568
dD: 0.00248127978101
ddelta: 0.000900777192329
---
header: 
  seq: 135
  stamp: 
    secs: 1611878363
    nsecs: 684092612
  frame_id: ''
D: 0.601072144958
delta: -0.0360157433261
dD: 0.00177809968625
ddelta: 0.000933216533016
---
header: 
  seq: 136
  stamp: 
    secs: 1611878363
    nsecs: 704102132
  frame_id: ''
D: 0.60109493434
delta: -0.0359951634437
dD: 0.00113946907694
ddelta: 0.00102899412245
---
header: 
  seq: 137
  stamp: 
    secs: 1611878363
    nsecs: 724093843
  frame_id: ''
D: 0.60110948725
delta: -0.0359734677102
dD: 0.000727645503816
ddelta: 0.00108478667214
---
header: 
  seq: 138
  stamp: 
    secs: 1611878363
    nsecs: 744093474
  frame_id: ''
D: 0.601119421073
delta: -0.035951998476
dD: 0.000496691178402
ddelta: 0.00107346171363
---
header: 
  seq: 139
  stamp: 
    secs: 1611878363
    nsecs: 764098186
  frame_id: ''
D: 0.60112693288
delta: -0.0359320066799
dD: 0.000375590361244
ddelta: 0.000999589801958
---
header: 
  seq: 140
  stamp: 
    secs: 1611878363
    nsecs: 784092806
  frame_id: ''
D: 0.601133192908
delta: -0.0359143508472
dD: 0.000313001373727
ddelta: 0.000882791635534
---
header: 
  seq: 141
  stamp: 
    secs: 1611878363
    nsecs: 804095159
  frame_id: ''
D: 0.601138739037
delta: -0.0358994373501
dD: 0.000277306481475
ddelta: 0.000745674854074
---
header: 
  seq: 142
  stamp: 
    secs: 1611878363
    nsecs: 824098973
  frame_id: ''
D: 0.601143759985
delta: -0.0358872946348
dD: 0.000251047379756
ddelta: 0.000607135764797
---
header: 
  seq: 143
  stamp: 
    secs: 1611878363
    nsecs: 844094915
  frame_id: ''
D: 0.601148277565
delta: -0.0358776956011
dD: 0.000225879012799
ddelta: 0.000479951686206
---
header: 
  seq: 144
  stamp: 
    secs: 1611878363
    nsecs: 864091816
  frame_id: ''
D: 0.601152253968
delta: -0.0358702772393
dD: 0.000198820155976
ddelta: 0.000370918091493
---
header: 
  seq: 145
  stamp: 
    secs: 1611878363
    nsecs: 884102264
  frame_id: ''
D: 0.601155646654
delta: -0.0358646340177
dD: 0.00016963427588
ddelta: 0.00028216108025
---
header: 
  seq: 146
  stamp: 
    secs: 1611878363
    nsecs: 904091375
  frame_id: ''
D: 0.60115842339
delta: -0.0358603790323
dD: 0.000138836779171
ddelta: 0.00021274926852
---
header: 
  seq: 147
  stamp: 
    secs: 1611878363
    nsecs: 924089272
  frame_id: ''
D: 0.601160530124
delta: -0.0358571760882
dD: 0.000105336703055
ddelta: 0.000160147207703
---
header: 
  seq: 148
  stamp: 
    secs: 1611878363
    nsecs: 944097693
  frame_id: ''
D: 0.601161945744
delta: -0.0358547550729
dD: 7.07810214974e-05
ddelta: 0.000121050761737
---
header: 
  seq: 149
  stamp: 
    secs: 1611878363
    nsecs: 964090185
  frame_id: ''
D: 0.601162853913
delta: -0.0358529142626
dD: 4.54084596425e-05
ddelta: 9.20405180361e-05
---
header: 
  seq: 150
  stamp: 
    secs: 1611878363
    nsecs: 984093110
  frame_id: ''
D: 0.601163455784
delta: -0.0358514989478
dD: 3.00935288823e-05
ddelta: 7.07657381917e-05
---
header: 
  seq: 151
  stamp: 
    secs: 1611878364
    nsecs:   4099457
  frame_id: ''
D: 0.601163886088
delta: -0.0358503949072
dD: 2.15152317608e-05
ddelta: 5.52020301412e-05
---
header: 
  seq: 152
  stamp: 
    secs: 1611878364
    nsecs:  24092310
  frame_id: ''
D: 0.601164222657
delta: -0.0358495210288
dD: 1.68284045426e-05
ddelta: 4.36939209941e-05
---
header: 
  seq: 153
  stamp: 
    secs: 1611878364
    nsecs:  44089990
  frame_id: ''
D: 0.601164505906
delta: -0.0358488204083
dD: 1.41624656859e-05
ddelta: 3.50310249066e-05
---
header: 
  seq: 154
  stamp: 
    secs: 1611878364
    nsecs:  64095425
  frame_id: ''
D: 0.601164754174
delta: -0.035848253011
dD: 1.241341788e-05
ddelta: 2.83698626572e-05
---
header: 
  seq: 155
  stamp: 
    secs: 1611878364
    nsecs:  84096977
  frame_id: ''
D: 0.601164974058
delta: -0.0358477902459
dD: 1.09941977033e-05
ddelta: 2.31382545354e-05
---
header: 
  seq: 156
  stamp: 
    secs: 1611878364
    nsecs: 104089047
  frame_id: ''
D: 0.601165166819
delta: -0.035847411189
dD: 9.638045591e-06
ddelta: 1.8952846182e-05
---
header: 
  seq: 157
  stamp: 
    secs: 1611878364
    nsecs: 124096097
  frame_id: ''
D: 0.601165331991
delta: -0.0358471000657
dD: 8.25858956835e-06
ddelta: 1.55561646999e-05
---
header: 
  seq: 158
  stamp: 
    secs: 1611878364
    nsecs: 144093958
  frame_id: ''
D: 0.601165469014
delta: -0.0358468446195
dD: 6.85117006209e-06
ddelta: 1.27723125195e-05
---
header: 
  seq: 159
  stamp: 
    secs: 1611878364
    nsecs: 164128100
  frame_id: ''
D: 0.601165577018
delta: -0.0358466350536
dD: 5.40018658972e-06
ddelta: 1.04782913518e-05
---
header: 
  seq: 160
  stamp: 
    secs: 1611878364
    nsecs: 184094000
  frame_id: ''
D: 0.601165653626
delta: -0.0358464633661
dD: 3.83038472017e-06
ddelta: 8.5843786114e-06
---
header: 
  seq: 161
  stamp: 
    secs: 1611878364
    nsecs: 204097128
  frame_id: ''
D: 0.601165703118
delta: -0.0358463232494
dD: 2.47459706728e-06
ddelta: 7.0058336187e-06
---
header: 
  seq: 162
  stamp: 
    secs: 1611878364
    nsecs: 224096569
  frame_id: ''
D: 0.601165735082
delta: -0.0358462094379
dD: 1.59823257785e-06
ddelta: 5.69057429695e-06
---
header: 
  seq: 163
  stamp: 
    secs: 1611878364
    nsecs: 244093835
  frame_id: ''
D: 0.601165756949
delta: -0.0358461173003
dD: 1.09334547985e-06
ddelta: 4.60688029141e-06
---
header: 
  seq: 164
  stamp: 
    secs: 1611878364
    nsecs: 264093466
  frame_id: ''
D: 0.601165773271
delta: -0.0358460429394
dD: 8.16075657596e-07
ddelta: 3.71804584229e-06
---
header: 
  seq: 165
  stamp: 
    secs: 1611878364
    nsecs: 284100267
  frame_id: ''
D: 0.601165786542
delta: -0.0358459831167
dD: 6.63564311061e-07
ddelta: 2.99113289274e-06
---
header: 
  seq: 166
  stamp: 
    secs: 1611878364
    nsecs: 304097498
  frame_id: ''
D: 0.601165797984
delta: -0.0358459351481
dD: 5.72082271604e-07
ddelta: 2.39843263702e-06
---
header: 
  seq: 167
  stamp: 
    secs: 1611878364
    nsecs: 324095343
  frame_id: ''
D: 0.601165808099
delta: -0.0358458968112
dD: 5.05790868589e-07
ddelta: 1.91684190057e-06
---
header: 
  seq: 168
  stamp: 
    secs: 1611878364
    nsecs: 344098471
  frame_id: ''
D: 0.601165817036
delta: -0.0358458662696
dD: 4.46839686157e-07
ddelta: 1.527084547e-06
---
header: 
  seq: 169
  stamp: 
    secs: 1611878364
    nsecs: 364094655
  frame_id: ''
D: 0.601165824797
delta: -0.0358458420088
dD: 3.88062031028e-07
ddelta: 1.2130357502e-06
---
header: 
  seq: 170
  stamp: 
    secs: 1611878364
    nsecs: 384096821
  frame_id: ''
D: 0.601165831355
delta: -0.0358458227853
dD: 3.27875754763e-07
ddelta: 9.61178843727e-07
---
header: 
  seq: 171
  stamp: 
    secs: 1611878364
    nsecs: 404096699
  frame_id: ''
D: 0.600623545692
delta: -0.0414237436411
dD: -0.0271142831485
ddelta: -0.278896042791
---
header: 
  seq: 172
  stamp: 
    secs: 1611878364
    nsecs: 424096507
  frame_id: ''
D: 0.600470005252
delta: -0.043558836999
dD: -0.00767702201689
ddelta: -0.106754667898
---
header: 
  seq: 173
  stamp: 
    secs: 1611878364
    nsecs: 444099446
  frame_id: ''
D: 0.600607620476
delta: -0.0435223586972
dD: 0.00688076122898
ddelta: 0.00182391509258
---
header: 
  seq: 174
  stamp: 
    secs: 1611878364
    nsecs: 464088947
  frame_id: ''
D: 0.600691182641
delta: -0.042371863846
dD: 0.00417810823813
ddelta: 0.0575247425593
---
header: 
  seq: 175
  stamp: 
    secs: 1611878364
    nsecs: 484088938
  frame_id: ''
D: 0.600669854835
delta: -0.0408517884272
dD: -0.00106639028726
ddelta: 0.0760037709396
---
header: 
  seq: 176
  stamp: 
    secs: 1611878364
    nsecs: 504093871
  frame_id: ''
D: 0.600623857544
delta: -0.0394005913576
dD: -0.00229986458602
ddelta: 0.0725598534816
---
header: 
  seq: 177
  stamp: 
    secs: 1611878364
    nsecs: 524093738
  frame_id: ''
D: 0.600594044599
delta: -0.0382207818277
dD: -0.00149064725338
ddelta: 0.0589904764941
---
header: 
  seq: 178
  stamp: 
    secs: 1611878364
    nsecs: 544098231
  frame_id: ''
D: 0.600594756571
delta: -0.037363672773
dD: 3.55986297316e-05
ddelta: 0.0428554527371
---
header: 
  seq: 179
  stamp: 
    secs: 1611878364
    nsecs: 564092170
  frame_id: ''
D: 0.600625825364
delta: -0.036797055007
dD: 0.00155343964413
ddelta: 0.0283308882986
---
header: 
  seq: 180
  stamp: 
    secs: 1611878364
    nsecs: 584090922
  frame_id: ''
D: 0.600680287823
delta: -0.0364541667809
dD: 0.00272312294054
ddelta: 0.0171444113047
---
header: 
  seq: 181
  stamp: 
    secs: 1611878364
    nsecs: 614100753
  frame_id: ''
D: 0.600763642305
delta: -0.0362958001619
dD: 0.0041677240883
ddelta: 0.00791833094999
---
header: 
  seq: 182
  stamp: 
    secs: 1611878364
    nsecs: 624093685
  frame_id: ''
D: 0.600833360152
delta: -0.0361911850788
dD: 0.00348589236027
ddelta: 0.00523075415508
---
header: 
  seq: 183
  stamp: 
    secs: 1611878364
    nsecs: 644091620
  frame_id: ''
D: 0.600903271629
delta: -0.0361379623348
dD: 0.0034955738654
ddelta: 0.00266113719674
---
header: 
  seq: 184
  stamp: 
    secs: 1611878364
    nsecs: 674093441
  frame_id: ''
D: 0.600974640911
delta: -0.0361087515975
dD: 0.0035684641164
ddelta: 0.00146053686664
---
header: 
  seq: 185
  stamp: 
    secs: 1611878364
    nsecs: 684091689
  frame_id: ''
D: 0.601028935982
delta: -0.0360839707522
dD: 0.00271475354974
ddelta: 0.00123904226734
---
header: 
  seq: 186
  stamp: 
    secs: 1611878364
    nsecs: 704094260
  frame_id: ''
D: 0.601072074572
delta: -0.0360594053024
dD: 0.00215692945707
ddelta: 0.00122827248662
---
header: 
  seq: 187
  stamp: 
    secs: 1611878364
    nsecs: 724102896
  frame_id: ''
D: 0.601096625843
delta: -0.0360327179683
dD: 0.00122756357126
ddelta: 0.00133436670517
---
header: 
  seq: 188
  stamp: 
    secs: 1611878364
    nsecs: 744093967
  frame_id: ''
D: 0.601110766414
delta: -0.0360051927525
dD: 0.000707028566625
ddelta: 0.00137626078969
---
header: 
  seq: 189
  stamp: 
    secs: 1611878364
    nsecs: 764101514
  frame_id: ''
D: 0.601119641191
delta: -0.035978263774
dD: 0.000443738822982
ddelta: 0.00134644892871
---
header: 
  seq: 190
  stamp: 
    secs: 1611878364
    nsecs: 794094724
  frame_id: ''
D: 0.601126570878
delta: -0.0359521818406
dD: 0.00034648437176
ddelta: 0.00130409666828
---
header: 
  seq: 191
  stamp: 
    secs: 1611878364
    nsecs: 814089880
  frame_id: ''
D: 0.601132566166
delta: -0.0359298871209
dD: 0.000299764369147
ddelta: 0.00111473598702
---
header: 
  seq: 192
  stamp: 
    secs: 1611878364
    nsecs: 834096901
  frame_id: ''
D: 0.601138058306
delta: -0.0359114794102
dD: 0.000274607008723
ddelta: 0.000920385533252
---
header: 
  seq: 193
  stamp: 
    secs: 1611878364
    nsecs: 854096736
  frame_id: ''
D: 0.601143159116
delta: -0.0358967143439
dD: 0.000255040505861
ddelta: 0.000738253316498
---
header: 
  seq: 194
  stamp: 
    secs: 1611878364
    nsecs: 864090374
  frame_id: ''
D: 0.601147266
delta: -0.0358849709902
dD: 0.0002053441937
ddelta: 0.000587167685742
---
header: 
  seq: 195
  stamp: 
    secs: 1611878364
    nsecs: 884094626
  frame_id: ''
D: 0.601151138545
delta: -0.0358759069841
dD: 0.00019362728171
ddelta: 0.000453200304844
---
header: 
  seq: 196
  stamp: 
    secs: 1611878364
    nsecs: 904100390
  frame_id: ''
D: 0.601154639848
delta: -0.0358689974846
dD: 0.000175065139867
ddelta: 0.000345474974464
---
header: 
  seq: 197
  stamp: 
    secs: 1611878364
    nsecs: 924090973
  frame_id: ''
D: 0.601157664732
delta: -0.0358637765325
dD: 0.000151244185422
ddelta: 0.000261047603272
---
header: 
  seq: 198
  stamp: 
    secs: 1611878364
    nsecs: 944095758
  frame_id: ''
D: 0.601160166776
delta: -0.0358598403874
dD: 0.00012510218708
ddelta: 0.000196807254153
---
header: 
  seq: 199
  stamp: 
    secs: 1611878364
    nsecs: 964119070
  frame_id: ''
D: 0.601161826845
delta: -0.0358568510978
dD: 8.30034805232e-05
ddelta: 0.000149464481327
---
header: 
  seq: 200
  stamp: 
    secs: 1611878364
    nsecs: 994095114
  frame_id: ''
D: 0.601162767401
delta: -0.0358546105947
dD: 4.70278001535e-05
ddelta: 0.000112025152545
---
header: 
  seq: 201
  stamp: 
    secs: 1611878365
    nsecs:  14100396
  frame_id: ''
D: 0.601163375666
delta: -0.0358528733757
dD: 3.04132601607e-05
ddelta: 8.68609507361e-05
---
header: 
  seq: 202
  stamp: 
    secs: 1611878365
    nsecs:  24091841
  frame_id: ''
D: 0.601163794201
delta: -0.0358514979856
dD: 2.09267509253e-05
ddelta: 6.87695076412e-05
---
header: 
  seq: 203
  stamp: 
    secs: 1611878365
    nsecs:  44095063
  frame_id: ''
D: 0.601164115167
delta: -0.0358504103079
dD: 1.60482642184e-05
ddelta: 5.43838857331e-05
---
header: 
  seq: 204
  stamp: 
    secs: 1611878365
    nsecs:  64102826
  frame_id: ''
D: 0.601164388754
delta: -0.0358495396333
dD: 1.36793757148e-05
ddelta: 4.35337285618e-05
---
header: 
  seq: 205
  stamp: 
    secs: 1611878365
    nsecs:  84091773
  frame_id: ''
D: 0.601164636138
delta: -0.0358488358659
dD: 1.2369167532e-05
ddelta: 3.51883717304e-05
---
header: 
  seq: 206
  stamp: 
    secs: 1611878365
    nsecs: 104093866
  frame_id: ''
D: 0.601164863261
delta: -0.0358482630507
dD: 1.13561791132e-05
ddelta: 2.86407596086e-05
---
header: 
  seq: 207
  stamp: 
    secs: 1611878365
    nsecs: 124094772
  frame_id: ''
D: 0.601165069306
delta: -0.0358477947804
dD: 1.03022272521e-05
ddelta: 2.34135109708e-05
---
header: 
  seq: 208
  stamp: 
    secs: 1611878365
    nsecs: 144100761
  frame_id: ''
D: 0.601165251501
delta: -0.03584741112
dD: 9.10974261039e-06
ddelta: 1.91830212978e-05
---
header: 
  seq: 209
  stamp: 
    secs: 1611878365
    nsecs: 164094048
  frame_id: ''
D: 0.599019582071
delta: -0.0357819283762
dD: -0.107283471455
ddelta: 0.00327413718891
---
header: 
  seq: 210
  stamp: 
    secs: 1611878365
    nsecs: 184093701
  frame_id: ''
D: 0.590953873778
delta: -0.0356218040277
dD: -0.403285414653
ddelta: 0.00800621742723
---
header: 
  seq: 211
  stamp: 
    secs: 1611878365
    nsecs: 204094037
  frame_id: ''
D: 0.582087898064
delta: -0.035666788156
dD: -0.443298785702
ddelta: -0.00224920641593
---
header: 
  seq: 212
  stamp: 
    secs: 1611878365
    nsecs: 224095199
  frame_id: ''
D: 0.575210001497
delta: -0.0407649590859
dD: -0.343894828389
ddelta: -0.254908546493
---
header: 
  seq: 213
  stamp: 
    secs: 1611878365
    nsecs: 244098291
  frame_id: ''
D: 0.569095167845
delta: -0.0427150856522
dD: -0.305741682558
ddelta: -0.0975063283167
---
header: 
  seq: 214
  stamp: 
    secs: 1611878365
    nsecs: 264100375
  frame_id: ''
D: 0.559871198298
delta: -0.0426183076728
dD: -0.461198477369
ddelta: 0.00483889897105
---
header: 
  seq: 215
  stamp: 
    secs: 1611878365
    nsecs: 284095259
  frame_id: ''
D: 0.552287961664
delta: -0.0416992562801
dD: -0.379161831695
ddelta: 0.0459525696326
---
header: 
  seq: 216
  stamp: 
    secs: 1611878365
    nsecs: 304101927
  frame_id: ''
D: 0.548468155695
delta: -0.0405382236121
dD: -0.190990298434
ddelta: 0.0580516334035
---
header: 
  seq: 217
  stamp: 
    secs: 1611878365
    nsecs: 324091280
  frame_id: ''
D: 0.546394908945
delta: -0.0393918985792
dD: -0.103662337538
ddelta: 0.0573162516445
---
header: 
  seq: 218
  stamp: 
    secs: 1611878365
    nsecs: 344089995
  frame_id: ''
D: 0.541460004761
delta: -0.0383409738369
dD: -0.24674520919
ddelta: 0.0525462371132
---
header: 
  seq: 219
  stamp: 
    secs: 1611878365
    nsecs: 364098482
  frame_id: ''
D: 0.538069309033
delta: -0.0377475676636
dD: -0.169534786393
ddelta: 0.0296703086659
---
header: 
  seq: 220
  stamp: 
    secs: 1611878365
    nsecs: 384093058
  frame_id: ''
D: 0.535771446377
delta: -0.0374077980734
dD: -0.114893132792
ddelta: 0.0169884795097
---
header: 
  seq: 221
  stamp: 
    secs: 1611878365
    nsecs: 404090014
  frame_id: ''
D: 0.530691700431
delta: -0.0371349388095
dD: -0.253987297316
ddelta: 0.0136429631934
---
header: 
  seq: 222
  stamp: 
    secs: 1611878365
    nsecs: 424096214
  frame_id: ''
D: 0.52757694099
delta: -0.037173407473
dD: -0.155737972022
ddelta: -0.00192343317567
---
header: 
  seq: 223
  stamp: 
    secs: 1611878365
    nsecs: 444099939
  frame_id: ''
D: 0.528299235876
delta: -0.0373567773582
dD: 0.036114744255
ddelta: -0.00916849425694
---
header: 
  seq: 224
  stamp: 
    secs: 1611878365
    nsecs: 464101124
  frame_id: ''
D: 0.5248487382
delta: -0.037291990238
dD: -0.172524883784
ddelta: 0.00323935600838
---
header: 
  seq: 225
  stamp: 
    secs: 1611878365
    nsecs: 484098638
  frame_id: ''
D: 0.52259814022
delta: -0.0374420082787
dD: -0.112529899016
ddelta: -0.00750090203493
---
header: 
  seq: 226
  stamp: 
    secs: 1611878365
    nsecs: 504090614
  frame_id: ''
D: 0.51583340771
delta: -0.0373860680171
dD: -0.338236625462
ddelta: 0.00279701308174
---
header: 
  seq: 227
  stamp: 
    secs: 1611878365
    nsecs: 524102824
  frame_id: ''
D: 0.511056554809
delta: -0.0375683376378
dD: -0.23884264508
ddelta: -0.0091134810377
---
header: 
  seq: 228
  stamp: 
    secs: 1611878365
    nsecs: 544096673
  frame_id: ''
D: 0.506377682552
delta: -0.0376771841236
dD: -0.233943612838
ddelta: -0.00544232428741
---
header: 
  seq: 229
  stamp: 
    secs: 1611878365
    nsecs: 564093680
  frame_id: ''
D: 0.502020644403
delta: -0.0377977619722
dD: -0.21785190745
ddelta: -0.00602889243003
---
header: 
  seq: 230
  stamp: 
    secs: 1611878365
    nsecs: 584097722
  frame_id: ''
D: 0.497149280836
delta: -0.0378889449268
dD: -0.243568178371
ddelta: -0.00455914772933
---
header: 
  seq: 231
  stamp: 
    secs: 1611878365
    nsecs: 604093611
  frame_id: ''
D: 0.492675551755
delta: -0.038018361116
dD: -0.223686454015
ddelta: -0.00647080946116
---
header: 
  seq: 232
  stamp: 
    secs: 1611878365
    nsecs: 624088956
  frame_id: ''
D: 0.490379895188
delta: -0.0382200403672
dD: -0.11478282838
ddelta: -0.0100839625612
---
header: 
  seq: 233
  stamp: 
    secs: 1611878365
    nsecs: 644091034
  frame_id: ''
D: 0.487432133452
delta: -0.0450029841024
dD: -0.147388086763
ddelta: -0.339147186759
---
header: 
  seq: 234
  stamp: 
    secs: 1611878365
    nsecs: 664096318
  frame_id: ''
D: 0.48332044928
delta: -0.0534836474257
dD: -0.205584208637
ddelta: -0.424033166166
---
header: 
  seq: 235
  stamp: 
    secs: 1611878365
    nsecs: 684094467
  frame_id: ''
D: 0.479790893784
delta: -0.0683910104822
dD: -0.17647777477
ddelta: -0.745368152825
---
header: 
  seq: 236
  stamp: 
    secs: 1611878365
    nsecs: 704099457
  frame_id: ''
D: 0.476200866354
delta: -0.0850519767698
dD: -0.179501371523
ddelta: -0.833048314383
---
header: 
  seq: 237
  stamp: 
    secs: 1611878365
    nsecs: 724095101
  frame_id: ''
D: 0.473521718226
delta: -0.100538822136
dD: -0.133957406408
ddelta: -0.774342268321
---
header: 
  seq: 238
  stamp: 
    secs: 1611878365
    nsecs: 744093684
  frame_id: ''
D: 0.471364576315
delta: -0.113198130063
dD: -0.107857095518
ddelta: -0.632965396319
---
header: 
  seq: 239
  stamp: 
    secs: 1611878365
    nsecs: 764099978
  frame_id: ''
D: 0.469746786468
delta: -0.123044596564
dD: -0.0808894923787
ddelta: -0.492323325084
---
header: 
  seq: 240
  stamp: 
    secs: 1611878365
    nsecs: 784095100
  frame_id: ''
D: 0.464407559412
delta: -0.120358263342
dD: -0.266961352781
ddelta: 0.134316661136
---
header: 
  seq: 241
  stamp: 
    secs: 1611878365
    nsecs: 804095203
  frame_id: ''
D: 0.463051936441
delta: -0.112383264535
dD: -0.0677811485586
ddelta: 0.398749940358
---
header: 
  seq: 242
  stamp: 
    secs: 1611878365
    nsecs: 824098736
  frame_id: ''
D: 0.460031966301
delta: -0.10265933996
dD: -0.150998507012
ddelta: 0.486196228747
---
header: 
  seq: 243
  stamp: 
    secs: 1611878365
    nsecs: 844094278
  frame_id: ''
D: 0.456810856307
delta: -0.098231917674
dD: -0.16105549969
ddelta: 0.221371114286
---
header: 
  seq: 244
  stamp: 
    secs: 1611878365
    nsecs: 864091575
  frame_id: ''
D: 0.454972295618
delta: -0.0985759604139
dD: -0.0919280344526
ddelta: -0.0172021369967
---
header: 
  seq: 245
  stamp: 
    secs: 1611878365
    nsecs: 884094848
  frame_id: ''
D: 0.450429111191
delta: -0.0957382650657
dD: -0.22715922135
ddelta: 0.141884767411
---
header: 
  seq: 246
  stamp: 
    secs: 1611878365
    nsecs: 904090818
  frame_id: ''
D: 0.448145090461
delta: -0.0964640480911
dD: -0.114201036502
ddelta: -0.036289151267
---
header: 
  seq: 247
  stamp: 
    secs: 1611878365
    nsecs: 924092827
  frame_id: ''
D: 0.446183871709
delta: -0.0940940521968
dD: -0.0980609376089
ddelta: 0.118499794715
---
header: 
  seq: 248
  stamp: 
    secs: 1611878365
    nsecs: 944098068
  frame_id: ''
D: 0.445051279276
delta: -0.0896544387561
dD: -0.0566296216164
ddelta: 0.221980672036
---
header: 
  seq: 249
  stamp: 
    secs: 1611878365
    nsecs: 964118856
  frame_id: ''
D: 0.440855282439
delta: -0.0835816177497
dD: -0.209799841864
ddelta: 0.303641050317
---
header: 
  seq: 250
  stamp: 
    secs: 1611878365
    nsecs: 984094319
  frame_id: ''
D: 0.437513418914
delta: -0.077733523558
dD: -0.167093176235
ddelta: 0.292404709588
---
header: 
  seq: 251
  stamp: 
    secs: 1611878366
    nsecs:   4103357
  frame_id: ''
D: 0.435731647316
delta: -0.0726664750747
dD: -0.0890885799019
ddelta: 0.253352424167
---
header: 
  seq: 252
  stamp: 
    secs: 1611878366
    nsecs:  24098260
  frame_id: ''
D: 0.436606724797
delta: -0.0687031866806
dD: 0.0437538740547
ddelta: 0.198164419705
---
header: 
  seq: 253
  stamp: 
    secs: 1611878366
    nsecs:  44094727
  frame_id: ''
D: 0.435403219357
delta: -0.0654670644572
dD: -0.0601752720135
ddelta: 0.161806111167
---
header: 
  seq: 254
  stamp: 
    secs: 1611878366
    nsecs:  64099988
  frame_id: ''
D: 0.430456532557
delta: -0.0629736891273
dD: -0.24733434002
ddelta: 0.124668766494
---
header: 
  seq: 255
  stamp: 
    secs: 1611878366
    nsecs:  84098025
  frame_id: ''
D: 0.425552939774
delta: -0.0614004744299
dD: -0.245179639149
ddelta: 0.0786607348696
---
header: 
  seq: 256
  stamp: 
    secs: 1611878366
    nsecs: 104101877
  frame_id: ''
D: 0.423598481517
delta: -0.0605916142111
dD: -0.097722912841
ddelta: 0.0404430109442
---
header: 
  seq: 257
  stamp: 
    secs: 1611878366
    nsecs: 124096281
  frame_id: ''
D: 0.422407658675
delta: -0.0601105162002
dD: -0.0595411420939
ddelta: 0.0240549005425
---
header: 
  seq: 258
  stamp: 
    secs: 1611878366
    nsecs: 144093907
  frame_id: ''
D: 0.420823509643
delta: -0.0598646730282
dD: -0.0792074516112
ddelta: 0.0122921586031
---
header: 
  seq: 259
  stamp: 
    secs: 1611878366
    nsecs: 164100824
  frame_id: ''
D: 0.421462928468
delta: -0.0599810138234
dD: 0.0319709412591
ddelta: -0.00581703976281
---
header: 
  seq: 260
  stamp: 
    secs: 1611878366
    nsecs: 184092535
  frame_id: ''
D: 0.420240952829
delta: -0.0590692964917
dD: -0.0610987819397
ddelta: 0.0455858665837
---
header: 
  seq: 261
  stamp: 
    secs: 1611878366
    nsecs: 204094439
  frame_id: ''
D: 0.419264235458
delta: -0.0570570503511
dD: -0.0488358685471
ddelta: 0.10061230703
---
header: 
  seq: 262
  stamp: 
    secs: 1611878366
    nsecs: 224098416
  frame_id: ''
D: 0.420704339641
delta: -0.0546630675872
dD: 0.0720052091227
ddelta: 0.119699138195
---
header: 
  seq: 263
  stamp: 
    secs: 1611878366
    nsecs: 254090697
  frame_id: ''
D: 0.422275547034
delta: -0.0519284777336
dD: 0.0785603696769
ddelta: 0.136729492682
---
header: 
  seq: 264
  stamp: 
    secs: 1611878366
    nsecs: 274095189
  frame_id: ''
D: 0.422010173638
delta: -0.0495034663075
dD: -0.0132686697864
ddelta: 0.121250571306
---
header: 
  seq: 265
  stamp: 
    secs: 1611878366
    nsecs: 294098431
  frame_id: ''
D: 0.426815765717
delta: -0.0478845123856
dD: 0.240279603927
ddelta: 0.0809476960935
---
header: 
  seq: 266
  stamp: 
    secs: 1611878366
    nsecs: 314092058
  frame_id: ''
D: 0.431940174668
delta: -0.0465749029942
dD: 0.256220447541
ddelta: 0.0654804695679
---
header: 
  seq: 267
  stamp: 
    secs: 1611878366
    nsecs: 324102617
  frame_id: ''
D: 0.437094848738
delta: -0.0456229996638
dD: 0.257733703524
ddelta: 0.0475951665212
---
header: 
  seq: 268
  stamp: 
    secs: 1611878366
    nsecs: 354103121
  frame_id: ''
D: 0.439656317194
delta: -0.0449850587086
dD: 0.128073422795
ddelta: 0.0318970477595
---
header: 
  seq: 269
  stamp: 
    secs: 1611878366
    nsecs: 374093573
  frame_id: ''
D: 0.44231609843
delta: -0.0447328835926
dD: 0.132989061776
ddelta: 0.0126087558017
---
header: 
  seq: 270
  stamp: 
    secs: 1611878366
    nsecs: 394094047
  frame_id: ''
D: 0.445958204677
delta: -0.0447323870058
dD: 0.182105312387
ddelta: 2.48293397894e-05
---
header: 
  seq: 271
  stamp: 
    secs: 1611878366
    nsecs: 414092992
  frame_id: ''
D: 0.445979859687
delta: -0.0446755610475
dD: 0.00108275045712
ddelta: 0.00284129791457
---
header: 
  seq: 272
  stamp: 
    secs: 1611878366
    nsecs: 434104448
  frame_id: ''
D: 0.449435642699
delta: -0.045023391989
dD: 0.172789150625
ddelta: -0.0173915470759
---
header: 
  seq: 273
  stamp: 
    secs: 1611878366
    nsecs: 454096429
  frame_id: ''
D: 0.450312340542
delta: -0.0451631870475
dD: 0.0438348921443
ddelta: -0.0069897529238
---
header: 
  seq: 274
  stamp: 
    secs: 1611878366
    nsecs: 474092114
  frame_id: ''
D: 0.4547420738
delta: -0.0456048116404
dD: 0.221486662914
ddelta: -0.0220812296452
---
header: 
  seq: 275
  stamp: 
    secs: 1611878366
    nsecs: 494094695
  frame_id: ''
D: 0.456291333024
delta: -0.0457635695631
dD: 0.0774629612065
ddelta: -0.00793789613589
---
header: 
  seq: 276
  stamp: 
    secs: 1611878366
    nsecs: 514098404
  frame_id: ''
D: 0.45616705138
delta: -0.0459644412301
dD: -0.00621408222792
ddelta: -0.0100435833481
---
header: 
  seq: 277
  stamp: 
    secs: 1611878366
    nsecs: 534095132
  frame_id: ''
D: 0.456359044316
delta: -0.0462381131786
dD: 0.00959964682275
ddelta: -0.0136835974275
---
header: 
  seq: 278
  stamp: 
    secs: 1611878366
    nsecs: 554095431
  frame_id: ''
D: 0.453007135665
delta: -0.0463233014694
dD: -0.167595432541
ddelta: -0.00425941453977
---
header: 
  seq: 279
  stamp: 
    secs: 1611878366
    nsecs: 574098691
  frame_id: ''
D: 0.45353739657
delta: -0.0467334803782
dD: 0.0265130452037
ddelta: -0.0205089454372
---
header: 
  seq: 280
  stamp: 
    secs: 1611878366
    nsecs: 594092556
  frame_id: ''
D: 0.452110782445
delta: -0.0468761666158
dD: -0.0713307062254
ddelta: -0.00713431188095
---
header: 
  seq: 281
  stamp: 
    secs: 1611878366
    nsecs: 614090529
  frame_id: ''
D: 0.449831730071
delta: -0.0452558729598
dD: -0.113952618697
ddelta: 0.0810146828012
---
header: 
  seq: 282
  stamp: 
    secs: 1611878366
    nsecs: 634096246
  frame_id: ''
D: 0.445940177535
delta: -0.0418589242196
dD: -0.194577626806
ddelta: 0.169847437008
---
header: 
  seq: 283
  stamp: 
    secs: 1611878366
    nsecs: 654093669
  frame_id: ''
D: 0.440607845491
delta: -0.0369423993629
dD: -0.26661660218
ddelta: 0.245826242836
---
header: 
  seq: 284
  stamp: 
    secs: 1611878366
    nsecs: 664120792
  frame_id: ''
D: 0.438243787898
delta: -0.0324242908297
dD: -0.118202879664
ddelta: 0.225905426658
---
header: 
  seq: 285
  stamp: 
    secs: 1611878366
    nsecs: 684090425
  frame_id: ''
D: 0.436275202067
delta: -0.027721124065
dD: -0.0984292915497
ddelta: 0.235158338239
---
header: 
  seq: 286
  stamp: 
    secs: 1611878366
    nsecs: 704099052
  frame_id: ''
D: 0.433625341453
delta: -0.0234266001641
dD: -0.132493030703
ddelta: 0.214726195043
---
header: 
  seq: 287
  stamp: 
    secs: 1611878366
    nsecs: 724091783
  frame_id: ''
D: 0.43288559764
delta: -0.0199002890138
dD: -0.0369871906701
ddelta: 0.176315557516
---
header: 
  seq: 288
  stamp: 
    secs: 1611878366
    nsecs: 744089565
  frame_id: ''
D: 0.430174429028
delta: -0.017175886774
dD: -0.135558430588
ddelta: 0.136220111989
---
header: 
  seq: 289
  stamp: 
    secs: 1611878366
    nsecs: 764115223
  frame_id: ''
D: 0.4277558974
delta: -0.0152905274107
dD: -0.120926581371
ddelta: 0.094267968166
---
header: 
  seq: 290
  stamp: 
    secs: 1611878366
    nsecs: 784092222
  frame_id: ''
D: 0.422925825026
delta: -0.0141132825612
dD: -0.241503618709
ddelta: 0.0588622424763
---
header: 
  seq: 291
  stamp: 
    secs: 1611878366
    nsecs: 804096223
  frame_id: ''
D: 0.419919413545
delta: -0.0135839585767
dD: -0.150320574048
ddelta: 0.0264661992205
---
header: 
  seq: 292
  stamp: 
    secs: 1611878366
    nsecs: 824100066
  frame_id: ''
D: 0.415650645404
delta: -0.0134946925018
dD: -0.213438407089
ddelta: 0.00446330374866
---
header: 
  seq: 293
  stamp: 
    secs: 1611878366
    nsecs: 854089852
  frame_id: ''
D: 0.4131786123
delta: -0.0139194180564
dD: -0.123601655197
ddelta: -0.0212362777293
---
header: 
  seq: 294
  stamp: 
    secs: 1611878366
    nsecs: 864097017
  frame_id: ''
D: 0.413633366694
delta: -0.0143906032781
dD: 0.0227377197221
ddelta: -0.0235592610851
---
header: 
  seq: 295
  stamp: 
    secs: 1611878366
    nsecs: 884093328
  frame_id: ''
D: 0.4130416011
delta: -0.0149470594727
dD: -0.0295882797133
ddelta: -0.0278228097327
---
header: 
  seq: 296
  stamp: 
    secs: 1611878366
    nsecs: 904092738
  frame_id: ''
D: 0.413549989189
delta: -0.00905629391173
dD: 0.0254194044582
ddelta: 0.29453827805
---
header: 
  seq: 297
  stamp: 
    secs: 1611878366
    nsecs: 924105014
  frame_id: ''
D: 0.416526890713
delta: -0.00706344327786
dD: 0.14884507618
ddelta: 0.0996425316932
---
header: 
  seq: 298
  stamp: 
    secs: 1611878366
    nsecs: 944095652
  frame_id: ''
D: 0.417050422664
delta: -0.0048212538772
dD: 0.0261765975922
ddelta: 0.112109470033
---
header: 
  seq: 299
  stamp: 
    secs: 1611878366
    nsecs: 964093689
  frame_id: ''
D: 0.417266288412
delta: -0.0025695598941
dD: 0.0107932873782
ddelta: 0.112584699155
---
header: 
  seq: 300
  stamp: 
    secs: 1611878366
    nsecs: 984104168
  frame_id: ''
D: 0.419132244561
delta: 0.000427300064005
dD: 0.0932978074347
ddelta: 0.149842997905
---
header: 
  seq: 301
  stamp: 
    secs: 1611878367
    nsecs:   4091425
  frame_id: ''
D: 0.422444897847
delta: 0.00367058097935
dD: 0.165632664311
ddelta: 0.162164045767
---
header: 
  seq: 302
  stamp: 
    secs: 1611878367
    nsecs:  24089700
  frame_id: ''
D: 0.427829629852
delta: 0.00680324433693
dD: 0.269236600251
ddelta: 0.156633167879
---
header: 
  seq: 303
  stamp: 
    secs: 1611878367
    nsecs:  44096646
  frame_id: ''
D: 0.432147872927
delta: 0.00951703509884
dD: 0.215912153742
ddelta: 0.135689538095
---
header: 
  seq: 304
  stamp: 
    secs: 1611878367
    nsecs:  64092690
  frame_id: ''
D: 0.436358348107
delta: 0.0117382450814
dD: 0.210523759004
ddelta: 0.111060499127
---
header: 
  seq: 305
  stamp: 
    secs: 1611878367
    nsecs:  84100513
  frame_id: ''
D: 0.438971519219
delta: 0.0133637244918
dD: 0.13065855559
ddelta: 0.0812739705208
---
header: 
  seq: 306
  stamp: 
    secs: 1611878367
    nsecs: 104098427
  frame_id: ''
D: 0.4455891401
delta: 0.0145619426185
dD: 0.330881044085
ddelta: 0.0599109063341
---
header: 
  seq: 307
  stamp: 
    secs: 1611878367
    nsecs: 124093508
  frame_id: ''
D: 0.449282974351
delta: 0.0151546572391
dD: 0.18469171254
ddelta: 0.0296357310331
---
header: 
  seq: 308
  stamp: 
    secs: 1611878367
    nsecs: 144097474
  frame_id: ''
D: 0.451054670358
delta: 0.0153561256687
dD: 0.0885848003327
ddelta: 0.0100734214797
---
header: 
  seq: 309
  stamp: 
    secs: 1611878367
    nsecs: 164095577
  frame_id: ''
D: 0.452789058475
delta: 0.0152778907336
dD: 0.0867194058354
ddelta: -0.00391174675819
---
header: 
  seq: 310
  stamp: 
    secs: 1611878367
    nsecs: 184093137
  frame_id: ''
D: 0.454183538236
delta: 0.0149826414209
dD: 0.0697239880601
ddelta: -0.0147624656328
---
header: 
  seq: 311
  stamp: 
    secs: 1611878367
    nsecs: 204098182
  frame_id: ''
D: 0.456174576348
delta: 0.0145701843658
dD: 0.0995519056347
ddelta: -0.0206228527553
---
header: 
  seq: 312
  stamp: 
    secs: 1611878367
    nsecs: 224091569
  frame_id: ''
D: 0.457935537614
delta: 0.0140814212095
dD: 0.0880480632733
ddelta: -0.024438157816
---
header: 
  seq: 313
  stamp: 
    secs: 1611878367
    nsecs: 244092275
  frame_id: ''
D: 0.460151367622
delta: 0.0135825100193
dD: 0.110791500389
ddelta: -0.0249455595128
---
header: 
  seq: 314
  stamp: 
    secs: 1611878367
    nsecs: 264095524
  frame_id: ''
D: 0.458340935589
delta: 0.0130201541533
dD: -0.0905216016439
ddelta: -0.0281177932989
---
header: 
  seq: 315
  stamp: 
    secs: 1611878367
    nsecs: 284095503
  frame_id: ''
D: 0.459729787984
delta: 0.0125718863631
dD: 0.0694426197517
ddelta: -0.0224133895135
---
header: 
  seq: 316
  stamp: 
    secs: 1611878367
    nsecs: 304103855
  frame_id: ''
D: 0.458477934912
delta: 0.012102445013
dD: -0.0625926536183
ddelta: -0.0234720675054
---
header: 
  seq: 317
  stamp: 
    secs: 1611878367
    nsecs: 324097241
  frame_id: ''
D: 0.456109669319
delta: 0.0116809568065
dD: -0.118413279639
ddelta: -0.0210744103255
---
header: 
  seq: 318
  stamp: 
    secs: 1611878367
    nsecs: 344096513
  frame_id: ''
D: 0.45469880158
delta: 0.0113242092166
dD: -0.0705433869465
ddelta: -0.0178373794981
---
header: 
  seq: 319
  stamp: 
    secs: 1611878367
    nsecs: 364096428
  frame_id: ''
D: 0.450326541235
delta: 0.0109647137351
dD: -0.218613017267
ddelta: -0.0179747740808
---
header: 
  seq: 320
  stamp: 
    secs: 1611878367
    nsecs: 384097175
  frame_id: ''
D: 0.447923198178
delta: 0.0115957110393
dD: -0.120167152863
ddelta: 0.0315498652093
---
header: 
  seq: 321
  stamp: 
    secs: 1611878367
    nsecs: 404097023
  frame_id: ''
D: 0.445544550762
delta: 0.0135159116793
dD: -0.118932370779
ddelta: 0.0960100319917
---
header: 
  seq: 322
  stamp: 
    secs: 1611878367
    nsecs: 424100645
  frame_id: ''
D: 0.443793388926
delta: 0.0160349668391
dD: -0.0875580918248
ddelta: 0.125952757977
---
header: 
  seq: 323
  stamp: 
    secs: 1611878367
    nsecs: 444092680
  frame_id: ''
D: 0.439241405747
delta: 0.0185901907014
dD: -0.227599158971
ddelta: 0.127761193063
---
header: 
  seq: 324
  stamp: 
    secs: 1611878367
    nsecs: 464098646
  frame_id: ''
D: 0.435858305615
delta: 0.0210182192171
dD: -0.169155006632
ddelta: 0.121401425743
---
header: 
  seq: 325
  stamp: 
    secs: 1611878367
    nsecs: 494101514
  frame_id: ''
D: 0.431955189917
delta: 0.0230752268505
dD: -0.195155784977
ddelta: 0.102850381545
---
header: 
  seq: 326
  stamp: 
    secs: 1611878367
    nsecs: 504092026
  frame_id: ''
D: 0.429591388765
delta: 0.0247071094631
dD: -0.118190057628
ddelta: 0.0815941305899
---
header: 
  seq: 327
  stamp: 
    secs: 1611878367
    nsecs: 524094599
  frame_id: ''
D: 0.426170464506
delta: 0.0258666256063
dD: -0.171046213022
ddelta: 0.0579758070422
---
header: 
  seq: 328
  stamp: 
    secs: 1611878367
    nsecs: 544099407
  frame_id: ''
D: 0.422483377259
delta: 0.0266795282596
dD: -0.184354362422
ddelta: 0.0406451325439
---
header: 
  seq: 329
  stamp: 
    secs: 1611878367
    nsecs: 564094989
  frame_id: ''
D: 0.418512749142
delta: 0.0272013830253
dD: -0.198531405918
ddelta: 0.0260927381461
---
header: 
  seq: 330
  stamp: 
    secs: 1611878367
    nsecs: 584095479
  frame_id: ''
D: 0.419233821538
delta: 0.027604989956
dD: 0.0360536197507
ddelta: 0.020180346482
---
header: 
  seq: 331
  stamp: 
    secs: 1611878367
    nsecs: 604097175
  frame_id: ''
D: 0.419225956563
delta: 0.0277686735592
dD: -0.000393248828827
ddelta: 0.00818418002509
---
header: 
  seq: 332
  stamp: 
    secs: 1611878367
    nsecs: 624093459
  frame_id: ''
D: 0.416264404017
delta: 0.027814952651
dD: -0.148077627312
ddelta: 0.00231395458782
---
header: 
  seq: 333
  stamp: 
    secs: 1611878367
    nsecs: 644099364
  frame_id: ''
D: 0.413747827606
delta: 0.0278881942976
dD: -0.12582882052
ddelta: 0.00366208232918
---
header: 
  seq: 334
  stamp: 
    secs: 1611878367
    nsecs: 664099743
  frame_id: ''
D: 0.414247087043
delta: 0.0280072274109
dD: 0.0249629717817
ddelta: 0.00595165556152
---
header: 
  seq: 335
  stamp: 
    secs: 1611878367
    nsecs: 684092379
  frame_id: ''
D: 0.413490104463
delta: 0.0281023615625
dD: -0.0378491289803
ddelta: 0.0047567075802
---
header: 
  seq: 336
  stamp: 
    secs: 1611878367
    nsecs: 704097760
  frame_id: ''
D: 0.411713803046
delta: 0.0282601167757
dD: -0.0888150708493
ddelta: 0.00788776065555
---
header: 
  seq: 337
  stamp: 
    secs: 1611878367
    nsecs: 724091998
  frame_id: ''
D: 0.411677201763
delta: 0.0293325490816
dD: -0.00183006418222
ddelta: 0.0536216152985
---
header: 
  seq: 338
  stamp: 
    secs: 1611878367
    nsecs: 744090579
  frame_id: ''
D: 0.412425967575
delta: 0.0300359157429
dD: 0.0374382906245
ddelta: 0.0351683330642
---
header: 
  seq: 339
  stamp: 
    secs: 1611878367
    nsecs: 764096804
  frame_id: ''
D: 0.414484747975
delta: 0.0322551144874
dD: 0.102939019996
ddelta: 0.110959937223
---
header: 
  seq: 340
  stamp: 
    secs: 1611878367
    nsecs: 784091869
  frame_id: ''
D: 0.416739683629
delta: 0.0334614718162
dD: 0.112746782712
ddelta: 0.0603178664416
---
header: 
  seq: 341
  stamp: 
    secs: 1611878367
    nsecs: 804095707
  frame_id: ''
D: 0.418390391163
delta: 0.0349312548323
dD: 0.0825353766782
ddelta: 0.0734891508025
---
header: 
  seq: 342
  stamp: 
    secs: 1611878367
    nsecs: 824096309
  frame_id: ''
D: 0.420576028822
delta: 0.0363908742638
dD: 0.109281882972
ddelta: 0.0729809715754
---
header: 
  seq: 343
  stamp: 
    secs: 1611878367
