header: 
  seq: 0
  stamp: 
    secs: 1611878362
    nsecs: 748408437
  frame_id: ''
s: 0.0
n: 0.0
alpha: 0.0
v: 0.0
---
header: 
  seq: 1
  stamp: 
    secs: 1611878362
    nsecs: 764036278
  frame_id: ''
s: 0.0
n: 7.5272234724e-06
alpha: -3.26307790144e-05
v: 0.0031834862513
---
header: 
  seq: 2
  stamp: 
    secs: 1611878362
    nsecs: 774109639
  frame_id: ''
s: 0.0
n: 5.75642078683e-05
alpha: -0.00024695817061
v: 0.0158769519327
---
header: 
  seq: 3
  stamp: 
    secs: 1611878362
    nsecs: 784106535
  frame_id: ''
s: 0.0
n: 0.000213388052188
alpha: -0.000884050011581
v: 0.0440643511924
---
header: 
  seq: 4
  stamp: 
    secs: 1611878362
    nsecs: 794099214
  frame_id: ''
s: 0.0
n: 0.000559181352699
alpha: -0.0021452283626
v: 0.092470889476
---
header: 
  seq: 5
  stamp: 
    secs: 1611878362
    nsecs: 804094265
  frame_id: ''
s: 0.0
n: 0.0011810395509
alpha: -0.00398323293321
v: 0.162899118933
---
header: 
  seq: 6
  stamp: 
    secs: 1611878362
    nsecs: 814094055
  frame_id: ''
s: 0.0
n: 0.00213466649759
alpha: -0.00604601494896
v: 0.252341253556
---
header: 
  seq: 7
  stamp: 
    secs: 1611878362
    nsecs: 824096044
  frame_id: ''
s: 0.0
n: 0.00341065176834
alpha: -0.00791032592861
v: 0.352224250213
---
header: 
  seq: 8
  stamp: 
    secs: 1611878362
    nsecs: 834125287
  frame_id: ''
s: 0.0
n: 0.00492060785373
alpha: -0.0093324608658
v: 0.450138567133
---
header: 
  seq: 9
  stamp: 
    secs: 1611878362
    nsecs: 844094361
  frame_id: ''
s: 8.6696473397
n: 0.00652064596379
alpha: 6.27290920506
v: 0.533755193765
---
header: 
  seq: 10
  stamp: 
    secs: 1611878362
    nsecs: 854098495
  frame_id: ''
s: 8.66000055138
n: 0.00806052497713
alpha: 6.27237251063
v: 0.594649078451
---
header: 
  seq: 11
  stamp: 
    secs: 1611878362
    nsecs: 864092853
  frame_id: ''
s: 8.65066885969
n: 0.00955010635156
alpha: 6.27296540048
v: 0.640778313634
---
header: 
  seq: 12
  stamp: 
    secs: 1611878362
    nsecs: 874098125
  frame_id: ''
s: 8.64502490463
n: 0.0104510287791
alpha: 6.27296332704
v: 0.631487980771
---
header: 
  seq: 13
  stamp: 
    secs: 1611878362
    nsecs: 884094585
  frame_id: ''
s: 8.6406777702
n: 0.0111449448125
alpha: 6.2730672678
v: 0.606649285633
---
header: 
  seq: 14
  stamp: 
    secs: 1611878362
    nsecs: 894093284
  frame_id: ''
s: 8.63468712005
n: 0.0121012098172
alpha: 6.27254147276
v: 0.606649285633
---
header: 
  seq: 15
  stamp: 
    secs: 1611878362
    nsecs: 904098897
  frame_id: ''
s: 8.63185374677
n: 0.012553490736
alpha: 6.27284399735
v: 0.570644786855
---
header: 
  seq: 16
  stamp: 
    secs: 1611878362
    nsecs: 914096105
  frame_id: ''
s: 8.63008459429
n: 0.0128358940152
alpha: 6.27316718427
v: 0.527145184704
---
header: 
  seq: 17
  stamp: 
    secs: 1611878362
    nsecs: 924097479
  frame_id: ''
s: 8.6291849837
n: 0.0129794955338
alpha: 6.27348586645
v: 0.479072116907
---
header: 
  seq: 18
  stamp: 
    secs: 1611878362
    nsecs: 934097503
  frame_id: ''
s: 8.62898186918
n: 0.0130119179542
alpha: 6.27378248426
v: 0.428707127229
---
header: 
  seq: 19
  stamp: 
    secs: 1611878362
    nsecs: 944094869
  frame_id: ''
s: 8.6293257522
n: 0.0129570251767
alpha: 6.27404604828
v: 0.377827624867
---
header: 
  seq: 20
  stamp: 
    secs: 1611878362
    nsecs: 954098066
  frame_id: ''
s: 8.63008857263
n: 0.0128352589683
alpha: 6.27427095224
v: 0.327820940303
---
header: 
  seq: 21
  stamp: 
    secs: 1611878362
    nsecs: 964101405
  frame_id: ''
s: 8.63116071726
n: 0.0126641164772
alpha: 6.27445572381
v: 0.279765434195
---
header: 
  seq: 22
  stamp: 
    secs: 1611878362
    nsecs: 974106156
  frame_id: ''
s: 8.63244843107
n: 0.0124585634749
alpha: 6.27460183777
v: 0.234483713918
---
header: 
  seq: 23
  stamp: 
    secs: 1611878362
    nsecs: 984101176
  frame_id: ''
s: 8.63387193925
n: 0.0122313341191
alpha: 6.27471268462
v: 0.192577524434
---
header: 
  seq: 24
  stamp: 
    secs: 1611878362
    nsecs: 994098543
  frame_id: ''
s: 8.63536415886
n: 0.01199313661
alpha: 6.27479273785
v: 0.154453136651
---
header: 
  seq: 25
  stamp: 
    secs: 1611878363
    nsecs:   4092405
  frame_id: ''
s: 8.63686975168
n: 0.0117528043864
alpha: 6.27484692259
v: 0.120343439132
---
header: 
  seq: 26
  stamp: 
    secs: 1611878363
    nsecs:  14103754
  frame_id: ''
s: 8.64038901882
n: 0.0111910370632
alpha: 6.27484927685
v: 0.0643670983392
---
header: 
  seq: 27
  stamp: 
    secs: 1611878363
    nsecs:  24100847
  frame_id: ''
s: 8.64148951105
n: 0.0110153698012
alpha: 6.27486086245
v: 0.0423047928468
---
header: 
  seq: 28
  stamp: 
    secs: 1611878363
    nsecs:  34099718
  frame_id: ''
s: 8.64251820813
n: 0.0108511629179
alpha: 6.27486410969
v: 0.0239143286111
---
header: 
  seq: 29
  stamp: 
    secs: 1611878363
    nsecs:  44096629
  frame_id: ''
s: 8.64346185181
n: 0.0107005327748
alpha: 6.27486145497
v: 0.00891036641867
---
header: 
  seq: 30
  stamp: 
    secs: 1611878363
    nsecs:  54099815
  frame_id: ''
s: 8.6443125503
n: 0.0105647391098
alpha: 6.27485491775
v: 0.00302833597144
---
header: 
  seq: 31
  stamp: 
    secs: 1611878363
    nsecs:  64093722
  frame_id: ''
s: 8.64506684741
n: 0.010444333617
alpha: 6.27484611186
v: 0.0122412788844
---
header: 
  seq: 32
  stamp: 
    secs: 1611878363
    nsecs:  74104339
  frame_id: ''
s: 8.64572484238
n: 0.0103393004585
alpha: 6.27483627736
v: 0.019071745115
---
header: 
  seq: 33
  stamp: 
    secs: 1611878363
    nsecs:  84097898
  frame_id: ''
s: 8.64628938722
n: 0.0102491843785
alpha: 6.27482632453
v: 0.0238554524534
---
header: 
  seq: 34
  stamp: 
    secs: 1611878363
    nsecs:  94096937
  frame_id: ''
s: 8.64676537744
n: 0.010173203926
alpha: 6.27481688363
v: 0.0269120884806
---
header: 
  seq: 35
  stamp: 
    secs: 1611878363
    nsecs: 104097285
  frame_id: ''
s: 8.64715914193
n: 0.0101103488434
alpha: 6.27480835565
v: 0.0285393671659
---
header: 
  seq: 36
  stamp: 
    secs: 1611878363
    nsecs: 114095384
  frame_id: ''
s: 8.64747793081
n: 0.0100594618238
alpha: 6.27480096075
v: 0.0290092036108
---
header: 
  seq: 37
  stamp: 
    secs: 1611878363
    nsecs: 124099434
  frame_id: ''
s: 8.64772949517
n: 0.0100193055897
alpha: 6.27479478212
v: 0.0285656087778
---
header: 
  seq: 38
  stamp: 
    secs: 1611878363
    nsecs: 134098564
  frame_id: ''
s: 8.64792175026
n: 0.00998861666457
alpha: 6.27478980426
v: 0.0274239398537
---
header: 
  seq: 39
  stamp: 
    secs: 1611878363
    nsecs: 144097166
  frame_id: ''
s: 8.64806251219
n: 0.00996614738935
alpha: 6.27478594502
v: 0.0257711886702
---
header: 
  seq: 40
  stamp: 
    secs: 1611878363
    nsecs: 154096924
  frame_id: ''
s: 8.64815929857
n: 0.00995069775854
alpha: 6.2747830815
v: 0.0237670402589
---
header: 
  seq: 41
  stamp: 
    secs: 1611878363
    nsecs: 164092033
  frame_id: ''
s: 8.64821918338
n: 0.00994113858078
alpha: 6.27478107027
v: 0.021545480439
---
header: 
  seq: 42
  stamp: 
    secs: 1611878363
    nsecs: 174094679
  frame_id: ''
s: 8.64824869753
n: 0.00993642735215
alpha: 6.27477976232
v: 0.0192167727395
---
header: 
  seq: 43
  stamp: 
    secs: 1611878363
    nsecs: 184105236
  frame_id: ''
s: 8.64825376723
n: 0.00993561809538
alpha: 6.27477901378
v: 0.0168696602842
---
header: 
  seq: 44
  stamp: 
    secs: 1611878363
    nsecs: 194100342
  frame_id: ''
s: 8.64823968316
n: 0.00993786628091
alpha: 6.2747786928
v: 0.0145736778803
---
header: 
  seq: 45
  stamp: 
    secs: 1611878363
    nsecs: 204097784
  frame_id: ''
s: 8.64821109427
n: 0.00994242981354
alpha: 6.27477868365
v: 0.0123814842401
---
header: 
  seq: 46
  stamp: 
    secs: 1611878363
    nsecs: 214096790
  frame_id: ''
s: 8.64817202088
n: 0.0099486669452
alpha: 6.27477888853
v: 0.0103311448693
---
header: 
  seq: 47
  stamp: 
    secs: 1611878363
    nsecs: 224095572
  frame_id: ''
s: 8.64812588234
n: 0.00995603185979
alpha: 6.27477922773
v: 0.00844831341682
---
header: 
  seq: 48
  stamp: 
    secs: 1611878363
    nsecs: 234104446
  frame_id: ''
s: 8.64807553524
n: 0.00996406857084
alpha: 6.27477963868
v: 0.00674827377058
---
header: 
  seq: 49
  stamp: 
    secs: 1611878363
    nsecs: 244103051
  frame_id: ''
s: 8.6480233188
n: 0.00997240367501
alpha: 6.27478007427
v: 0.00523781733334
---
header: 
  seq: 50
  stamp: 
    secs: 1611878363
    nsecs: 254094524
  frame_id: ''
s: 8.64797110465
n: 0.00998073841593
alpha: 6.27478050077
v: 0.00391694002715
---
header: 
  seq: 51
  stamp: 
    secs: 1611878363
    nsecs: 264095378
  frame_id: ''
s: 8.64792034844
n: 0.00998884043085
alpha: 6.27478089565
v: 0.00278035189255
---
header: 
  seq: 52
  stamp: 
    secs: 1611878363
    nsecs: 274096034
  frame_id: ''
s: 8.64787214172
n: 0.00999653547983
alpha: 6.27478124535
v: 0.0018187988587
---
header: 
  seq: 53
  stamp: 
    secs: 1611878363
    nsecs: 284095147
  frame_id: ''
s: 8.6478272624
n: 0.0100036993913
alpha: 6.27478154328
v: 0.00102020153474
---
header: 
  seq: 54
  stamp: 
    secs: 1611878363
    nsecs: 294108641
  frame_id: ''
s: 8.64778622268
n: 0.0100102504004
alpha: 6.27478178803
v: 0.000370619873683
---
header: 
  seq: 55
  stamp: 
    secs: 1611878363
    nsecs: 304097150
  frame_id: ''
s: 8.64774931389
n: 0.0100161420063
alpha: 6.27478198179
v: 0.00014494455342
---
header: 
  seq: 56
  stamp: 
    secs: 1611878363
    nsecs: 314097507
  frame_id: ''
s: 8.64771664738
n: 0.0100213564331
alpha: 6.27478212909
v: 0.00054189500536
---
header: 
  seq: 57
  stamp: 
    secs: 1611878363
    nsecs: 324092788
  frame_id: ''
s: 8.64768819145
n: 0.010025898742
alpha: 6.27478223582
v: 0.000835519949826
---
header: 
  seq: 58
  stamp: 
    secs: 1611878363
    nsecs: 334097638
  frame_id: ''
s: 8.647663804
n: 0.010029791615
alpha: 6.27478230841
v: 0.00104059212167
---
header: 
  seq: 59
  stamp: 
    secs: 1611878363
    nsecs: 344105343
  frame_id: ''
s: 8.64764326104
n: 0.0100330708064
alpha: 6.2747823533
v: 0.00117107107803
---
header: 
  seq: 60
  stamp: 
    secs: 1611878363
    nsecs: 354101274
  frame_id: ''
s: 8.64762628115
n: 0.0100357812402
alpha: 6.27478237656
v: 0.00123989454869
---
header: 
  seq: 61
  stamp: 
    secs: 1611878363
    nsecs: 364095942
  frame_id: ''
s: 8.64761254605
n: 0.0100379737194
alpha: 6.27478238362
v: 0.0012588446666
---
header: 
  seq: 62
  stamp: 
    secs: 1611878363
    nsecs: 374097425
  frame_id: ''
s: 8.64765561335
n: 0.00973224034714
alpha: 6.32686930186
v: 0.00370384746599
---
header: 
  seq: 63
  stamp: 
    secs: 1611878363
    nsecs: 384091366
  frame_id: ''
s: 8.64764063132
n: 0.00977187580072
alpha: 6.31717705866
v: 0.00278691425926
---
header: 
  seq: 64
  stamp: 
    secs: 1611878363
    nsecs: 394091018
  frame_id: ''
s: 8.6476280499
n: 0.00981014749159
alpha: 6.30801601091
v: 0.002026342798
---
header: 
  seq: 65
  stamp: 
    secs: 1611878363
    nsecs: 404100130
  frame_id: ''
s: 8.64761768649
n: 0.00984629114034
alpha: 6.29976439405
v: 0.00142646202971
---
header: 
  seq: 66
  stamp: 
    secs: 1611878363
    nsecs: 414094312
  frame_id: ''
s: 8.64760933722
n: 0.00987977166079
alpha: 6.29262697078
v: 0.00100362157272
---
header: 
  seq: 67
  stamp: 
    secs: 1611878363
    nsecs: 424091738
  frame_id: ''
s: 8.64760278732
n: 0.00991024714915
alpha: 6.28667754449
v: 0.00078588156032
---
header: 
  seq: 68
  stamp: 
    secs: 1611878363
    nsecs: 434094533
  frame_id: ''
s: 8.64759781961
n: 0.0099375354885
alpha: 6.28189586626
v: 0.000760665018469
---
header: 
  seq: 69
  stamp: 
    secs: 1611878363
    nsecs: 444095300
  frame_id: ''
s: 8.64759422101
n: 0.00996158391842
alpha: 6.27819850472
v: 0.000835673137807
---
header: 
  seq: 70
  stamp: 
    secs: 1611878363
    nsecs: 454102786
  frame_id: ''
s: 8.64759178763
n: 0.00998244175982
alpha: 6.27546374385
v: 0.000926191446396
---
header: 
  seq: 71
  stamp: 
    secs: 1611878363
    nsecs: 464102522
  frame_id: ''
s: 8.64759032839
n: 0.010000236354
alpha: 6.27355090904
v: 0.000995515320369
---
header: 
  seq: 72
  stamp: 
    secs: 1611878363
    nsecs: 474099776
  frame_id: ''
s: 8.64758966751
n: 0.0100151521732
alpha: 6.27231472716
v: 0.00103361403204
---
header: 
  seq: 73
  stamp: 
    secs: 1611878363
    nsecs: 484098034
  frame_id: ''
s: 8.64758964599
n: 0.0100274129797
alpha: 6.27161543166
v: 0.00104081606419
---
header: 
  seq: 74
  stamp: 
    secs: 1611878363
    nsecs: 494097373
  frame_id: ''
s: 8.64759012237
n: 0.0100372668539
alpha: 6.27132535242
v: 0.00102115403078
---
header: 
  seq: 75
  stamp: 
    secs: 1611878363
    nsecs: 504090124
  frame_id: ''
s: 8.64759097269
n: 0.0100449738722
alpha: 6.27133270655
v: 0.000979781842334
---
header: 
  seq: 76
  stamp: 
    secs: 1611878363
    nsecs: 514092279
  frame_id: ''
s: 8.64759209016
n: 0.0100507961873
alpha: 6.2715432472
v: 0.000921916346412
---
header: 
  seq: 77
  stamp: 
    secs: 1611878363
    nsecs: 524128227
  frame_id: ''
s: 8.64759338423
n: 0.0100549902562
alpha: 6.27188034753
v: 0.000852385436811
---
header: 
  seq: 78
  stamp: 
    secs: 1611878363
    nsecs: 534102769
  frame_id: ''
s: 8.64759477957
n: 0.0100578009535
alpha: 6.27228400854
v: 0.00077544088828
---
header: 
  seq: 79
  stamp: 
    secs: 1611878363
    nsecs: 544095884
  frame_id: ''
s: 8.64759621477
n: 0.010059457316
alpha: 6.27270918918
v: 0.000694697240139
---
header: 
  seq: 80
  stamp: 
    secs: 1611878363
    nsecs: 554099030
  frame_id: ''
s: 8.64759764094
n: 0.0100601696753
alpha: 6.27312377206
v: 0.000613134841579
---
header: 
  seq: 81
  stamp: 
    secs: 1611878363
    nsecs: 564090747
  frame_id: ''
s: 8.6475990203
n: 0.0100601279482
alpha: 6.2735064008
v: 0.000533136787484
---
header: 
  seq: 82
  stamp: 
    secs: 1611878363
    nsecs: 574097181
  frame_id: ''
s: 8.64760032481
n: 0.0100595008771
alpha: 6.27384435835
v: 0.000456543683087
---
header: 
  seq: 83
  stamp: 
    secs: 1611878363
    nsecs: 584099511
  frame_id: ''
s: 8.6476015347
n: 0.0100584360299
alpha: 6.27413159984
v: 0.000384717180662
---
header: 
  seq: 84
  stamp: 
    secs: 1611878363
    nsecs: 594099298
  frame_id: ''
s: 8.64760263726
n: 0.0100570603894
alpha: 6.27436700836
v: 0.000318607091382
---
header: 
  seq: 85
  stamp: 
    secs: 1611878363
    nsecs: 604091249
  frame_id: ''
s: 8.64760362561
n: 0.0100554813871
alpha: 6.2745529072
v: 0.000258819395718
---
header: 
  seq: 86
  stamp: 
    secs: 1611878363
    nsecs: 614094178
  frame_id: ''
s: 8.64760449754
n: 0.0100537882518
alpha: 6.27469383647
v: 0.000205684697789
---
header: 
  seq: 87
  stamp: 
    secs: 1611878363
    nsecs: 624090477
  frame_id: ''
s: 8.64760525463
n: 0.0100520535661
alpha: 6.2747955834
v: 0.00015932968125
---
header: 
  seq: 88
  stamp: 
    secs: 1611878363
    nsecs: 634101948
  frame_id: ''
s: 8.64760590127
n: 0.0100503349416
alpha: 6.27486444429
v: 0.000119760034402
---
header: 
  seq: 89
  stamp: 
    secs: 1611878363
    nsecs: 644096766
  frame_id: ''
s: 8.64760644397
n: 0.010048676739
alpha: 6.27490668879
v: 8.69770990092e-05
---
header: 
  seq: 90
  stamp: 
    secs: 1611878363
    nsecs: 654098595
  frame_id: ''
s: 8.64760689071
n: 0.0100471117757
alpha: 6.27492819484
v: 6.11797191219e-05
---
header: 
  seq: 91
  stamp: 
    secs: 1611878363
    nsecs: 664091648
  frame_id: ''
s: 8.64760725034
n: 0.0100456629761
alpha: 6.27493422199
v: 4.30997694538e-05
---
header: 
  seq: 92
  stamp: 
    secs: 1611878363
    nsecs: 674096530
  frame_id: ''
s: 8.64760753219
n: 0.0100443449303
alpha: 6.27492929312
v: 3.39501082561e-05
---
header: 
  seq: 93
  stamp: 
    secs: 1611878363
    nsecs: 684092612
  frame_id: ''
s: 8.64760774569
n: 0.0100431653396
alpha: 6.27491715735
v: 3.30701948412e-05
---
header: 
  seq: 94
  stamp: 
    secs: 1611878363
    nsecs: 694104795
  frame_id: ''
s: 8.64760790008
n: 0.0100421263326
alpha: 6.27490081067
v: 3.63921814575e-05
---
header: 
  seq: 95
  stamp: 
    secs: 1611878363
    nsecs: 704102132
  frame_id: ''
s: 8.64760800418
n: 0.0100412256441
alpha: 6.27488255503
v: 4.0306177087e-05
---
header: 
  seq: 96
  stamp: 
    secs: 1611878363
    nsecs: 714098600
  frame_id: ''
s: 8.64760806626
n: 0.0100404576549
alpha: 6.27486408011
v: 4.32737018038e-05
---
header: 
  seq: 97
  stamp: 
    secs: 1611878363
    nsecs: 724093843
  frame_id: ''
s: 8.64760809394
n: 0.0100398142936
alpha: 6.27484655569
v: 4.48820340458e-05
---
header: 
  seq: 98
  stamp: 
    secs: 1611878363
    nsecs: 734096944
  frame_id: ''
s: 8.64760809408
n: 0.010039285807
alpha: 6.27483072603
v: 4.51536973583e-05
---
header: 
  seq: 99
  stamp: 
    secs: 1611878363
    nsecs: 744093474
  frame_id: ''
s: 8.64760807281
n: 0.0100388614053
alpha: 6.27481699966
v: 4.42664698132e-05
---
header: 
  seq: 100
  stamp: 
    secs: 1611878363
    nsecs: 754096292
  frame_id: ''
s: 8.64760803547
n: 0.0100385297942
alpha: 6.27480553096
v: 4.24445958585e-05
---
header: 
  seq: 101
  stamp: 
    secs: 1611878363
    nsecs: 764098186
  frame_id: ''
s: 8.64760798667
n: 0.010038279601
alpha: 6.27479629114
v: 3.99141248921e-05
---
header: 
  seq: 102
  stamp: 
    secs: 1611878363
    nsecs: 774100588
  frame_id: ''
s: 8.64760793033
n: 0.01003809971
alpha: 6.27478912767
v: 3.68838330674e-05
---
header: 
  seq: 103
  stamp: 
    secs: 1611878363
    nsecs: 784092806
  frame_id: ''
s: 8.64760786968
n: 0.010037979515
alpha: 6.27478381246
v: 3.35373458744e-05
---
header: 
  seq: 104
  stamp: 
    secs: 1611878363
    nsecs: 794096074
  frame_id: ''
s: 8.64760780739
n: 0.0100379091021
alpha: 6.27478007923
v: 3.00306074625e-05
---
header: 
  seq: 105
  stamp: 
    secs: 1611878363
    nsecs: 804095159
  frame_id: ''
s: 8.64760774555
n: 0.0100378793719
alpha: 6.27477765144
v: 2.64920762318e-05
---
header: 
  seq: 106
  stamp: 
    secs: 1611878363
    nsecs: 814098160
  frame_id: ''
s: 8.64760768578
n: 0.0100378821128
alpha: 6.274776262
v: 2.30243612977e-05
---
header: 
  seq: 107
  stamp: 
    secs: 1611878363
    nsecs: 824098973
  frame_id: ''
s: 8.64760762929
n: 0.0100379100323
alpha: 6.2747756662
v: 1.97066161941e-05
---
header: 
  seq: 108
  stamp: 
    secs: 1611878363
    nsecs: 834099522
  frame_id: ''
s: 8.64760757694
n: 0.0100379567565
alpha: 6.27477564921
v: 1.65973037771e-05
---
header: 
  seq: 109
  stamp: 
    secs: 1611878363
    nsecs: 844094915
  frame_id: ''
s: 8.64760752925
n: 0.0100380168033
alpha: 6.27477602951
v: 1.3737110979e-05
---
header: 
  seq: 110
  stamp: 
    secs: 1611878363
    nsecs: 854096128
  frame_id: ''
s: 8.64760748653
n: 0.0100380855375
alpha: 6.27477665913
v: 1.11519003672e-05
---
header: 
  seq: 111
  stamp: 
    secs: 1611878363
    nsecs: 864091816
  frame_id: ''
s: 8.64760744885
n: 0.0100381591117
alpha: 6.27477742192
v: 8.85568215511e-06
---
header: 
  seq: 112
  stamp: 
    secs: 1611878363
    nsecs: 874103469
  frame_id: ''
s: 8.64760741616
n: 0.0100382343982
alpha: 6.27477823045
v: 6.85372324829e-06
---
header: 
  seq: 113
  stamp: 
    secs: 1611878363
    nsecs: 884102264
  frame_id: ''
s: 8.64760738825
n: 0.0100383089171
alpha: 6.27477902212
v: 5.14617306746e-06
---
header: 
  seq: 114
  stamp: 
    secs: 1611878363
    nsecs: 894100084
  frame_id: ''
s: 8.64760736484
n: 0.0100383807606
alpha: 6.27477975507
v: 3.7332010044e-06
---
header: 
  seq: 115
  stamp: 
    secs: 1611878363
    nsecs: 904091375
  frame_id: ''
s: 8.64760734558
n: 0.0100384485197
alpha: 6.27478040418
v: 2.62392879371e-06
---
header: 
  seq: 116
  stamp: 
    secs: 1611878363
    nsecs: 914096010
  frame_id: ''
s: 8.64760733009
n: 0.0100385112123
alpha: 6.2747809572
v: 1.8510951023e-06
---
header: 
  seq: 117
  stamp: 
    secs: 1611878363
    nsecs: 924089272
  frame_id: ''
s: 8.64760731796
n: 0.010038568216
alpha: 6.2747814115
v: 1.46700971448e-06
---
header: 
  seq: 118
  stamp: 
    secs: 1611878363
    nsecs: 934095632
  frame_id: ''
s: 8.64760730879
n: 0.0100386192052
alpha: 6.27478177115
v: 1.43791900635e-06
---
header: 
  seq: 119
  stamp: 
    secs: 1611878363
    nsecs: 944097693
  frame_id: ''
s: 8.64760730217
n: 0.0100386640945
alpha: 6.27478204457
v: 1.58481703748e-06
---
header: 
  seq: 120
  stamp: 
    secs: 1611878363
    nsecs: 954101951
  frame_id: ''
s: 8.64760729771
n: 0.0100387029876
alpha: 6.27478224267
v: 1.75399061572e-06
---
header: 
  seq: 121
  stamp: 
    secs: 1611878363
    nsecs: 964090185
  frame_id: ''
s: 8.64760729507
n: 0.0100387361323
alpha: 6.27478237741
v: 1.88098040189e-06
---
header: 
  seq: 122
  stamp: 
    secs: 1611878363
    nsecs: 974099407
  frame_id: ''
s: 8.64760729391
n: 0.0100387638817
alpha: 6.27478246074
v: 1.9488250134e-06
---
header: 
  seq: 123
  stamp: 
    secs: 1611878363
    nsecs: 984093110
  frame_id: ''
s: 8.64760729394
n: 0.010038786661
alpha: 6.27478250391
v: 1.95884892411e-06
---
header: 
  seq: 124
  stamp: 
    secs: 1611878363
    nsecs: 994097302
  frame_id: ''
s: 8.64760729489
n: 0.0100388049392
alpha: 6.27478251702
v: 1.91888298587e-06
---
header: 
  seq: 125
  stamp: 
    secs: 1611878364
    nsecs:   4099457
  frame_id: ''
s: 8.64760729653
n: 0.010038819207
alpha: 6.27478250876
v: 1.83868200981e-06
---
header: 
  seq: 126
  stamp: 
    secs: 1611878364
    nsecs:  14096227
  frame_id: ''
s: 8.64760729866
n: 0.0100388299576
alpha: 6.27478248637
v: 1.72804002546e-06
---
header: 
  seq: 127
  stamp: 
    secs: 1611878364
    nsecs:  24092310
  frame_id: ''
s: 8.64760730111
n: 0.0100388376729
alpha: 6.27478245564
v: 1.59598484811e-06
---
header: 
  seq: 128
  stamp: 
    secs: 1611878364
    nsecs:  34097331
  frame_id: ''
s: 8.64760730375
n: 0.0100388428122
alpha: 6.27478242103
v: 1.45044660418e-06
---
header: 
  seq: 129
  stamp: 
    secs: 1611878364
    nsecs:  44089990
  frame_id: ''
s: 8.64760730645
n: 0.0100388458046
alpha: 6.27478238582
v: 1.29815307048e-06
---
header: 
  seq: 130
  stamp: 
    secs: 1611878364
    nsecs:  54107690
  frame_id: ''
s: 8.64760730914
n: 0.0100388470438
alpha: 6.2747823523
v: 1.14464085876e-06
---
header: 
  seq: 131
  stamp: 
    secs: 1611878364
    nsecs:  64095425
  frame_id: ''
s: 8.64760731172
n: 0.0100388468848
alpha: 6.27478232194
v: 9.94327859439e-07
---
header: 
  seq: 132
  stamp: 
    secs: 1611878364
    nsecs:  74099818
  frame_id: ''
s: 8.64760731417
n: 0.0100388456428
alpha: 6.27478229555
v: 8.50617845246e-07
---
header: 
  seq: 133
  stamp: 
    secs: 1611878364
    nsecs:  84096977
  frame_id: ''
s: 8.64760731644
n: 0.0100388435931
alpha: 6.27478227344
v: 7.1602077975e-07
---
header: 
  seq: 134
  stamp: 
    secs: 1611878364
    nsecs:  94116151
  frame_id: ''
s: 8.6476073185
n: 0.0100388409724
alpha: 6.27478225559
v: 5.92279403673e-07
---
header: 
  seq: 135
  stamp: 
    secs: 1611878364
    nsecs: 104089047
  frame_id: ''
s: 8.64760732035
n: 0.0100388379806
alpha: 6.27478224172
v: 4.80497327678e-07
---
header: 
  seq: 136
  stamp: 
    secs: 1611878364
    nsecs: 114102823
  frame_id: ''
s: 8.64760732197
n: 0.0100388347836
alpha: 6.27478223139
v: 3.81268069905e-07
---
header: 
  seq: 137
  stamp: 
    secs: 1611878364
    nsecs: 124096097
  frame_id: ''
s: 8.64760732339
n: 0.0100388315162
alpha: 6.2747822241
v: 2.94810345628e-07
---
header: 
  seq: 138
  stamp: 
    secs: 1611878364
    nsecs: 134097672
  frame_id: ''
s: 8.64760732459
n: 0.0100388282852
alpha: 6.27478221934
v: 2.21126636094e-07
---
header: 
  seq: 139
  stamp: 
    secs: 1611878364
    nsecs: 144093958
  frame_id: ''
s: 8.6476073256
n: 0.0100388251726
alpha: 6.27478221658
v: 1.60229505798e-07
---
header: 
  seq: 140
  stamp: 
    secs: 1611878364
    nsecs: 154094898
  frame_id: ''
s: 8.64760732643
n: 0.0100388222388
alpha: 6.27478221536
v: 1.12536886364e-07
---
header: 
  seq: 141
  stamp: 
    secs: 1611878364
    nsecs: 164128100
  frame_id: ''
s: 8.6476073271
n: 0.010038819526
alpha: 6.27478221527
v: 7.9512222927e-08
---
header: 
  seq: 142
  stamp: 
    secs: 1611878364
    nsecs: 174128956
  frame_id: ''
s: 8.64760732762
n: 0.0100388170607
alpha: 6.27478221595
v: 6.34063476511e-08
---
header: 
  seq: 143
  stamp: 
    secs: 1611878364
    nsecs: 184094000
  frame_id: ''
s: 8.64760732801
n: 0.0100388148567
alpha: 6.27478221713
v: 6.25293598909e-08
---
header: 
  seq: 144
  stamp: 
    secs: 1611878364
    nsecs: 194097430
  frame_id: ''
s: 8.6476073283
n: 0.0100388129173
alpha: 6.27478221857
v: 6.90158187934e-08
---
header: 
  seq: 145
  stamp: 
    secs: 1611878364
    nsecs: 204097128
  frame_id: ''
s: 8.64760732849
n: 0.0100388112379
alpha: 6.27478222011
v: 7.63251406304e-08
---
header: 
  seq: 146
  stamp: 
    secs: 1611878364
    nsecs: 214097053
  frame_id: ''
s: 8.6476073286
n: 0.0100388098075
alpha: 6.27478222162
v: 8.17577026459e-08
---
header: 
  seq: 147
  stamp: 
    secs: 1611878364
    nsecs: 224096569
  frame_id: ''
s: 8.64760732865
n: 0.0100388086106
alpha: 6.27478222302
v: 8.46173509412e-08
---
header: 
  seq: 148
  stamp: 
    secs: 1611878364
    nsecs: 234098701
  frame_id: ''
s: 8.64760732865
n: 0.0100388076288
alpha: 6.27478222427
v: 8.49761269006e-08
---
header: 
  seq: 149
  stamp: 
    secs: 1611878364
    nsecs: 244093835
  frame_id: ''
s: 8.6476073286
n: 0.0100388068416
alpha: 6.27478222533
v: 8.31786984613e-08
---
header: 
  seq: 150
  stamp: 
    secs: 1611878364
    nsecs: 254096107
  frame_id: ''
s: 8.64760732853
n: 0.0100388062277
alpha: 6.27478222621
v: 7.96493249323e-08
---
header: 
  seq: 151
  stamp: 
    secs: 1611878364
    nsecs: 264093466
  frame_id: ''
s: 8.64760732844
n: 0.0100388057658
alpha: 6.2747822269
v: 7.48123162146e-08
---
header: 
  seq: 152
  stamp: 
    secs: 1611878364
    nsecs: 274102595
  frame_id: ''
s: 8.64760732833
n: 0.010038805435
alpha: 6.27478222743
v: 6.90580305495e-08
---
header: 
  seq: 153
  stamp: 
    secs: 1611878364
    nsecs: 284100267
  frame_id: ''
s: 8.64760732822
n: 0.0100388052152
alpha: 6.27478222782
v: 6.27289294583e-08
---
header: 
  seq: 154
  stamp: 
    secs: 1611878364
    nsecs: 294098590
  frame_id: ''
s: 8.6476073281
n: 0.0100388050881
alpha: 6.27478222808
v: 5.6115255053e-08
---
header: 
  seq: 155
  stamp: 
    secs: 1611878364
    nsecs: 304097498
  frame_id: ''
s: 8.64760732798
n: 0.0100388050365
alpha: 6.27478222825
v: 4.94556300379e-08
---
header: 
  seq: 156
  stamp: 
    secs: 1611878364
    nsecs: 314094851
  frame_id: ''
s: 8.64760732787
n: 0.0100388050451
alpha: 6.27478222833
v: 4.29402621571e-08
---
header: 
  seq: 157
  stamp: 
    secs: 1611878364
    nsecs: 324095343
  frame_id: ''
s: 8.64760732777
n: 0.0100388051003
alpha: 6.27478222836
v: 3.671551438e-08
---
header: 
  seq: 158
  stamp: 
    secs: 1611878364
    nsecs: 334104546
  frame_id: ''
s: 8.64760732767
n: 0.0100388051902
alpha: 6.27478222835
v: 3.08891393759e-08
---
header: 
  seq: 159
  stamp: 
    secs: 1611878364
    nsecs: 344098471
  frame_id: ''
s: 8.64760732758
n: 0.0100388053046
alpha: 6.27478222831
v: 2.55357768876e-08
---
header: 
  seq: 160
  stamp: 
    secs: 1611878364
    nsecs: 354097267
  frame_id: ''
s: 8.6476073275
n: 0.0100388054348
alpha: 6.27478222825
v: 2.07025127139e-08
---
header: 
  seq: 161
  stamp: 
    secs: 1611878364
    nsecs: 364094655
  frame_id: ''
s: 8.64760732743
n: 0.0100388055737
alpha: 6.27478222818
v: 1.64144814234e-08
---
header: 
  seq: 162
  stamp: 
    secs: 1611878364
    nsecs: 374090729
  frame_id: ''
s: 8.64760732737
n: 0.0100388057155
alpha: 6.27478222812
v: 1.26807541461e-08
---
header: 
  seq: 163
  stamp: 
    secs: 1611878364
    nsecs: 384096821
  frame_id: ''
s: 8.64760732731
n: 0.0100388058556
alpha: 6.27478222805
v: 9.50127474436e-09
---
header: 
  seq: 164
  stamp: 
    secs: 1611878364
    nsecs: 394098186
  frame_id: ''
s: 8.64760732729
n: 0.0100388057637
alpha: 6.27478222808
v: 9.50127474436e-09
---
header: 
  seq: 165
  stamp: 
    secs: 1611878364
    nsecs: 404096699
  frame_id: ''
s: 8.64767394809
n: 0.00971971960602
alpha: 6.32545489548
v: 0.00350429098696
---
header: 
  seq: 166
  stamp: 
    secs: 1611878364
    nsecs: 414095883
  frame_id: ''
s: 8.6476647135
n: 0.0097639494694
alpha: 6.31450508377
v: 0.00249748386419
---
header: 
  seq: 167
  stamp: 
    secs: 1611878364
    nsecs: 424096507
  frame_id: ''
s: 8.64765593067
n: 0.00980601561589
alpha: 6.3046422807
v: 0.00164476577997
---
header: 
  seq: 168
  stamp: 
    secs: 1611878364
    nsecs: 434095562
  frame_id: ''
s: 8.64764774414
n: 0.00984522571827
alpha: 6.29611122873
v: 0.000935674991926
---
header: 
  seq: 169
  stamp: 
    secs: 1611878364
    nsecs: 444099446
  frame_id: ''
s: 8.64764024972
n: 0.0098811209545
alpha: 6.28900014064
v: 0.000358069085021
---
header: 
  seq: 170
  stamp: 
    secs: 1611878364
    nsecs: 454098052
  frame_id: ''
s: 8.6476335026
n: 0.00991343691235
alpha: 6.28328481275
v: 0.000101162902026
---
header: 
  seq: 171
  stamp: 
    secs: 1611878364
    nsecs: 464088947
  frame_id: ''
s: 8.64762752489
n: 0.00994206776021
alpha: 6.27886552238
v: 0.000455519592999
---
header: 
  seq: 172
  stamp: 
    secs: 1611878364
    nsecs: 474090173
  frame_id: ''
s: 8.6476223123
n: 0.00996703395766
alpha: 6.27559678708
v: 0.000718424667698
---
header: 
  seq: 173
  stamp: 
    secs: 1611878364
    nsecs: 484088938
  frame_id: ''
s: 8.64761784018
n: 0.00998845361943
alpha: 6.27331046415
v: 0.000902869149171
---
header: 
  seq: 174
  stamp: 
    secs: 1611878364
    nsecs: 494123964
  frame_id: ''
s: 8.64761406869
n: 0.0100065175198
alpha: 6.27183291467
v: 0.00102114525094
---
header: 
  seq: 175
  stamp: 
    secs: 1611878364
    nsecs: 504093871
  frame_id: ''
s: 8.64761094733
n: 0.0100214676249
alpha: 6.27099708158
v: 0.00108465885944
---
header: 
  seq: 176
  stamp: 
    secs: 1611878364
    nsecs: 514092548
  frame_id: ''
s: 8.64760841865
n: 0.010033578969
alpha: 6.27065036623
v: 0.00110380840647
---
header: 
  seq: 177
  stamp: 
    secs: 1611878364
    nsecs: 524093738
  frame_id: ''
s: 8.64760642148
n: 0.0100431446348
alpha: 6.2706591594
v: 0.00108791875595
---
header: 
  seq: 178
  stamp: 
    secs: 1611878364
    nsecs: 534098977
  frame_id: ''
s: 8.6476048934
n: 0.0100504635696
alpha: 6.27091081194
v: 0.00104521972316
---
header: 
  seq: 179
  stamp: 
    secs: 1611878364
    nsecs: 544098231
  frame_id: ''
s: 8.64760377277
n: 0.0100558309442
alpha: 6.27131373518
v: 0.000982859906957
---
header: 
  seq: 180
  stamp: 
    secs: 1611878364
    nsecs: 554102586
  frame_id: ''
s: 8.64760300031
n: 0.0100595307606
alpha: 6.27179621498
v: 0.000906947601623
---
header: 
  seq: 181
  stamp: 
    secs: 1611878364
    nsecs: 564092170
  frame_id: ''
s: 8.64760252017
n: 0.0100618304138
alpha: 6.27230441585
v: 0.000822611629647
---
header: 
  seq: 182
  stamp: 
    secs: 1611878364
    nsecs: 574099127
  frame_id: ''
s: 8.6476022808
n: 0.0100629769244
alpha: 6.27279994932
v: 0.000734075971804
---
header: 
  seq: 183
  stamp: 
    secs: 1611878364
    nsecs: 584090922
  frame_id: ''
s: 8.64760223536
n: 0.0100631945781
alpha: 6.27325728911
v: 0.000644743047143
---
header: 
  seq: 184
  stamp: 
    secs: 1611878364
    nsecs: 594090992
  frame_id: ''
s: 8.64760234203
n: 0.0100626837224
alpha: 6.27366123517
v: 0.000557281398038
---
header: 
  seq: 185
  stamp: 
    secs: 1611878364
    nsecs: 604103521
  frame_id: ''
s: 8.64760256401
n: 0.0100616204992
alpha: 6.27400456239
v: 0.00047371435598
---
header: 
  seq: 186
  stamp: 
    secs: 1611878364
    nsecs: 614100753
  frame_id: ''
s: 8.64760286951
n: 0.0100601573116
alpha: 6.27428593581
v: 0.000395506997396
---
header: 
  seq: 187
  stamp: 
    secs: 1611878364
    nsecs: 624093685
  frame_id: ''
s: 8.64760323143
n: 0.0100584238489
alpha: 6.27450813241
v: 0.000323649344425
---
header: 
  seq: 188
  stamp: 
    secs: 1611878364
    nsecs: 634095830
  frame_id: ''
s: 8.64760362715
n: 0.0100565285174
alpha: 6.27467657879
v: 0.000258734324772
---
header: 
  seq: 189
  stamp: 
    secs: 1611878364
    nsecs: 644091620
  frame_id: ''
s: 8.64760403812
n: 0.010054560147
alpha: 6.27479819224
v: 0.000201029481132
---
header: 
  seq: 190
  stamp: 
    secs: 1611878364
    nsecs: 654105146
  frame_id: ''
s: 8.64760444949
n: 0.010052589864
alpha: 6.27488049844
v: 0.000150541819322
---
header: 
  seq: 191
  stamp: 
    secs: 1611878364
    nsecs: 664096468
  frame_id: ''
s: 8.6476048497
n: 0.0100506730418
alpha: 6.27493099125
v: 0.000107075511379
---
header: 
  seq: 192
  stamp: 
    secs: 1611878364
    nsecs: 674093441
  frame_id: ''
s: 8.64760523006
n: 0.0100488512573
alpha: 6.27495669632
v: 7.02824321794e-05
---
header: 
  seq: 193
  stamp: 
    secs: 1611878364
    nsecs: 684091689
  frame_id: ''
s: 8.64760558438
n: 0.0100471541975
alpha: 6.27496390016
v: 3.97057127762e-05
---
header: 
  seq: 194
  stamp: 
    secs: 1611878364
    nsecs: 694091095
  frame_id: ''
s: 8.64760590857
n: 0.0100456014738
alpha: 6.27495800878
v: 1.48166476996e-05
---
header: 
  seq: 195
  stamp: 
    secs: 1611878364
    nsecs: 704094260
  frame_id: ''
s: 8.64760620028
n: 0.0100442043139
alpha: 6.27494350332
v: 4.9545961488e-06
---
header: 
  seq: 196
  stamp: 
    secs: 1611878364
    nsecs: 714107030
  frame_id: ''
s: 8.64760645859
n: 0.010042967112
alpha: 6.27492396477
v: 2.01939479677e-05
---
header: 
  seq: 197
  stamp: 
    secs: 1611878364
    nsecs: 724102896
  frame_id: ''
s: 8.64760668372
n: 0.0100418888249
alpha: 6.27490214456
v: 3.14835153363e-05
---
header: 
  seq: 198
  stamp: 
    secs: 1611878364
    nsecs: 734093082
  frame_id: ''
s: 8.64760687677
n: 0.0100409642092
alpha: 6.27488006224
v: 3.93861993295e-05
---
header: 
  seq: 199
  stamp: 
    secs: 1611878364
    nsecs: 744093967
  frame_id: ''
s: 8.64760703947
n: 0.0100401849011
alpha: 6.27485911606
v: 4.44342642273e-05
---
header: 
  seq: 200
  stamp: 
    secs: 1611878364
    nsecs: 754095889
  frame_id: ''
s: 8.64760717405
n: 0.0100395403431
alpha: 6.27484019554
v: 4.71213017642e-05
---
header: 
  seq: 201
  stamp: 
    secs: 1611878364
    nsecs: 764101514
  frame_id: ''
s: 8.64760728299
n: 0.0100390185656
alpha: 6.274823789
v: 4.78970596661e-05
---
header: 
  seq: 202
  stamp: 
    secs: 1611878364
    nsecs: 774099467
  frame_id: ''
s: 8.64760736895
n: 0.0100386068353
alpha: 6.27481008098
v: 4.7164642176e-05
---
header: 
  seq: 203
  stamp: 
    secs: 1611878364
    nsecs: 784098150
  frame_id: ''
s: 8.64760743465
n: 0.010038292179
alpha: 6.27479903702
v: 4.52796335197e-05
---
header: 
  seq: 204
  stamp: 
    secs: 1611878364
    nsecs: 794094724
  frame_id: ''
s: 8.64760748275
n: 0.0100380617997
alpha: 6.27479047485
v: 4.25507414278e-05
---
header: 
  seq: 205
  stamp: 
    secs: 1611878364
    nsecs: 804093610
  frame_id: ''
s: 8.64760751582
n: 0.0100379033935
alpha: 6.27478412182
v: 3.92416049666e-05
---
header: 
  seq: 206
  stamp: 
    secs: 1611878364
    nsecs: 814089880
  frame_id: ''
s: 8.64760753628
n: 0.0100378053839
alpha: 6.27477965966
v: 3.55734575213e-05
---
header: 
  seq: 207
  stamp: 
    secs: 1611878364
    nsecs: 824096870
  frame_id: ''
s: 8.64760754637
n: 0.0100377570823
alpha: 6.27477675784
v: 3.17283806239e-05
---
header: 
  seq: 208
  stamp: 
    secs: 1611878364
    nsecs: 834096901
  frame_id: ''
s: 8.6476075481
n: 0.0100377487893
alpha: 6.27477509711
v: 2.78529265803e-05
---
header: 
  seq: 209
  stamp: 
    secs: 1611878364
    nsecs: 844094507
  frame_id: ''
s: 8.64760754328
n: 0.0100377718452
alpha: 6.27477438498
v: 2.40619269092e-05
---
header: 
  seq: 210
  stamp: 
    secs: 1611878364
    nsecs: 854096736
  frame_id: ''
s: 8.64760753351
n: 0.0100378186405
alpha: 6.27477436469
v: 2.04423390884e-05
---
header: 
  seq: 211
  stamp: 
    secs: 1611878364
    nsecs: 864090374
  frame_id: ''
s: 8.64760752016
n: 0.0100378825944
alpha: 6.27477481925
v: 1.70570158153e-05
---
header: 
  seq: 212
  stamp: 
    secs: 1611878364
    nsecs: 874094890
  frame_id: ''
s: 8.64760750439
n: 0.0100379581104
alpha: 6.2747755718
v: 1.39483088817e-05
---
header: 
  seq: 213
  stamp: 
    secs: 1611878364
    nsecs: 884094626
  frame_id: ''
s: 8.64760748719
n: 0.0100380405129
alpha: 6.27477648354
v: 1.11414439087e-05
---
header: 
  seq: 214
  stamp: 
    secs: 1611878364
    nsecs: 894109663
  frame_id: ''
s: 8.64760746935
n: 0.0100381259736
alpha: 6.27477744994
v: 8.64762274798e-06
---
header: 
  seq: 215
  stamp: 
    secs: 1611878364
    nsecs: 904100390
  frame_id: ''
s: 8.6476074515
n: 0.0100382114293
alpha: 6.27477839619
v: 6.46682754597e-06
---
header: 
  seq: 216
  stamp: 
    secs: 1611878364
    nsecs: 914096349
  frame_id: ''
s: 8.64760743416
n: 0.010038294498
alpha: 6.27477927226
v: 4.59031456965e-06
---
header: 
  seq: 217
  stamp: 
    secs: 1611878364
    nsecs: 924090973
  frame_id: ''
s: 8.64760741769
n: 0.0100383733935
alpha: 6.2747800481
v: 3.00279718772e-06
---
header: 
  seq: 218
  stamp: 
    secs: 1611878364
    nsecs: 934090801
  frame_id: ''
s: 8.64760740235
n: 0.0100384468429
alpha: 6.27478070911
v: 1.6843262053e-06
---
header: 
  seq: 219
  stamp: 
    secs: 1611878364
    nsecs: 944095758
  frame_id: ''
s: 8.64760738833
n: 0.0100385140081
alpha: 6.27478125211
v: 6.11882368669e-07
---
header: 
  seq: 220
  stamp: 
    secs: 1611878364
    nsecs: 954101886
  frame_id: ''
s: 8.64760737572
n: 0.0100385744124
alpha: 6.27478168198
v: 2.39299409004e-07
---
header: 
  seq: 221
  stamp: 
    secs: 1611878364
    nsecs: 964119070
  frame_id: ''
s: 8.64760736456
n: 0.0100386278737
alpha: 6.27478200879
v: 8.94651412315e-07
---
header: 
  seq: 222
  stamp: 
    secs: 1611878364
    nsecs: 974099694
  frame_id: ''
s: 8.64760735483
n: 0.010038674444
alpha: 6.27478224558
v: 1.37941558402e-06
---
header: 
  seq: 223
  stamp: 
    secs: 1611878364
    nsecs: 984097622
  frame_id: ''
s: 8.6476073465
n: 0.0100387143559
alpha: 6.27478240662
v: 1.71798186235e-06
---
header: 
  seq: 224
  stamp: 
    secs: 1611878364
    nsecs: 994095114
  frame_id: ''
s: 8.64760733948
n: 0.0100387479759
alpha: 6.27478250622
v: 1.93339731938e-06
---
header: 
  seq: 225
  stamp: 
    secs: 1611878365
    nsecs:   4101276
  frame_id: ''
s: 8.64760733368
n: 0.0100387757648
alpha: 6.27478255782
v: 2.047021833e-06
---
header: 
  seq: 226
  stamp: 
    secs: 1611878365
    nsecs:  14100396
  frame_id: ''
s: 8.64760732899
n: 0.0100387982432
alpha: 6.27478257349
v: 2.07830733148e-06
---
header: 
  seq: 227
  stamp: 
    secs: 1611878365
    nsecs:  24091841
  frame_id: ''
s: 8.64760732529
n: 0.0100388159646
alpha: 6.27478256362
v: 2.04467930593e-06
---
header: 
  seq: 228
  stamp: 
    secs: 1611878365
    nsecs:  34098291
  frame_id: ''
s: 8.64760732246
n: 0.0100388294917
alpha: 6.27478253686
v: 1.96150116848e-06
---
header: 
  seq: 229
  stamp: 
    secs: 1611878365
    nsecs:  44095063
  frame_id: ''
s: 8.6476073204
n: 0.0100388393794
alpha: 6.27478250012
v: 1.84210403941e-06
---
header: 
  seq: 230
  stamp: 
    secs: 1611878365
    nsecs:  54095376
  frame_id: ''
s: 8.64760731898
n: 0.0100388461608
alpha: 6.27478245875
v: 1.69786659256e-06
---
header: 
  seq: 231
  stamp: 
    secs: 1611878365
    nsecs:  64102826
  frame_id: ''
s: 8.64760731811
n: 0.010038850337
alpha: 6.27478241667
v: 1.53833160774e-06
---
header: 
  seq: 232
  stamp: 
    secs: 1611878365
    nsecs:  74098124
  frame_id: ''
s: 8.64760731769
n: 0.0100388523706
alpha: 6.27478237661
v: 1.37134782252e-06
---
header: 
  seq: 233
  stamp: 
    secs: 1611878365
    nsecs:  84091773
  frame_id: ''
s: 8.64760731762
n: 0.0100388526808
alpha: 6.27478234032
v: 1.20322750502e-06
---
header: 
  seq: 234
  stamp: 
    secs: 1611878365
    nsecs:  94091674
  frame_id: ''
s: 8.64760731784
n: 0.0100388516422
alpha: 6.27478230878
v: 1.03891185964e-06
---
header: 
  seq: 235
  stamp: 
    secs: 1611878365
    nsecs: 104093866
  frame_id: ''
s: 8.64760731827
n: 0.0100388495833
alpha: 6.27478228235
v: 8.82137912069e-07
---
header: 
  seq: 236
  stamp: 
    secs: 1611878365
    nsecs: 114090769
  frame_id: ''
s: 8.64760731885
n: 0.0100388467883
alpha: 6.27478226102
v: 7.35601890691e-07
---
header: 
  seq: 237
  stamp: 
    secs: 1611878365
    nsecs: 124094772
  frame_id: ''
s: 8.64760731954
n: 0.0100388434989
alpha: 6.27478224443
v: 6.01115326473e-07
---
header: 
  seq: 238
  stamp: 
    secs: 1611878365
    nsecs: 134109413
  frame_id: ''
s: 8.64760732029
n: 0.0100388399165
alpha: 6.27478223209
v: 4.79751136109e-07
---
header: 
  seq: 239
  stamp: 
    secs: 1611878365
    nsecs: 144100761
  frame_id: ''
s: 8.64760732106
n: 0.0100388362062
alpha: 6.27478222338
v: 3.71977840344e-07
---
header: 
  seq: 240
  stamp: 
    secs: 1611878365
    nsecs: 154099094
  frame_id: ''
s: 8.64760732183
n: 0.0100388324999
alpha: 6.27478221768
v: 2.77780811076e-07
---
header: 
  seq: 241
  stamp: 
    secs: 1611878365
    nsecs: 164094048
  frame_id: ''
s: 8.64855665689
n: 0.0100468064045
alpha: 6.27478221439
v: 0.0119140938361
---
header: 
  seq: 242
  stamp: 
    secs: 1611878365
    nsecs: 174096294
  frame_id: ''
s: 8.65033701962
n: 0.0100617638357
alpha: 6.27478221293
v: 0.0327624553261
---
header: 
  seq: 243
  stamp: 
    secs: 1611878365
    nsecs: 184093701
  frame_id: ''
s: 8.65188388392
n: 0.0100747593567
alpha: 6.27478221282
v: 0.0480640380705
---
header: 
  seq: 244
  stamp: 
    secs: 1611878365
    nsecs: 194107126
  frame_id: ''
s: 8.65320599974
n: 0.0100858665315
alpha: 6.27478221364
v: 0.0586247499206
---
header: 
  seq: 245
  stamp: 
    secs: 1611878365
    nsecs: 204094037
  frame_id: ''
s: 8.65431644047
n: 0.0100951952394
alpha: 6.27478221504
v: 0.0652036199069
---
header: 
  seq: 246
  stamp: 
    secs: 1611878365
    nsecs: 214097797
  frame_id: ''
s: 8.65528517317
n: 0.00979541862246
alpha: 6.32686913946
v: 0.069253851325
---
header: 
  seq: 247
  stamp: 
    secs: 1611878365
    nsecs: 224095199
  frame_id: ''
s: 8.65601564511
n: 0.00983992747845
alpha: 6.31717691016
v: 0.0697001722933
---
header: 
  seq: 248
  stamp: 
    secs: 1611878365
    nsecs: 234096408
  frame_id: ''
s: 8.65658756453
n: 0.00988209398225
alpha: 6.30801588076
v: 0.0681132497887
---
header: 
  seq: 249
  stamp: 
    secs: 1611878365
    nsecs: 244098291
  frame_id: ''
s: 8.65796955048
n: 0.00992924021003
alpha: 6.29976428423
v: 0.0768976352802
---
header: 
  seq: 250
  stamp: 
    secs: 1611878365
    nsecs: 254101613
  frame_id: ''
s: 8.66006217945
n: 0.00997994583025
alpha: 6.29262688141
v: 0.0935059634482
---
header: 
  seq: 251
  stamp: 
    secs: 1611878365
    nsecs: 264100375
  frame_id: ''
s: 8.66181896948
n: 0.0100250293773
alpha: 6.28667747445
v: 0.103819891301
---
header: 
  seq: 252
  stamp: 
    secs: 1611878365
    nsecs: 274095975
  frame_id: ''
s: 8.66326555887
n: 0.010064482915
alpha: 6.28189581363
v: 0.108948174455
---
header: 
  seq: 253
  stamp: 
    secs: 1611878365
    nsecs: 284095259
  frame_id: ''
s: 8.66443053944
n: 0.0100984572839
alpha: 6.27819846714
v: 0.109899320355
---
header: 
  seq: 254
  stamp: 
    secs: 1611878365
    nsecs: 294096480
  frame_id: ''
s: 8.6653440028
n: 0.0101272226096
alpha: 6.27546371882
v: 0.107574696034
---
header: 
  seq: 255
  stamp: 
    secs: 1611878365
    nsecs: 304101927
  frame_id: ''
s: 8.6660363678
n: 0.0101511342614
alpha: 6.27355089408
v: 0.102766906232
---
header: 
  seq: 256
  stamp: 
    secs: 1611878365
    nsecs: 314101379
  frame_id: ''
s: 8.66653745953
n: 0.0101706039974
alpha: 6.27231471999
v: 0.0961617551183
---
header: 
  seq: 257
  stamp: 
    secs: 1611878365
    nsecs: 324091280
  frame_id: ''
s: 8.66782514376
n: 0.0101940534553
alpha: 6.27161543026
v: 0.100256403071
---
header: 
  seq: 258
  stamp: 
    secs: 1611878365
    nsecs: 334090767
  frame_id: ''
s: 8.6698078435
n: 0.0102209454006
alpha: 6.27132535504
v: 0.112558795653
---
header: 
  seq: 259
  stamp: 
    secs: 1611878365
    nsecs: 344089995
  frame_id: ''
s: 8.67144561543
n: 0.0102427884766
alpha: 6.27133271177
v: 0.118988198589
---
header: 
  seq: 260
  stamp: 
    secs: 1611878365
    nsecs: 354096786
  frame_id: ''
s: 8.67276943688
n: 0.0102600955091
alpha: 6.27154325389
v: 0.120670422723
---
header: 
  seq: 261
  stamp: 
    secs: 1611878365
    nsecs: 364098482
  frame_id: ''
s: 8.67381215682
n: 0.0102733918634
alpha: 6.27188035483
v: 0.118613497543
---
header: 
  seq: 262
  stamp: 
    secs: 1611878365
    nsecs: 374124149
  frame_id: ''
s: 8.67460716378
n: 0.0102831980066
alpha: 6.27228401582
v: 0.113705725023
---
header: 
  seq: 263
  stamp: 
    secs: 1611878365
    nsecs: 384093058
  frame_id: ''
s: 0.0
n: 0.010297993585
alpha: 6.27270920319
v: 0.118631424929
---
header: 
  seq: 264
  stamp: 
    secs: 1611878365
    nsecs: 394095388
  frame_id: ''
s: 0.0
n: 0.0103172583223
alpha: 6.27312378536
v: 0.13106808658
---
header: 
  seq: 265
  stamp: 
    secs: 1611878365
    nsecs: 404090014
  frame_id: ''
s: 0.0
n: 0.010332485419
alpha: 6.27350641325
v: 0.137085771221
---
header: 
  seq: 266
  stamp: 
    secs: 1611878365
    nsecs: 414103777
  frame_id: ''
s: 0.0
n: 0.0103441474882
alpha: 6.2738443699
v: 0.137943082847
---
header: 
  seq: 267
  stamp: 
    secs: 1611878365
    nsecs: 424096214
  frame_id: ''
s: 0.0
n: 0.0103527115389
alpha: 6.27413161052
v: 0.134762869307
---
header: 
  seq: 268
  stamp: 
    secs: 1611878365
    nsecs: 434097692
  frame_id: ''
s: 0.0
n: 0.010358627197
alpha: 6.27436701823
v: 0.128531061419
---
header: 
  seq: 269
  stamp: 
    secs: 1611878365
    nsecs: 444099939
  frame_id: ''
s: 0.0
n: 0.010362318029
alpha: 6.27455291636
v: 0.12009959814
---
header: 
  seq: 270
  stamp: 
    secs: 1611878365
    nsecs: 454095849
  frame_id: ''
s: 0.0
n: 0.0103801305298
alpha: 6.27469384502
v: 0.134020669591
---
header: 
  seq: 271
  stamp: 
    secs: 1611878365
    nsecs: 464101124
  frame_id: ''
s: 0.0
n: 0.0103944769836
alpha: 6.27479559145
v: 0.1411104811
---
header: 
  seq: 272
  stamp: 
    secs: 1611878365
    nsecs: 474099117
  frame_id: ''
s: 0.0
n: 0.0104057275396
alpha: 6.27486445195
v: 0.142689387007
---
header: 
  seq: 273
  stamp: 
    secs: 1611878365
    nsecs: 484098638
  frame_id: ''
s: 0.0
n: 0.0104142564296
alpha: 6.27490669616
v: 0.139938022385
---
header: 
  seq: 274
  stamp: 
    secs: 1611878365
    nsecs: 494091827
  frame_id: ''
s: 0.0
n: 0.0104363856334
alpha: 6.27492820199
v: 0.157723683989
---
header: 
  seq: 275
  stamp: 
    secs: 1611878365
    nsecs: 504090614
  frame_id: ''
s: 0.0
n: 0.010454522908
alpha: 6.27493422899
v: 0.167158199232
---
header: 
  seq: 276
  stamp: 
    secs: 1611878365
    nsecs: 514091010
  frame_id: ''
s: 0.0
n: 0.0104690495476
alpha: 6.27492930004
v: 0.169834304745
---
header: 
  seq: 277
  stamp: 
    secs: 1611878365
    nsecs: 524102824
  frame_id: ''
s: 0.0
n: 0.0104803628074
alpha: 6.27491716422
v: 0.167179271377
---
header: 
  seq: 278
  stamp: 
    secs: 1611878365
    nsecs: 534098767
  frame_id: ''
s: 0.0
n: 0.0104888612785
alpha: 6.27490081753
v: 0.160451869578
---
header: 
  seq: 279
  stamp: 
    secs: 1611878365
    nsecs: 544096673
  frame_id: ''
s: 0.0
n: 0.0105108884833
alpha: 6.2748825619
v: 0.174572973703
---
header: 
  seq: 280
  stamp: 
    secs: 1611878365
    nsecs: 554097776
  frame_id: ''
s: 0.0
n: 0.0105288709306
alpha: 6.274864087
v: 0.180687388469
---
header: 
  seq: 281
  stamp: 
    secs: 1611878365
    nsecs: 564093680
  frame_id: ''
s: 0.0
n: 0.0105432059722
alpha: 6.27484656262
v: 0.180403898576
---
header: 
  seq: 282
  stamp: 
    secs: 1611878365
    nsecs: 574093378
  frame_id: ''
s: 0.0
n: 0.0105543043784
alpha: 6.274830733
v: 0.175152200893
---
header: 
  seq: 283
  stamp: 
    secs: 1611878365
    nsecs: 584097722
  frame_id: ''
s: 0.0
n: 0.0105785309092
alpha: 6.27481700667
v: 0.190011094743
---
header: 
  seq: 284
  stamp: 
    secs: 1611878365
    nsecs: 594104131
  frame_id: ''
s: 0.0
n: 0.0105983397637
alpha: 6.27480553801
v: 0.196268794675
---
header: 
  seq: 285
  stamp: 
    secs: 1611878365
    nsecs: 604093611
  frame_id: ''
s: 0.0
n: 0.0106141602307
alpha: 6.27479629821
v: 0.195662204761
---
header: 
  seq: 286
  stamp: 
    secs: 1611878365
    nsecs: 614097890
  frame_id: ''
s: 0.0
n: 0.0106264374296
alpha: 6.27478913478
v: 0.189733676355
---
header: 
  seq: 287
  stamp: 
    secs: 1611878365
    nsecs: 624088956
  frame_id: ''
s: 0.0
n: 0.0106435938832
alpha: 6.27478381959
v: 0.191745361336
---
header: 
  seq: 288
  stamp: 
    secs: 1611878365
    nsecs: 634090852
  frame_id: ''
s: 0.0
n: 0.0106650679591
alpha: 6.27478008638
v: 0.199876622455
---
header: 
  seq: 289
  stamp: 
    secs: 1611878365
    nsecs: 644091034
  frame_id: ''
s: 0.0
n: 0.0114788112022
alpha: 6.31953115485
v: 0.199446549477
---
header: 
  seq: 290
  stamp: 
    secs: 1611878365
    nsecs: 654098747
  frame_id: ''
s: 0.0
n: 0.0122096420781
alpha: 6.35595561995
v: 0.195585305376
---
header: 
  seq: 291
  stamp: 
    secs: 1611878365
    nsecs: 664096318
  frame_id: ''
s: 0.0
n: 0.0120373813967
alpha: 6.33975615193
v: 0.209907286665
---
header: 
  seq: 292
  stamp: 
    secs: 1611878365
    nsecs: 674094812
  frame_id: ''
s: 0.0
n: 0.0126641737502
alpha: 6.36954856219
v: 0.214524735777
---
header: 
  seq: 293
  stamp: 
    secs: 1611878365
    nsecs: 684094467
  frame_id: ''
s: 0.0
n: 0.0132185436223
alpha: 6.39275244426
v: 0.213919316927
---
header: 
  seq: 294
  stamp: 
    secs: 1611878365
    nsecs: 694094831
  frame_id: ''
s: 0.0
n: 0.013836380239
alpha: 6.41006340498
v: 0.209212027511
---
header: 
  seq: 295
  stamp: 
    secs: 1611878365
    nsecs: 704099457
  frame_id: ''
s: 0.0
n: 0.0144611910436
alpha: 6.42230873293
v: 0.220014410204
---
header: 
  seq: 296
  stamp: 
    secs: 1611878365
    nsecs: 714102762
  frame_id: ''
s: 0.0
n: 0.0148463698755
alpha: 6.4303565809
v: 0.222284748193
---
header: 
  seq: 297
  stamp: 
    secs: 1611878365
    nsecs: 724095101
  frame_id: ''
s: 0.0319338394495
n: 0.0153234622749
alpha: 6.43505135714
v: 0.221237870717
---
header: 
  seq: 298
  stamp: 
    secs: 1611878365
    nsecs: 734097141
  frame_id: ''
s: 0.0335893712557
n: 0.0154420009082
alpha: 6.43717090848
v: 0.214222634166
---
header: 
  seq: 299
  stamp: 
    secs: 1611878365
    nsecs: 744093684
  frame_id: ''
s: 0.0364184980482
n: 0.0157517826241
alpha: 6.437401173
v: 0.223023608764
---
header: 
  seq: 300
  stamp: 
    secs: 1611878365
    nsecs: 754095191
  frame_id: ''
s: 0.0389539582559
n: 0.0160308973225
alpha: 6.43632430261
v: 0.227026475819
---
header: 
  seq: 301
  stamp: 
    secs: 1611878365
    nsecs: 764099978
  frame_id: ''
s: 0.0409581273977
n: 0.0162432203008
alpha: 6.43441671475
v: 0.22381275271
---
header: 
  seq: 302
  stamp: 
    secs: 1611878365
    nsecs: 774103198
  frame_id: ''
s: 0.0442712297971
n: 0.0172101146724
alpha: 6.38730056155
v: 0.238660696955
---
header: 
  seq: 303
  stamp: 
    secs: 1611878365
    nsecs: 784095100
  frame_id: ''
s: 0.0469550738886
n: 0.0180264448347
alpha: 6.34834126287
v: 0.243656962356
---
header: 
  seq: 304
  stamp: 
    secs: 1611878365
    nsecs: 794096573
  frame_id: ''
s: 0.0490746496354
n: 0.018702904023
alpha: 6.31728720328
v: 0.240806053332
---
header: 
  seq: 305
  stamp: 
    secs: 1611878365
    nsecs: 804095203
  frame_id: ''
s: 0.050696241078
n: 0.0192517099429
alpha: 6.29349516905
v: 0.231909297877
---
header: 
  seq: 306
  stamp: 
    secs: 1611878365
    nsecs: 814094680
  frame_id: ''
s: 0.0537839569082
n: 0.0197018802651
alpha: 6.27609217557
v: 0.241895647733
---
header: 
  seq: 307
  stamp: 
    secs: 1611878365
    nsecs: 824098736
  frame_id: ''
s: 0.0562654793995
n: 0.0200488272047
alpha: 6.264099944
v: 0.24293397316
---
header: 
  seq: 308
  stamp: 
    secs: 1611878365
    nsecs: 834121361
  frame_id: ''
s: 0.0583469959191
n: 0.0193765805885
alpha: 6.30127988782
v: 0.23685795913
---
header: 
  seq: 309
  stamp: 
    secs: 1611878365
    nsecs: 844094278
  frame_id: ''
s: 0.0616943085803
n: 0.0196881884651
alpha: 6.28885494341
v: 0.249290444422
---
header: 
  seq: 310
  stamp: 
    secs: 1611878365
    nsecs: 854095247
  frame_id: ''
s: 0.0643954041535
n: 0.0199297494818
alpha: 6.27951036885
v: 0.252016018167
---
header: 
  seq: 311
  stamp: 
    secs: 1611878365
    nsecs: 864091575
  frame_id: ''
s: 0.0666391477233
n: 0.0193136064189
alpha: 6.31758483485
v: 0.247636363278
---
header: 
  seq: 312
  stamp: 
    secs: 1611878365
    nsecs: 874093524
  frame_id: ''
s: 0.0701372255653
n: 0.0195565211185
alpha: 6.30480091488
v: 0.26056276674
---
header: 
  seq: 313
  stamp: 
    secs: 1611878365
    nsecs: 884094848
  frame_id: ''
s: 0.072958395477
n: 0.0197503287728
alpha: 6.29426059887
v: 0.263350201085
---
header: 
  seq: 314
  stamp: 
    secs: 1611878365
    nsecs: 894097143
  frame_id: ''
s: 0.0752950231637
n: 0.0191040507746
alpha: 6.33063770516
v: 0.259134316751
---
header: 
  seq: 315
  stamp: 
    secs: 1611878365
    nsecs: 904090818
  frame_id: ''
s: 0.0779128592447
n: 0.0193233961252
alpha: 6.3159141352
v: 0.259548928311
---
header: 
  seq: 316
  stamp: 
    secs: 1611878365
    nsecs: 914091665
  frame_id: ''
s: 0.0809010205387
n: 0.0195143523586
alpha: 6.30338385095
v: 0.264545462124
---
header: 
  seq: 317
  stamp: 
    secs: 1611878365
    nsecs: 924092827
  frame_id: ''
s: 0.08326367878
n: 0.0196709264595
alpha: 6.29310159734
v: 0.261055584396
---
header: 
  seq: 318
  stamp: 
    secs: 1611878365
    nsecs: 934095572
  frame_id: ''
s: 0.0850739468257
n: 0.0197963924574
alpha: 6.28497092618
v: 0.251061881385
---
header: 
  seq: 319
  stamp: 
    secs: 1611878365
    nsecs: 944098068
  frame_id: ''
s: 0.08831073944
n: 0.0189607860112
alpha: 6.27879762747
v: 0.259908246507
---
header: 
  seq: 320
  stamp: 
    secs: 1611878365
    nsecs: 954096192
  frame_id: ''
s: 0.0908994051659
n: 0.0182172312988
alpha: 6.27433213304
v: 0.259934412689
---
header: 
  seq: 321
  stamp: 
    secs: 1611878365
    nsecs: 964118856
  frame_id: ''
s: 0.0948104481957
n: 0.0175819635757
alpha: 6.27130184424
v: 0.276713960193
---
header: 
  seq: 322
  stamp: 
    secs: 1611878365
    nsecs: 974097086
  frame_id: ''
s: 0.0979805339474
n: 0.0170346824711
alpha: 6.26943463574
v: 0.282136325766
---
header: 
  seq: 323
  stamp: 
    secs: 1611878365
    nsecs: 984094319
  frame_id: ''
s: 0.100485914389
n: 0.0165710978213
alpha: 6.26847491821
v: 0.278535466979
---
header: 
  seq: 324
  stamp: 
    secs: 1611878365
    nsecs: 994111144
  frame_id: ''
s: 0.102404433882
n: 0.0161855386808
alpha: 6.26819364969
v: 0.267998186373
---
header: 
  seq: 325
  stamp: 
    secs: 1611878366
    nsecs:   4103357
  frame_id: ''
s: 0.105711671059
n: 0.0158873733333
alpha: 6.26839360799
v: 0.276037549648
---
header: 
  seq: 326
  stamp: 
    secs: 1611878366
    nsecs:  14103142
  frame_id: ''
s: 0.10834638796
n: 0.0156515431484
alpha: 6.26891110443
v: 0.274592227521
---
header: 
  seq: 327
  stamp: 
    secs: 1611878366
    nsecs:  24098260
  frame_id: ''
s: 0.110384558637
n: 0.0154707725017
alpha: 6.2696151594
v: 0.26581021793
---
header: 
  seq: 328
  stamp: 
    secs: 1611878366
    nsecs:  34096074
  frame_id: ''
s: 0.113800577158
n: 0.0153538220902
alpha: 6.2704049892
v: 0.275281994272
---
header: 
  seq: 329
  stamp: 
    secs: 1611878366
    nsecs:  44094727
  frame_id: ''
s: 0.116532587385
n: 0.0152758181519
alpha: 6.27120648668
v: 0.274987391827
---
header: 
  seq: 330
  stamp: 
    secs: 1611878366
    nsecs:  54105228
  frame_id: ''
s: 0.120555069673
n: 0.0152462361345
alpha: 6.27196822253
v: 0.290856076379
---
header: 
  seq: 331
  stamp: 
    secs: 1611878366
    nsecs:  64099988
  frame_id: ''
s: 0.123808671785
n: 0.0152411876261
alpha: 6.27265735676
v: 0.295114228277
---
header: 
  seq: 332
  stamp: 
    secs: 1611878366
    nsecs:  74094737
  frame_id: ''
s: 0.126373521772
n: 0.0152553614004
alpha: 6.27325573218
v: 0.290211541958
---
header: 
  seq: 333
  stamp: 
    secs: 1611878366
    nsecs:  84098025
  frame_id: ''
s: 0.130229816063
n: 0.015300045459
alpha: 6.27375632524
v: 0.302112750704
---
header: 
  seq: 334
  stamp: 
    secs: 1611878366
    nsecs:  94096136
  frame_id: ''
s: 0.133322621105
n: 0.0153532606748
alpha: 6.27416015299
v: 0.302962709751
---
header: 
  seq: 335
  stamp: 
    secs: 1611878366
    nsecs: 104101877
  frame_id: ''
s: 0.135735351339
n: 0.015411627093
alpha: 6.2744736765
v: 0.295185898827
---
header: 
  seq: 336
  stamp: 
    secs: 1611878366
    nsecs: 114104515
  frame_id: ''
s: 0.138501183896
n: 0.015480349723
alpha: 6.27470669898
v: 0.29282123044
---
header: 
  seq: 337
  stamp: 
    secs: 1611878366
    nsecs: 124096281
  frame_id: ''
s: 0.141583651702
n: 0.0155562116944
alpha: 6.27487072761
v: 0.294734292196
---
header: 
  seq: 338
  stamp: 
    secs: 1611878366
    nsecs: 134097838
  frame_id: ''
s: 0.143996227808
n: 0.0156285344034
alpha: 6.27497775061
v: 0.288009708946
---
header: 
  seq: 339
  stamp: 
    secs: 1611878366
    nsecs: 144093907
  frame_id: ''
s: 0.147719164036
n: 0.0157120424038
alpha: 6.2750393713
v: 0.298577932033
---
header: 
  seq: 340
  stamp: 
    secs: 1611878366
    nsecs: 154097949
  frame_id: ''
s: 0.150697042382
n: 0.0157879683701
alpha: 6.27506623823
v: 0.29847575632
---
header: 
  seq: 341
  stamp: 
    secs: 1611878366
    nsecs: 164100824
  frame_id: ''
s: 0.153012386473
n: 0.0158558797727
alpha: 6.27506771194
v: 0.290075265687
---
header: 
  seq: 342
  stamp: 
    secs: 1611878366
    nsecs: 174100524
  frame_id: ''
s: 0.156646524765
n: 0.0159316187255
alpha: 6.2750517135
v: 0.299281900645
---
header: 
  seq: 343
  stamp: 
    secs: 1611878366
    nsecs: 184092535
  frame_id: ''
s: 0.159552618922
n: 0.0150480473928
alpha: 6.27502470663
v: 0.298352704606
---
header: 
  seq: 344
  stamp: 
    secs: 1611878366
    nsecs: 194095989
  frame_id: ''
s: 0.161804437241
n: 0.0142731887509
alpha: 6.27499177227
v: 0.289608631676
---
header: 
  seq: 345
  stamp: 
    secs: 1611878366
    nsecs: 204094439
  frame_id: ''
s: 0.165383244575
n: 0.0136204485532
alpha: 6.27495674199
v: 0.298652431905
---
header: 
  seq: 346
  stamp: 
    secs: 1611878366
    nsecs: 214107094
  frame_id: ''
s: 0.168233947071
n: 0.0130669399806
alpha: 6.27492236376
v: 0.297420582333
---
header: 
  seq: 347
  stamp: 
    secs: 1611878366
    nsecs: 224098416
  frame_id: ''
s: 0.170438847673
n: 0.0126060475943
alpha: 6.27489048002
v: 0.288206215592
---
header: 
  seq: 348
  stamp: 
    secs: 1611878366
    nsecs: 234100592
  frame_id: ''
s: 0.173978636558
n: 0.0122459981641
alpha: 6.2748622035
v: 0.296689259533
---
header: 
  seq: 349
  stamp: 
    secs: 1611878366
    nsecs: 244093632
  frame_id: ''
s: 0.176797552607
n: 0.0119604701434
alpha: 6.27483808109
v: 0.295012977636
---
header: 
  seq: 350
  stamp: 
    secs: 1611878366
    nsecs: 254090697
  frame_id: ''
s: 0.178977178093
n: 0.0117408657895
alpha: 6.27481823971
v: 0.28548177006
---
header: 
  seq: 351
  stamp: 
    secs: 1611878366
    nsecs: 264089559
  frame_id: ''
s: 0.182497461082
n: 0.0115946145071
alpha: 6.27480251119
v: 0.293797663239
---
header: 
  seq: 352
  stamp: 
    secs: 1611878366
    nsecs: 274095189
  frame_id: ''
s: 0.185301902366
n: 0.0114955412349
alpha: 6.27479053539
v: 0.292089243027
---
header: 
  seq: 353
  stamp: 
    secs: 1611878366
    nsecs: 284100009
  frame_id: ''
s: 0.187471369844
n: 0.0114359247304
alpha: 6.27478184219
v: 0.282625102655
---
header: 
  seq: 354
  stamp: 
    secs: 1611878366
    nsecs: 294098431
  frame_id: ''
s: 0.18908646885
n: 0.0114086592313
alpha: 6.27477591418
v: 0.26738917262
---
header: 
  seq: 355
  stamp: 
    secs: 1611878366
    nsecs: 304096985
  frame_id: ''
s: 0.191174685895
n: 0.0114152933529
alpha: 6.27477223239
v: 0.259963959679
---
header: 
  seq: 356
  stamp: 
    secs: 1611878366
    nsecs: 314092058
  frame_id: ''
s: 0.193691780836
n: 0.01144910979
alpha: 6.27477030772
v: 0.258837229004
---
header: 
  seq: 357
  stamp: 
    secs: 1611878366
    nsecs: 324102617
  frame_id: ''
s: 0.195642050755
n: 0.0114961484275
alpha: 6.27476970066
v: 0.250760629841
---
header: 
  seq: 358
  stamp: 
    secs: 1611878366
    nsecs: 334094824
  frame_id: ''
s: 0.198995736275
n: 0.0115681140967
alpha: 6.27477003179
v: 0.261296404275
---
header: 
  seq: 359
  stamp: 
    secs: 1611878366
    nsecs: 344125139
  frame_id: ''
s: 0.201687037776
n: 0.0116435075777
alpha: 6.27477098549
v: 0.262226575676
---
header: 
  seq: 360
  stamp: 
    secs: 1611878366
    nsecs: 354103121
  frame_id: ''
s: 0.203788098691
n: 0.0117194644999
alpha: 6.27477230859
v: 0.255650512004
---
header: 
  seq: 361
  stamp: 
