header: 
  seq: 1
  stamp: 
    secs: 0
    nsecs:         0
  frame_id: ''
D: 0.199999999909
delta: 2.57248829575e-06
dD: 4.99999999546
ddelta: 0.000128624414424
---
header: 
  seq: 2
  stamp: 
    secs: 0
    nsecs:         0
  frame_id: ''
D: 0.299999999909
delta: 7.81816917355e-06
dD: 5.0
ddelta: 0.00026228404389
---
header: 
  seq: 3
  stamp: 
    secs: 0
    nsecs:         0
  frame_id: ''
D: 0.399999999909
delta: 1.98051514952e-05
dD: 5.0
ddelta: 0.000599349116084
---
header: 
  seq: 4
  stamp: 
    secs: 0
    nsecs:         0
  frame_id: ''
D: 0.499999999908
delta: 3.80566230521e-05
dD: 4.99999999997
ddelta: 0.000912573577843
---
header: 
  seq: 5
  stamp: 
    secs: 0
    nsecs:         0
  frame_id: ''
D: 0.599999999906
delta: 6.14251532948e-05
dD: 4.9999999999
ddelta: 0.00116842651214
---
header: 
  seq: 6
  stamp: 
    secs: 0
    nsecs:         0
  frame_id: ''
D: 0.698223756134
delta: 8.86821513242e-05
dD: 4.9111878114
ddelta: 0.00136284990147
---
header: 
  seq: 7
  stamp: 
    secs: 0
    nsecs:         0
  frame_id: ''
D: 0.76538040483
delta: 0.00011814529089
dD: 3.35783243479
ddelta: 0.00147315697827
---
header: 
  seq: 8
  stamp: 
    secs: 0
    nsecs:         0
  frame_id: ''
D: 0.811343782459
delta: 0.00014715133958
dD: 2.29816888145
ddelta: 0.0014503024345
---
header: 
  seq: 9
  stamp: 
    secs: 0
    nsecs:         0
  frame_id: ''
D: 0.842851171466
delta: 0.000173809609247
dD: 1.57536945034
ddelta: 0.00133291348335
---
header: 
  seq: 10
  stamp: 
    secs: 0
    nsecs:         0
  frame_id: ''
D: 0.864475606538
delta: 0.000197236379474
dD: 1.08122175362
ddelta: 0.00117133851137
---
header: 
  seq: 11
  stamp: 
    secs: 0
    nsecs:         0
  frame_id: ''
D: 0.879330514844
delta: 0.000217192296891
dD: 0.742745415262
ddelta: 0.000997795870841
---
header: 
  seq: 12
  stamp: 
    secs: 0
    nsecs:         0
  frame_id: ''
D: 0.889541737872
delta: 0.000233810350063
dD: 0.510561151336
ddelta: 0.000830902658684
---
header: 
  seq: 13
  stamp: 
    secs: 0
    nsecs:         0
  frame_id: ''
D: 0.896564148652
delta: 0.000247415643984
dD: 0.351120538911
ddelta: 0.000680264696127
---
header: 
  seq: 14
  stamp: 
    secs: 0
    nsecs:         0
  frame_id: ''
D: 0.9013951323
delta: 0.000258408834334
dD: 0.241549182351
ddelta: 0.000549659517594
---
header: 
  seq: 15
  stamp: 
    secs: 0
    nsecs:         0
  frame_id: ''
D: 0.904719303164
delta: 0.000267199595622
dD: 0.166208543148
ddelta: 0.000439538064493
---
header: 
  seq: 16
  stamp: 
    secs: 0
    nsecs:         0
  frame_id: ''
D: 0.907006997016
delta: 0.000274170707168
dD: 0.114384692556
ddelta: 0.000348555577401
---
header: 
  seq: 17
  stamp: 
    secs: 0
    nsecs:         0
  frame_id: ''
D: 0.908581555095
delta: 0.000279661225691
dD: 0.0787279039146
ddelta: 0.000274525926242
---
header: 
  seq: 18
  stamp: 
    secs: 0
    nsecs:         0
  frame_id: ''
D: 0.909665360711
delta: 0.000283961224228
dD: 0.0541902807355
ddelta: 0.000214999926955
---
header: 
  seq: 19
  stamp: 
    secs: 0
    nsecs:         0
  frame_id: ''
D: 0.910411407628
delta: 0.000287312909613
dD: 0.0373023458153
ddelta: 0.000167584269394
---
header: 
  seq: 20
  stamp: 
    secs: 0
    nsecs:         0
  frame_id: ''
D: 0.910924973412
delta: 0.000289914942478
dD: 0.0256782891618
ddelta: 0.000130101643377
---
header: 
  seq: 21
  stamp: 
    secs: 0
    nsecs:         0
  frame_id: ''
D: 0.911278511735
delta: 0.00029192806449
dD: 0.0176769161306
ddelta: 0.000100656100697
---
header: 
  seq: 22
  stamp: 
    secs: 0
    nsecs:         0
  frame_id: ''
D: 0.911521891318
delta: 0.00029348095817
dD: 0.0121689790949
ddelta: 7.76446841421e-05
---
header: 
  seq: 23
  stamp: 
    secs: 0
    nsecs:         0
  frame_id: ''
D: 0.91168943836
delta: 0.000294675765806
dD: 0.00837735208523
ddelta: 5.97403819477e-05
---
header: 
  seq: 24
  stamp: 
    secs: 0
    nsecs:         0
  frame_id: ''
D: 0.91180478178
delta: 0.000295593001506
dD: 0.00576717098439
ddelta: 4.58617850887e-05
---
header: 
  seq: 25
  stamp: 
    secs: 0
    nsecs:         0
  frame_id: ''
D: 0.911884187399
delta: 0.000296295766435
dD: 0.00397028091776
ddelta: 3.51382465861e-05
---
header: 
  seq: 26
  stamp: 
    secs: 0
    nsecs:         0
  frame_id: ''
D: 0.911938852653
delta: 0.00029683327728
dD: 0.00273326265654
ddelta: 2.68755424109e-05
---
header: 
  seq: 27
  stamp: 
    secs: 0
    nsecs:         0
  frame_id: ''
D: 0.911976485969
delta: 0.00029724376339
dD: 0.00188166577027
ddelta: 2.05243056262e-05
---
header: 
  seq: 28
  stamp: 
    secs: 0
    nsecs:         0
  frame_id: ''
D: 0.912002394005
delta: 0.000297556817387
dD: 0.00129540176498
ddelta: 1.56526999645e-05
---
header: 
  seq: 29
  stamp: 
    secs: 0
    nsecs:         0
  frame_id: ''
D: 0.912020229988
delta: 0.000297795276577
dD: 0.000891799095918
ddelta: 1.19229596308e-05
---
header: 
  seq: 30
  stamp: 
    secs: 0
    nsecs:         0
  frame_id: ''
D: 0.912032508903
delta: 0.000297976719207
dD: 0.000613945710427
ddelta: 9.07213160879e-06
---
header: 
  seq: 31
  stamp: 
    secs: 0
    nsecs:         0
  frame_id: ''
D: 0.912040962151
delta: 0.000298114644888
dD: 0.000422662358145
ddelta: 6.89628418406e-06
---
header: 
  seq: 32
  stamp: 
    secs: 0
    nsecs:         0
  frame_id: ''
D: 0.912046781661
delta: 0.000298219399298
dD: 0.000290975490099
ddelta: 5.23772066676e-06
---
header: 
  seq: 33
  stamp: 
    secs: 0
    nsecs:         0
  frame_id: ''
D: 0.91205078803
delta: 0.000298298898591
dD: 0.000200318380904
ddelta: 3.97496477748e-06
---
header: 
  seq: 34
  stamp: 
    secs: 0
    nsecs:         0
  frame_id: ''
D: 0.912053546151
delta: 0.000298359188749
dD: 0.000137906030477
ddelta: 3.01450801476e-06
---
header: 
  seq: 35
  stamp: 
    secs: 0
    nsecs:         0
  frame_id: ''
D: 0.912055444942
delta: 0.000298404882486
dD: 9.49395175876e-05
ddelta: 2.28468698934e-06
---
header: 
  seq: 36
  stamp: 
    secs: 0
    nsecs:         0
  frame_id: ''
D: 0.912056752139
delta: 0.000298439493883
dD: 6.53598187391e-05
ddelta: 1.73056998463e-06
---
header: 
  seq: 37
  stamp: 
    secs: 0
    nsecs:         0
  frame_id: ''
D: 0.912057652069
delta: 0.00029846569753
dD: 4.4996465022e-05
ddelta: 1.31018245988e-06
---
header: 
  seq: 38
  stamp: 
    secs: 0
    nsecs:         0
  frame_id: ''
D: 0.912058271614
delta: 0.00029848552639
dD: 3.09772054161e-05
ddelta: 9.91443112763e-07
---
header: 
  seq: 39
  stamp: 
    secs: 0
    nsecs:         0
  frame_id: ''
D: 0.912058698124
delta: 0.00029850052473
dD: 2.13254624689e-05
ddelta: 7.49917166653e-07
---
header: 
  seq: 40
  stamp: 
    secs: 0
    nsecs:         0
  frame_id: ''
D: 0.912058991757
delta: 0.0002985118654
dD: 1.46816050881e-05
ddelta: 5.67033629936e-07
---
header: 
  seq: 41
  stamp: 
    secs: 0
    nsecs:         0
  frame_id: ''
D: 0.912059193897
delta: 0.000298520437005
dD: 1.01069685324e-05
ddelta: 4.2858034337e-07
---
header: 
  seq: 42
  stamp: 
    secs: 0
    nsecs:         0
  frame_id: ''
D: 0.912059333058
delta: 0.000298526913803
dD: 6.95799883634e-06
ddelta: 3.23840029159e-07
---
header: 
  seq: 43
  stamp: 
    secs: 0
    nsecs:         0
  frame_id: ''
D: 0.912059428861
delta: 0.000298531806354
dD: 4.79014209308e-06
ddelta: 2.44627702715e-07
---
header: 
  seq: 44
  stamp: 
    secs: 0
    nsecs:         0
  frame_id: ''
D: 0.912059494816
delta: 0.000298535501206
dD: 3.2977024898e-06
ddelta: 1.84742731537e-07
---
header: 
  seq: 45
  stamp: 
    secs: 0
    nsecs:         0
  frame_id: ''
D: 0.912059540222
delta: 0.000298538290895
dD: 2.27024856264e-06
ddelta: 1.39484594178e-07
---
header: 
  seq: 46
  stamp: 
    secs: 0
    nsecs:         0
  frame_id: ''
D: 0.912059571481
delta: 0.000298540396716
dD: 1.56291183329e-06
ddelta: 1.05291151738e-07
---
header: 
  seq: 47
  stamp: 
    secs: 0
    nsecs:         0
  frame_id: ''
D: 0.912059593
delta: 0.000298541986006
dD: 1.07596319488e-06
ddelta: 7.94646507939e-08
---
header: 
  seq: 48
  stamp: 
    secs: 0
    nsecs:         0
  frame_id: ''
D: 0.912059607823
delta: 0.000298543185494
dD: 7.41103533716e-07
ddelta: 5.99745206887e-08
---
header: 
  seq: 49
  stamp: 
    secs: 0
    nsecs:         0
  frame_id: ''
D: 0.912059618028
delta: 0.000298544090453
dD: 5.101837508e-07
ddelta: 4.52480614207e-08
---
header: 
  seq: 50
  stamp: 
    secs: 0
    nsecs:         0
  frame_id: ''
D: 0.912059625045
delta: 0.000298544772856
dD: 3.50838894513e-07
ddelta: 3.41203193647e-08
---
header: 
  seq: 51
  stamp: 
    secs: 0
    nsecs:         0
  frame_id: ''
D: 0.912059629876
delta: 0.00029854528755
dD: 2.41522958471e-07
ddelta: 2.5734804489e-08
---
header: 
  seq: 52
  stamp: 
    secs: 0
    nsecs:         0
  frame_id: ''
D: 0.912059633202
delta: 0.000298545675705
dD: 1.66262759725e-07
ddelta: 1.94078947787e-08
---
header: 
  seq: 53
  stamp: 
    secs: 0
    nsecs:         0
  frame_id: ''
D: 0.912059635492
delta: 0.000298545968399
dD: 1.14450777389e-07
ddelta: 1.46348351758e-08
---
header: 
  seq: 54
  stamp: 
    secs: 0
    nsecs:         0
  frame_id: ''
D: 0.912059637068
delta: 0.000298546189087
dD: 7.87813844417e-08
ddelta: 1.10345160582e-08
---
header: 
  seq: 55
  stamp: 
    secs: 0
    nsecs:         0
  frame_id: ''
D: 0.912059638154
delta: 0.000298546355467
dD: 5.42251784915e-08
ddelta: 8.3191466508e-09
---
header: 
  seq: 56
  stamp: 
    secs: 0
    nsecs:         0
  frame_id: ''
D: 0.912059638901
delta: 0.000298546480894
dD: 3.73197153922e-08
ddelta: 6.27145052699e-09
---
header: 
  seq: 57
  stamp: 
    secs: 0
    nsecs:         0
  frame_id: ''
D: 0.912059639415
delta: 0.00029854657544
dD: 2.56813349011e-08
ddelta: 4.72742126237e-09
---
header: 
  seq: 58
  stamp: 
    secs: 0
    nsecs:         0
  frame_id: ''
D: 0.912059639769
delta: 0.000298546646703
dD: 1.76689765501e-08
ddelta: 3.56328796019e-09
---
header: 
  seq: 59
  stamp: 
    secs: 0
    nsecs:         0
  frame_id: ''
D: 0.912059640013
delta: 0.000298546700413
dD: 1.21529738985e-08
ddelta: 2.68565897902e-09
---
header: 
  seq: 60
  stamp: 
    secs: 0
    nsecs:         0
  frame_id: ''
D: 0.912059640181
delta: 0.000298546740892
dD: 8.35550898479e-09
ddelta: 2.02407650415e-09
---
header: 
  seq: 61
  stamp: 
    secs: 0
    nsecs:         0
  frame_id: ''
D: 0.912059640296
delta: 0.000298546771398
dD: 5.74117458392e-09
ddelta: 1.52539336022e-09
---
header: 
  seq: 62
  stamp: 
    secs: 0
    nsecs:         0
  frame_id: ''
D: 0.912059640376
delta: 0.000298546794385
dD: 3.94137603934e-09
ddelta: 1.14952531197e-09
---
header: 
  seq: 63
  stamp: 
    secs: 0
    nsecs:         0
  frame_id: ''
D: 0.912059640431
delta: 0.000298546811708
dD: 2.70230482132e-09
ddelta: 8.66242980382e-10
---
header: 
  seq: 64
  stamp: 
    secs: 0
    nsecs:         0
  frame_id: ''
D: 0.912059640468
delta: 0.00029854682476
dD: 1.84927881558e-09
ddelta: 6.52752354461e-10
---
header: 
  seq: 65
  stamp: 
    secs: 0
    nsecs:         0
  frame_id: ''
D: 0.912059640494
delta: 0.000298546834595
dD: 1.26201545351e-09
ddelta: 4.91867271332e-10
---
header: 
  seq: 66
  stamp: 
    secs: 0
    nsecs:         0
  frame_id: ''
D: 0.912059640512
delta: 0.000298546842005
dD: 8.57717865482e-10
ddelta: 3.70631129289e-10
---
header: 
  seq: 67
  stamp: 
    secs: 0
    nsecs:         0
  frame_id: ''
D: 0.912059640524
delta: 0.000298546847588
dD: 5.79380257746e-10
ddelta: 2.7927665642e-10
---
header: 
  seq: 68
  stamp: 
    secs: 0
    nsecs:         0
  frame_id: ''
D: 0.912059640533
delta: 0.000298546851794
dD: 3.87780946243e-10
ddelta: 2.10441505869e-10
---
header: 
  seq: 69
  stamp: 
    secs: 0
    nsecs:         0
  frame_id: ''
D: 0.912059640539
delta: 0.000298546854963
dD: 2.55845200494e-10
ddelta: 1.58576380868e-10
---
header: 
  seq: 70
  stamp: 
    secs: 0
    nsecs:         0
  frame_id: ''
D: 0.912059640543
delta: 0.00029854685735
dD: 1.65039691982e-10
ddelta: 1.19498934538e-10
---
header: 
  seq: 71
  stamp: 
    secs: 0
    nsecs:         0
  frame_id: ''
D: 0.912059640545
delta: 0.000298546859149
dD: 1.02505725696e-10
ddelta: 9.00571794059e-11
---
header: 
  seq: 72
  stamp: 
    secs: 0
    nsecs:         0
  frame_id: ''
D: 0.912059640547
delta: 0.000298546860504
dD: 5.94397248435e-11
ddelta: 6.78757953705e-11
---
header: 
  seq: 73
  stamp: 
    secs: 0
    nsecs:         0
  frame_id: ''
D: 0.912059640549
delta: 0.000298546861524
dD: 2.98125335182e-11
ddelta: 5.11647257358e-11
---
header: 
  seq: 74
  stamp: 
    secs: 0
    nsecs:         0
  frame_id: ''
D: 0.91205964055
delta: 0.000298546862293
dD: 9.41036614951e-12
ddelta: 3.85751942813e-11
---
header: 
  seq: 75
  stamp: 
    secs: 0
    nsecs:         0
  frame_id: ''
D: 0.91205964055
delta: 0.000298546862873
dD: -4.61462335358e-12
ddelta: 2.90909160639e-11
---
header: 
  seq: 76
  stamp: 
    secs: 0
    nsecs:         0
  frame_id: ''
D: 0.912059640551
delta: 0.000298546863309
dD: -1.43166810872e-11
ddelta: 2.19460871866e-11
---
header: 
  seq: 77
  stamp: 
    secs: 0
    nsecs:         0
  frame_id: ''
D: 0.912059640551
delta: 0.000298546863638
dD: -2.09632181405e-11
ddelta: 1.65637090632e-11
---
header: 
  seq: 78
  stamp: 
    secs: 0
    nsecs:         0
  frame_id: ''
D: 0.912059640551
delta: 0.000298546863885
dD: -2.55286516752e-11
ddelta: 1.25091305044e-11
---
header: 
  seq: 79
  stamp: 
    secs: 0
    nsecs:         0
  frame_id: ''
D: 0.912059640551
delta: 0.000298546864072
dD: -2.87068784542e-11
ddelta: 9.45482274829e-12
---
header: 
  seq: 80
  stamp: 
    secs: 0
    nsecs:         0
  frame_id: ''
D: 0.912059640551
delta: 0.000298546864212
dD: -3.08706159594e-11
ddelta: 7.15406187524e-12
---
header: 
  seq: 81
  stamp: 
    secs: 0
    nsecs:         0
  frame_id: ''
D: 0.912059640551
delta: 0.000298546864318
dD: -3.23594198312e-11
ddelta: 5.42094404847e-12
---
header: 
  seq: 82
  stamp: 
    secs: 0
    nsecs:         0
  frame_id: ''
D: 0.912059640551
delta: 0.000298546864398
dD: -3.33961109635e-11
ddelta: 4.11543336302e-12
---
header: 
  seq: 83
  stamp: 
    secs: 0
    nsecs:         0
  frame_id: ''
D: 0.912059640551
delta: 0.000298546864458
dD: -3.41104423353e-11
ddelta: 3.13204716611e-12
---
header: 
  seq: 84
  stamp: 
    secs: 0
    nsecs:         0
  frame_id: ''
D: 0.912059640552
delta: 0.000298546864503
dD: -3.4594306586e-11
ddelta: 2.39131563401e-12
---
header: 
  seq: 85
  stamp: 
    secs: 0
    nsecs:         0
  frame_id: ''
D: 0.912059640552
delta: 0.000298546864537
dD: -3.49362110422e-11
ddelta: 1.83334532451e-12
---
header: 
  seq: 86
  stamp: 
    secs: 0
    nsecs:         0
  frame_id: ''
D: 0.912059640552
delta: 0.000298546864563
dD: -3.51745173786e-11
ddelta: 1.41306248386e-12
---
header: 
  seq: 87
  stamp: 
    secs: 0
    nsecs:         0
  frame_id: ''
D: 0.912059640552
delta: 0.000298546864582
dD: -3.53229147321e-11
ddelta: 1.09647821421e-12
---
header: 
  seq: 88
  stamp: 
    secs: 0
    nsecs:         0
  frame_id: ''
D: 0.912059640552
delta: 0.000298546864597
dD: -3.54284869671e-11
ddelta: 8.58014817507e-13
---
header: 
  seq: 89
  stamp: 
    secs: 0
    nsecs:         0
  frame_id: ''
D: 0.912059640552
delta: 0.000298546864607
dD: -3.54990303646e-11
ddelta: 6.78416456584e-13
---
header: 
  seq: 90
  stamp: 
    secs: 0
    nsecs:         0
  frame_id: ''
D: 0.912059640552
delta: 0.000298546864616
dD: -3.55497306939e-11
ddelta: 5.43141174939e-13
---
header: 
  seq: 91
  stamp: 
    secs: 0
    nsecs:         0
  frame_id: ''
D: 0.912059640552
delta: 0.000298546864622
dD: -3.55917036295e-11
ddelta: 4.41237636164e-13
---
header: 
  seq: 92
  stamp: 
    secs: 0
    nsecs:         0
  frame_id: ''
D: 0.912059640552
delta: 0.000298546864627
dD: -3.56140373269e-11
ddelta: 3.64471270547e-13
---
header: 
  seq: 93
  stamp: 
    secs: 0
    nsecs:         0
  frame_id: ''
D: 0.912059640552
delta: 0.00029854686463
dD: -3.56258711767e-11
ddelta: 3.06657382322e-13
---
header: 
  seq: 94
  stamp: 
    secs: 1611879023
    nsecs: 794928327
  frame_id: ''
D: 0.878827443208
delta: 0.000804249068429
dD: -1.66160986717
ddelta: 0.0252851101899
---
header: 
  seq: 95
  stamp: 
    secs: 1611879023
    nsecs: 835054187
  frame_id: ''
D: 0.778827443209
delta: 0.00417183494134
dD: -4.99999999998
ddelta: 0.168379293646
---
header: 
  seq: 96
  stamp: 
    secs: 1611879023
    nsecs: 864961314
  frame_id: ''
D: 0.678827443209
delta: 0.00757696534902
dD: -5.0
ddelta: 0.170256520384
---
header: 
  seq: 97
  stamp: 
    secs: 1611879023
    nsecs: 884929109
  frame_id: ''
D: 0.57882744321
delta: 0.0113890229571
dD: -4.99999999995
ddelta: 0.190602880403
---
header: 
  seq: 98
  stamp: 
    secs: 1611879023
    nsecs: 894931653
  frame_id: ''
D: 0.47882744321
delta: 0.014454946118
dD: -5.0
ddelta: 0.153296158045
---
header: 
  seq: 99
  stamp: 
    secs: 1611879023
    nsecs: 924939303
  frame_id: ''
D: 0.412639714099
delta: 0.0179662933353
dD: -3.30938645552
ddelta: 0.175567360867
---
header: 
  seq: 100
  stamp: 
    secs: 1611879023
    nsecs: 934931622
  frame_id: ''
D: 0.383683254348
delta: 0.0201349669353
dD: -1.44782298758
ddelta: 0.108433680002
---
header: 
  seq: 101
  stamp: 
    secs: 1611879023
    nsecs: 964929652
  frame_id: ''
D: 0.42851072428
delta: 0.0228442969663
dD: 2.2413734966
ddelta: 0.135466501547
---
header: 
  seq: 102
  stamp: 
    secs: 1611879023
    nsecs: 984937399
  frame_id: ''
D: 0.498212447602
delta: 0.0242160601688
dD: 3.48508616614
ddelta: 0.0685881601238
---
header: 
  seq: 103
  stamp: 
    secs: 1611879024
    nsecs:   4927301
  frame_id: ''
D: 0.577897924034
delta: 0.0248452925384
dD: 3.98427382155
ddelta: 0.0314616184801
---
header: 
  seq: 104
  stamp: 
    secs: 1611879024
    nsecs:  24929328
  frame_id: ''
D: 0.656483588277
delta: 0.0248535743545
dD: 3.92928321219
ddelta: 0.000414090805952
---
header: 
  seq: 105
  stamp: 
    secs: 1611879024
    nsecs:  44949359
  frame_id: ''
D: 0.726872632878
delta: 0.0244389261285
dD: 3.51945223003
ddelta: -0.0207324112988
---
header: 
  seq: 106
  stamp: 
    secs: 1611879024
    nsecs:  64934579
  frame_id: ''
D: 0.780009084178
delta: 0.0236576212159
dD: 2.65682256501
ddelta: -0.0390652456305
---
header: 
  seq: 107
  stamp: 
    secs: 1611879024
    nsecs:  84939637
  frame_id: ''
D: 0.812317136271
delta: 0.0228424096955
dD: 1.61540260465
ddelta: -0.0407605760177
---
header: 
  seq: 108
  stamp: 
    secs: 1611879024
    nsecs: 104933306
  frame_id: ''
D: 0.83249190233
delta: 0.0222761216553
dD: 1.00873830295
ddelta: -0.0283144020137
---
header: 
  seq: 109
  stamp: 
    secs: 1611879024
    nsecs: 124933624
  frame_id: ''
D: 0.846241730354
delta: 0.0218712130201
dD: 0.687491401178
ddelta: -0.0202454317562
---
header: 
  seq: 110
  stamp: 
    secs: 1611879024
    nsecs: 144937453
  frame_id: ''
D: 0.856729560517
delta: 0.0215743650744
dD: 0.524391508161
ddelta: -0.0148423972873
---
header: 
  seq: 111
  stamp: 
    secs: 1611879024
    nsecs: 154933541
  frame_id: ''
D: 0.864739425045
delta: 0.0213395581149
dD: 0.400493226416
ddelta: -0.0117403479766
---
header: 
  seq: 112
  stamp: 
    secs: 1611879024
    nsecs: 184928904
  frame_id: ''
D: 0.872758690659
delta: 0.0171134956752
dD: 0.400963280712
ddelta: -0.211303121984
---
header: 
  seq: 113
  stamp: 
    secs: 1611879024
    nsecs: 194932131
  frame_id: ''
D: 0.879298654578
delta: 0.014970713172
dD: 0.326998195942
ddelta: -0.10713912516
---
header: 
  seq: 114
  stamp: 
    secs: 1611879024
    nsecs: 214930049
  frame_id: ''
D: 0.885423866054
delta: 0.0148969972556
dD: 0.306260573775
ddelta: -0.00368579581747
---
header: 
  seq: 115
  stamp: 
    secs: 1611879024
    nsecs: 234933110
  frame_id: ''
D: 0.890429517343
delta: 0.00963222994648
dD: 0.250282564451
ddelta: -0.263238365457
---
header: 
  seq: 116
  stamp: 
    secs: 1611879024
    nsecs: 254934312
  frame_id: ''
D: 0.895319640156
delta: 0.00853495857648
dD: 0.244506140689
ddelta: -0.0548635685004
---
header: 
  seq: 117
  stamp: 
    secs: 1611879024
    nsecs: 274936870
  frame_id: ''
D: 0.899683467253
delta: 0.00968723764455
dD: 0.21819135485
ddelta: 0.0576139534035
---
header: 
  seq: 118
  stamp: 
    secs: 1611879024
    nsecs: 294928768
  frame_id: ''
D: 0.903058355147
delta: 0.011823309407
dD: 0.168744394675
ddelta: 0.106803588125
---
header: 
  seq: 119
  stamp: 
    secs: 1611879024
    nsecs: 324936999
  frame_id: ''
D: 0.905132947692
delta: 0.0143320669889
dD: 0.103729627261
ddelta: 0.125437879093
---
header: 
  seq: 120
  stamp: 
    secs: 1611879024
    nsecs: 344955762
  frame_id: ''
D: 0.906465630944
delta: 0.0163868590957
dD: 0.0666341625827
ddelta: 0.102739605338
---
header: 
  seq: 121
  stamp: 
    secs: 1611879024
    nsecs: 354935030
  frame_id: ''
D: 0.907378320296
delta: 0.0179436932326
dD: 0.04563446761
ddelta: 0.0778417068448
---
header: 
  seq: 122
  stamp: 
    secs: 1611879024
    nsecs: 374939947
  frame_id: ''
D: 0.908059439825
delta: 0.0190497624827
dD: 0.0340559764465
ddelta: 0.055303462506
---
header: 
  seq: 123
  stamp: 
    secs: 1611879024
    nsecs: 394932796
  frame_id: ''
D: 0.90862956456
delta: 0.0197682839937
dD: 0.0285062367359
ddelta: 0.0359260755529
---
header: 
  seq: 124
  stamp: 
    secs: 1611879024
    nsecs: 414936810
  frame_id: ''
D: 0.909144213685
delta: 0.0201940754736
dD: 0.025732456282
ddelta: 0.0212895739934
---
header: 
  seq: 125
  stamp: 
    secs: 1611879024
    nsecs: 444934883
  frame_id: ''
D: 0.90967587879
delta: 0.0203837571463
dD: 0.0265832552482
ddelta: 0.00948408363282
---
header: 
  seq: 126
  stamp: 
    secs: 1611879024
    nsecs: 464932324
  frame_id: ''
D: 0.910148761587
delta: 0.0204716245178
dD: 0.0236441398422
ddelta: 0.00439336857783
---
header: 
  seq: 127
  stamp: 
    secs: 1611879024
    nsecs: 474935360
  frame_id: ''
D: 0.910521395893
delta: 0.0205185883374
dD: 0.0186317152786
ddelta: 0.00234819097784
---
header: 
  seq: 128
  stamp: 
    secs: 1611879024
    nsecs: 504932826
  frame_id: ''
D: 0.910875794406
delta: 0.0205244151859
dD: 0.0177199256456
ddelta: 0.000291342426356
---
header: 
  seq: 129
  stamp: 
    secs: 1611879024
    nsecs: 514931220
  frame_id: ''
D: 0.911147359607
delta: 0.0205232236411
dD: 0.0135782600683
ddelta: -5.95772404221e-05
---
header: 
  seq: 130
  stamp: 
    secs: 1611879024
    nsecs: 534939855
  frame_id: ''
D: 0.911363675015
delta: 0.0205189970809
dD: 0.0108157704047
ddelta: -0.000211328008601
---
header: 
  seq: 131
  stamp: 
    secs: 1611879024
    nsecs: 554931025
  frame_id: ''
D: 0.911513119025
delta: 0.0205155793317
dD: 0.00747220047242
ddelta: -0.000170887463495
---
header: 
  seq: 132
  stamp: 
    secs: 1611879024
    nsecs: 574930210
  frame_id: ''
D: 0.911607834505
delta: 0.0205147126668
dD: 0.00473577403516
ddelta: -4.33332446555e-05
---
header: 
  seq: 133
  stamp: 
    secs: 1611879024
    nsecs: 594936234
  frame_id: ''
D: 0.911669208652
delta: 0.0205161345038
dD: 0.00306870731688
ddelta: 7.10918516523e-05
---
header: 
  seq: 134
  stamp: 
    secs: 1611879024
    nsecs: 614929534
  frame_id: ''
D: 0.910202868779
delta: 0.0143517344393
dD: -0.0733169936392
ddelta: -0.308220003227
---
header: 
  seq: 135
  stamp: 
    secs: 1611879024
    nsecs: 634947529
  frame_id: ''
D: 0.908701404184
delta: 0.00692655933293
dD: -0.0750732297486
ddelta: -0.371258755316
---
header: 
  seq: 136
  stamp: 
    secs: 1611879024
    nsecs: 654934507
  frame_id: ''
D: 0.908759333186
delta: 0.00521589951856
dD: 0.00289645009393
ddelta: -0.0855329907182
---
header: 
  seq: 137
  stamp: 
    secs: 1611879024
    nsecs: 674934875
  frame_id: ''
D: 0.909601768603
delta: 0.00664008857141
dD: 0.0421217708791
ddelta: 0.0712094526425
---
header: 
  seq: 138
  stamp: 
    secs: 1611879024
    nsecs: 694932186
  frame_id: ''
D: 0.909952772964
delta: 0.00941859276311
dD: 0.0175502180191
ddelta: 0.138925209585
---
header: 
  seq: 139
  stamp: 
    secs: 1611879024
    nsecs: 714945745
  frame_id: ''
D: 0.909939701736
delta: 0.0124514596297
dD: -0.000653561405016
ddelta: 0.15164334333
---
header: 
  seq: 140
  stamp: 
    secs: 1611879024
    nsecs: 734931387
  frame_id: ''
D: 0.909831859845
delta: 0.0151280641935
dD: -0.00539209452016
ddelta: 0.133830228188
---
header: 
  seq: 141
  stamp: 
    secs: 1611879024
    nsecs: 754929618
  frame_id: ''
D: 0.90976904238
delta: 0.0172027431577
dD: -0.00314087325734
ddelta: 0.103733948214
---
header: 
  seq: 142
  stamp: 
    secs: 1611879024
    nsecs: 774944503
  frame_id: ''
D: 0.909802726251
delta: 0.0186574532223
dD: 0.00168419357071
ddelta: 0.072735503226
---
header: 
  seq: 143
  stamp: 
    secs: 1611879024
    nsecs: 804935471
  frame_id: ''
D: 0.90999029502
delta: 0.0195051673519
dD: 0.00937843843166
ddelta: 0.0423857064813
---
header: 
  seq: 144
  stamp: 
    secs: 1611879024
    nsecs: 814934383
  frame_id: ''
D: 0.909426723309
delta: 0.0139047187202
dD: -0.0281785855644
ddelta: -0.280022431582
---
header: 
  seq: 145
  stamp: 
    secs: 1611879024
    nsecs: 834941902
  frame_id: ''
D: 0.908514831631
delta: 0.00679332443272
dD: -0.0455945838957
ddelta: -0.355569714376
---
header: 
  seq: 146
  stamp: 
    secs: 1611879024
    nsecs: 854934539
  frame_id: ''
D: 0.908861055722
delta: 0.0052146320867
dD: 0.0173112045672
ddelta: -0.078934617301
---
header: 
  seq: 147
  stamp: 
    secs: 1611879024
    nsecs: 874933328
  frame_id: ''
D: 0.90973572076
delta: 0.00667554390616
dD: 0.0437332518874
ddelta: 0.0730455909732
---
header: 
  seq: 148
  stamp: 
    secs: 1611879024
    nsecs: 894944152
  frame_id: ''
D: 0.909989122252
delta: 0.00945141508449
dD: 0.0126700745951
ddelta: 0.138793558917
---
header: 
  seq: 149
  stamp: 
    secs: 1611879024
    nsecs: 914932102
  frame_id: ''
D: 0.909947892622
delta: 0.0124710801504
dD: -0.00206148150392
ddelta: 0.150983253293
---
header: 
  seq: 150
  stamp: 
    secs: 1611879024
    nsecs: 934933823
  frame_id: ''
D: 0.909852006524
delta: 0.0151320209853
dD: -0.00479430487475
ddelta: 0.133047041748
---
header: 
  seq: 151
  stamp: 
    secs: 1611879024
    nsecs: 954935901
  frame_id: ''
D: 0.909814899052
delta: 0.0171945597379
dD: -0.00185537360622
ddelta: 0.103126937627
---
header: 
  seq: 152
  stamp: 
    secs: 1611879024
    nsecs: 974934144
  frame_id: ''
D: 0.909873693132
delta: 0.0186419508964
dD: 0.00293970397184
ddelta: 0.0723695579282
---
header: 
  seq: 153
  stamp: 
    secs: 1611879024
    nsecs: 994936547
  frame_id: ''
D: 0.910023722254
delta: 0.0195695230925
dD: 0.00750145612817
ddelta: 0.0463786098042
---
header: 
  seq: 154
  stamp: 
    secs: 1611879025
    nsecs:  14935404
  frame_id: ''
D: 0.910241032519
delta: 0.0201099667485
dD: 0.0108655132262
ddelta: 0.0270221827988
---
header: 
  seq: 155
  stamp: 
    secs: 1611879025
    nsecs:  44932887
  frame_id: ''
D: 0.910540120714
delta: 0.0203415993266
dD: 0.0149544097935
ddelta: 0.0115816289055
---
header: 
  seq: 156
  stamp: 
    secs: 1611879025
    nsecs:  54934367
  frame_id: ''
D: 0.91079473392
delta: 0.0204763158327
dD: 0.0127306602931
ddelta: 0.00673582530349
---
header: 
  seq: 157
  stamp: 
    secs: 1611879025
    nsecs:  74938626
  frame_id: ''
D: 0.909424548134
delta: 0.0142493588287
dD: -0.0685092893356
ddelta: -0.3113478502
---
header: 
  seq: 158
  stamp: 
    secs: 1611879025
    nsecs: 104928893
  frame_id: ''
D: 0.908403185922
delta: 0.00775520852245
dD: -0.0510681105615
ddelta: -0.324707515311
---
header: 
  seq: 159
  stamp: 
    secs: 1611879025
    nsecs: 114940590
  frame_id: ''
D: 0.908278197657
delta: 0.00480665697101
dD: -0.00624941326248
ddelta: -0.147427577572
---
header: 
  seq: 160
  stamp: 
    secs: 1611879025
    nsecs: 134930306
  frame_id: ''
D: 0.909082726337
delta: 0.00561811623198
dD: 0.0402264340168
ddelta: 0.0405729630489
---
header: 
  seq: 161
  stamp: 
    secs: 1611879025
    nsecs: 154928045
  frame_id: ''
D: 0.909671061831
delta: 0.00820000046445
dD: 0.0294167746514
ddelta: 0.129094211623
---
header: 
  seq: 162
  stamp: 
    secs: 1611879025
    nsecs: 184938230
  frame_id: ''
D: 0.909871220207
delta: 0.00659256705124
dD: 0.0100079188492
ddelta: -0.0803716706604
---
header: 
  seq: 163
  stamp: 
    secs: 1611879025
    nsecs: 204931267
  frame_id: ''
D: 0.910272981866
delta: 0.00778120719498
dD: 0.0200880829162
ddelta: 0.059432007187
---
header: 
  seq: 164
  stamp: 
    secs: 1611879025
    nsecs: 224936238
  frame_id: ''
D: 0.91020366381
delta: 0.010170964138
dD: -0.00346590279086
ddelta: 0.119487847152
---
header: 
  seq: 165
  stamp: 
    secs: 1611879025
    nsecs: 244933466
  frame_id: ''
D: 0.90996850268
delta: 0.012836262225
dD: -0.0117580564997
ddelta: 0.133264904351
---
header: 
  seq: 166
  stamp: 
    secs: 1611879025
    nsecs: 264929224
  frame_id: ''
D: 0.909768287408
delta: 0.0152375043813
dD: -0.0100107635865
ddelta: 0.120062107812
---
header: 
  seq: 167
  stamp: 
    secs: 1611879025
    nsecs: 284939478
  frame_id: ''
D: 0.909686516345
delta: 0.0171431187985
dD: -0.0040885531566
ddelta: 0.0952807208633
---
header: 
  seq: 168
  stamp: 
    secs: 1611879025
    nsecs: 304930391
  frame_id: ''
D: 0.909737904953
delta: 0.0185176944374
dD: 0.00256943041848
ddelta: 0.0687287819422
---
header: 
  seq: 169
  stamp: 
    secs: 1611879025
    nsecs: 324928451
  frame_id: ''
D: 0.909901590762
delta: 0.0194295815415
dD: 0.00818429040482
ddelta: 0.0455943552061
---
header: 
  seq: 170
  stamp: 
    secs: 1611879025
    nsecs: 344936876
  frame_id: ''
D: 0.909365664185
delta: 0.0138392321115
dD: -0.0267963288402
ddelta: -0.279517471499
---
header: 
  seq: 171
  stamp: 
    secs: 1611879025
    nsecs: 354928866
  frame_id: ''
D: 0.909299703857
delta: 0.0108028108235
dD: -0.00329801640719
ddelta: -0.151821064402
---
header: 
  seq: 172
  stamp: 
    secs: 1611879025
    nsecs: 374931642
  frame_id: ''
D: 0.909755746576
delta: 0.0104084439427
dD: 0.0228021359882
ddelta: -0.0197183440383
---
header: 
  seq: 173
  stamp: 
    secs: 1611879025
    nsecs: 394941527
  frame_id: ''
D: 0.910384544555
delta: 0.0115237875271
dD: 0.0314398989454
ddelta: 0.055767179219
---
header: 
  seq: 174
  stamp: 
    secs: 1611879025
    nsecs: 424926474
  frame_id: ''
D: 0.910601353026
delta: 0.0136045999369
dD: 0.0108404235219
ddelta: 0.104040620488
---
header: 
  seq: 175
  stamp: 
    secs: 1611879025
    nsecs: 434928185
  frame_id: ''
D: 0.910696748773
delta: 0.0153829533091
dD: 0.00476978736731
ddelta: 0.0889176686127
---
header: 
  seq: 176
  stamp: 
    secs: 1611879025
    nsecs: 454939262
  frame_id: ''
D: 0.910732619616
delta: 0.0169650552336
dD: 0.00179354214948
ddelta: 0.0791050962271
---
header: 
  seq: 177
  stamp: 
    secs: 1611879025
    nsecs: 474934048
  frame_id: ''
D: 0.910770313057
delta: 0.0182119175229
dD: 0.00188467205848
ddelta: 0.0623431144608
---
header: 
  seq: 178
  stamp: 
    secs: 1611879025
    nsecs: 494958273
  frame_id: ''
D: 0.910836584467
delta: 0.0191099682029
dD: 0.00331357050459
ddelta: 0.0449025340038
---
header: 
  seq: 179
  stamp: 
    secs: 1611879025
    nsecs: 514938024
  frame_id: ''
D: 0.910230536472
delta: 0.0146608077864
dD: -0.0303023997524
ddelta: -0.222458020828
---
header: 
  seq: 180
  stamp: 
    secs: 1611879025
    nsecs: 534931536
  frame_id: ''
D: 0.910345660209
delta: 0.0133410675179
dD: 0.00575618684508
ddelta: -0.065987013424
---
header: 
  seq: 181
  stamp: 
    secs: 1611879025
    nsecs: 554934037
  frame_id: ''
D: 0.910785917231
delta: 0.0137605952638
dD: 0.0220128510733
ddelta: 0.0209763872973
---
header: 
  seq: 182
  stamp: 
    secs: 1611879025
    nsecs: 574933348
  frame_id: ''
D: 0.910913977246
delta: 0.0149944039689
dD: 0.00640300077294
ddelta: 0.0616904352558
---
header: 
  seq: 183
  stamp: 
    secs: 1611879025
    nsecs: 594929873
  frame_id: ''
D: 0.910882592623
delta: 0.0164484137051
dD: -0.00156923113853
ddelta: 0.0727004868074
---
header: 
  seq: 184
  stamp: 
    secs: 1611879025
    nsecs: 614928691
  frame_id: ''
D: 0.910821470633
delta: 0.0177765164902
dD: -0.00305609953281
ddelta: 0.0664051392584
---
header: 
  seq: 185
  stamp: 
    secs: 1611879025
    nsecs: 634939042
  frame_id: ''
D: 0.910793027093
delta: 0.0188282955215
dD: -0.00142217697604
ddelta: 0.05258895156
---
header: 
  seq: 186
  stamp: 
    secs: 1611879025
    nsecs: 654933839
  frame_id: ''
D: 0.910817941068
delta: 0.0195772299621
dD: 0.00124569874803
ddelta: 0.0374467220304
---
header: 
  seq: 187
  stamp: 
    secs: 1611879025
    nsecs: 674937226
  frame_id: ''
D: 0.91089389316
delta: 0.020061988775
dD: 0.00379760461631
ddelta: 0.0242379406462
---
header: 
  seq: 188
  stamp: 
    secs: 1611879025
    nsecs: 694931266
  frame_id: ''
D: 0.910263023416
delta: 0.0153123756667
dD: -0.0315434872011
ddelta: -0.237480655411
---
header: 
  seq: 189
  stamp: 
    secs: 1611879025
    nsecs: 724943557
  frame_id: ''
D: 0.910545965671
delta: 0.0145804057466
dD: 0.014147112709
ddelta: -0.0365984960071
---
header: 
  seq: 190
  stamp: 
    secs: 1611879025
    nsecs: 744938811
  frame_id: ''
D: 0.910861356508
delta: 0.0151792140554
dD: 0.0157695418518
ddelta: 0.029940415438
---
header: 
  seq: 191
  stamp: 
    secs: 1611879025
    nsecs: 764933760
  frame_id: ''
D: 0.91092460957
delta: 0.0163505145904
dD: 0.00316265313453
ddelta: 0.05856502675
---
header: 
  seq: 192
  stamp: 
    secs: 1611879025
    nsecs: 784935230
  frame_id: ''
D: 0.910888145064
delta: 0.0176063235051
dD: -0.00182322530311
ddelta: 0.0627904457388
---
header: 
  seq: 193
  stamp: 
    secs: 1611879025
    nsecs: 794939857
  frame_id: ''
D: 0.910847421818
delta: 0.018640751616
dD: -0.0020361622862
ddelta: 0.0517214055426
---
header: 
  seq: 194
  stamp: 
    secs: 1611879025
    nsecs: 814927927
  frame_id: ''
D: 0.910829972355
delta: 0.0194775438056
dD: -0.000872473187578
ddelta: 0.0418396094814
---
header: 
  seq: 195
  stamp: 
    secs: 1611879025
    nsecs: 834929193
  frame_id: ''
D: 0.910857548777
delta: 0.0200664680805
dD: 0.00137882112792
ddelta: 0.0294462137421
---
header: 
  seq: 196
  stamp: 
    secs: 1611879025
    nsecs: 854928018
  frame_id: ''
D: 0.910290233273
delta: 0.0153985766577
dD: -0.0283657752132
ddelta: -0.233394571136
---
header: 
  seq: 197
  stamp: 
    secs: 1611879025
    nsecs: 884939887
  frame_id: ''
D: 0.910618226881
delta: 0.0147027240826
dD: 0.0163996804142
ddelta: -0.0347926287563
---
header: 
  seq: 198
  stamp: 
    secs: 1611879025
    nsecs: 894933442
  frame_id: ''
D: 0.910989701625
delta: 0.0147759506035
dD: 0.0185737371635
ddelta: 0.00366132604687
---
header: 
  seq: 199
  stamp: 
    secs: 1611879025
    nsecs: 924941572
  frame_id: ''
D: 0.910986795299
delta: 0.0160762790171
dD: -0.000145316285153
ddelta: 0.0650164206768
---
header: 
  seq: 200
  stamp: 
    secs: 1611879025
    nsecs: 944930856
  frame_id: ''
D: 0.910904940169
delta: 0.0174114630228
dD: -0.00409275649341
ddelta: 0.0667592002859
---
header: 
  seq: 201
  stamp: 
    secs: 1611879025
    nsecs: 954928245
  frame_id: ''
D: 0.91083735547
delta: 0.0185016145245
dD: -0.00337923497179
ddelta: 0.0545075750879
---
header: 
  seq: 202
  stamp: 
    secs: 1611879025
    nsecs: 974933172
  frame_id: ''
D: 0.91080846634
delta: 0.0193749310847
dD: -0.00144445647146
ddelta: 0.0436658280102
---
header: 
  seq: 203
  stamp: 
    secs: 1611879025
    nsecs: 994935272
  frame_id: ''
D: 0.905429318224
delta: 0.0198752372447
dD: -0.268957405822
ddelta: 0.0250153079969
---
header: 
  seq: 204
  stamp: 
    secs: 1611879026
    nsecs:  24933991
  frame_id: ''
D: 0.895749307552
delta: 0.00852151089286
dD: -0.484000533582
ddelta: -0.567686317591
---
header: 
  seq: 205
  stamp: 
    secs: 1611879026
    nsecs:  34930743
  frame_id: ''
D: 0.888298683246
delta: 0.00233256620787
dD: -0.372531215313
ddelta: -0.30944723425
---
header: 
  seq: 206
  stamp: 
    secs: 1611879026
    nsecs:  64955422
  frame_id: ''
D: 0.874221373733
delta: -0.00356056100014
dD: -0.703865475652
ddelta: -0.2946563604
---
header: 
  seq: 207
  stamp: 
    secs: 1611879026
    nsecs:  84927371
  frame_id: ''
D: 0.862380543821
delta: -0.0155141503969
dD: -0.592041495589
ddelta: -0.597679469837
---
header: 
  seq: 208
  stamp: 
    secs: 1611879026
    nsecs:  94928759
  frame_id: ''
D: 0.850726108283
delta: -0.0270762070657
dD: -0.582721776886
ddelta: -0.578102833442
---
header: 
  seq: 209
  stamp: 
    secs: 1611879026
    nsecs: 124931818
  frame_id: ''
D: 0.839427909027
delta: -0.0401697448464
dD: -0.564909962832
ddelta: -0.654676889036
---
header: 
  seq: 210
  stamp: 
    secs: 1611879026
    nsecs: 134933911
  frame_id: ''
D: 0.827611645609
delta: -0.0450026554723
dD: -0.590813170856
ddelta: -0.241645531294
---
header: 
  seq: 211
  stamp: 
    secs: 1611879026
    nsecs: 154928222
  frame_id: ''
D: 0.816684944823
delta: -0.0466693535899
dD: -0.546335039335
ddelta: -0.0833349058821
---
header: 
  seq: 212
  stamp: 
    secs: 1611879026
    nsecs: 174959339
  frame_id: ''
D: 0.80667552095
delta: -0.0457286371827
dD: -0.50047119363
ddelta: 0.047035820361
---
header: 
  seq: 213
  stamp: 
    secs: 1611879026
    nsecs: 204931994
  frame_id: ''
D: 0.795428959682
delta: -0.0371610704154
dD: -0.562328063418
ddelta: 0.428378338364
---
header: 
  seq: 214
  stamp: 
    secs: 1611879026
    nsecs: 214932812
  frame_id: ''
D: 0.78627079218
delta: -0.0296187853792
dD: -0.457908375088
ddelta: 0.37711425181
---
header: 
  seq: 215
  stamp: 
    secs: 1611879026
    nsecs: 234936683
  frame_id: ''
D: 0.775698886555
delta: -0.0219038317303
dD: -0.528595281274
ddelta: 0.385747682445
---
header: 
  seq: 216
  stamp: 
    secs: 1611879026
    nsecs: 264929721
  frame_id: ''
D: 0.763810670523
delta: -0.0260716833895
dD: -0.594410801579
ddelta: -0.208392582958
---
header: 
  seq: 217
  stamp: 
    secs: 1611879026
    nsecs: 274936205
  frame_id: ''
D: 0.755764177767
delta: -0.0268999530092
dD: -0.402324637777
ddelta: -0.0414134809836
---
header: 
  seq: 218
  stamp: 
    secs: 1611879026
    nsecs: 294931192
  frame_id: ''
D: 0.748524504159
delta: -0.0243916465959
dD: -0.361983680447
ddelta: 0.125415320663
---
header: 
  seq: 219
  stamp: 
    secs: 1611879026
    nsecs: 314930697
  frame_id: ''
D: 0.738126783968
delta: -0.0209041154347
dD: -0.519886009512
ddelta: 0.174376558059
---
header: 
  seq: 220
  stamp: 
    secs: 1611879026
    nsecs: 334941520
  frame_id: ''
D: 0.728850677444
delta: -0.0177426467817
dD: -0.463805326219
ddelta: 0.15807343265
---
header: 
  seq: 221
  stamp: 
    secs: 1611879026
    nsecs: 364938310
  frame_id: ''
D: 0.720440525976
delta: -0.0155583842138
dD: -0.420507573382
ddelta: 0.109213128398
---
header: 
  seq: 222
  stamp: 
    secs: 1611879026
    nsecs: 374933134
  frame_id: ''
D: 0.715620204718
delta: -0.0141763244065
dD: -0.241016062932
ddelta: 0.0691029903623
---
header: 
  seq: 223
  stamp: 
    secs: 1611879026
    nsecs: 404933812
  frame_id: ''
D: 0.707801497393
delta: -0.0138183150568
dD: -0.390935366244
ddelta: 0.0179004674849
---
header: 
  seq: 224
  stamp: 
    secs: 1611879026
    nsecs: 414931477
  frame_id: ''
D: 0.699875068597
delta: -0.013817972119
dD: -0.396321439772
ddelta: 1.71468897089e-05
---
header: 
  seq: 225
  stamp: 
    secs: 1611879026
    nsecs: 434934301
  frame_id: ''
D: 0.69226463666
delta: -0.0142551289696
dD: -0.380521596877
ddelta: -0.0218578425276
---
header: 
  seq: 226
  stamp: 
    secs: 1611879026
    nsecs: 454932782
  frame_id: ''
D: 0.684380679429
delta: -0.0226247783764
dD: -0.39419786153
ddelta: -0.418482470343
---
header: 
  seq: 227
  stamp: 
    secs: 1611879026
    nsecs: 484940856
  frame_id: ''
D: 0.672776014878
delta: -0.0447694424138
dD: -0.580233227543
ddelta: -1.10723320187
---
header: 
  seq: 228
  stamp: 
    secs: 1611879026
    nsecs: 504928977
  frame_id: ''
D: 0.65517780246
delta: -0.0605121887799
dD: -0.879910620914
ddelta: -0.787137318303
---
header: 
  seq: 229
  stamp: 
    secs: 1611879026
    nsecs: 524930238
  frame_id: ''
D: 0.639960053401
delta: -0.0648122241301
dD: -0.760887452974
ddelta: -0.215001767509
---
header: 
  seq: 230
  stamp: 
    secs: 1611879026
    nsecs: 534940795
  frame_id: ''
D: 0.628963160525
delta: -0.0751660833306
dD: -0.54984464378
ddelta: -0.517692960028
---
header: 
  seq: 231
  stamp: 
    secs: 1611879026
    nsecs: 554936237
  frame_id: ''
D: 0.61947187208
delta: -0.074979909894
dD: -0.474564422255
ddelta: 0.00930867183186
---
header: 
  seq: 232
  stamp: 
    secs: 1611879026
    nsecs: 584932431
  frame_id: ''
D: 0.609885481073
delta: -0.0688112361378
dD: -0.47931955033
ddelta: 0.308433687811
---
header: 
  seq: 233
  stamp: 
    secs: 1611879026
    nsecs: 594936549
  frame_id: ''
D: 0.601397668096
delta: -0.0635977777019
dD: -0.424390648879
ddelta: 0.260672921792
---
header: 
  seq: 234
  stamp: 
    secs: 1611879026
    nsecs: 614930138
  frame_id: ''
D: 0.593803514849
delta: -0.0590064221406
dD: -0.379707662322
ddelta: 0.229567778065
---
header: 
  seq: 235
  stamp: 
    secs: 1611879026
    nsecs: 634933608
  frame_id: ''
D: 0.587510363854
delta: -0.0557157775604
dD: -0.314657549754
ddelta: 0.164532229014
---
header: 
  seq: 236
  stamp: 
    secs: 1611879026
    nsecs: 654939145
  frame_id: ''
D: 0.584440467694
delta: -0.0538200562
dD: -0.153494808019
ddelta: 0.0947860680156
---
header: 
  seq: 237
  stamp: 
    secs: 1611879026
    nsecs: 674930527
  frame_id: ''
D: 0.580068022623
delta: -0.052637948528
dD: -0.218622253535
ddelta: 0.0591053836013
---
header: 
  seq: 238
  stamp: 
    secs: 1611879026
    nsecs: 704932374
  frame_id: ''
D: 0.568465108835
delta: -0.0516604808042
dD: -0.580145689404
ddelta: 0.0488733861888
---
header: 
  seq: 239
  stamp: 
    secs: 1611879026
    nsecs: 724936990
  frame_id: ''
D: 0.560328271802
delta: -0.0511252472319
dD: -0.406841851663
ddelta: 0.0267616786171
---
header: 
  seq: 240
  stamp: 
    secs: 1611879026
    nsecs: 734934807
  frame_id: ''
D: 0.55457591434
delta: -0.0505280256012
dD: -0.287617873106
ddelta: 0.0298610815371
---
header: 
  seq: 241
  stamp: 
    secs: 1611879026
    nsecs: 754934307
  frame_id: ''
D: 0.554039085159
delta: -0.0501064557512
dD: -0.0268414590187
ddelta: 0.0210784924974
---
header: 
  seq: 242
  stamp: 
    secs: 1611879026
    nsecs: 784938040
  frame_id: ''
D: 0.551872535135
delta: -0.0503584218683
dD: -0.108327501197
ddelta: -0.0125983058559
---
header: 
  seq: 243
  stamp: 
    secs: 1611879026
    nsecs: 804935076
  frame_id: ''
D: 0.546645346851
delta: -0.0495705867421
dD: -0.261359414222
ddelta: 0.0393917563142
---
header: 
  seq: 244
  stamp: 
    secs: 1611879026
    nsecs: 814929121
  frame_id: ''
D: 0.544378995054
delta: -0.0494015586556
dD: -0.113317589839
ddelta: 0.00845140432149
---
header: 
  seq: 245
  stamp: 
    secs: 1611879026
    nsecs: 834938739
  frame_id: ''
D: 0.544460027409
delta: -0.0504074541278
dD: 0.00405161773595
ddelta: -0.0502947736082
---
header: 
  seq: 246
  stamp: 
    secs: 1611879026
    nsecs: 864928704
  frame_id: ''
D: 0.540599742141
delta: -0.0499632295895
dD: -0.193014263388
ddelta: 0.0222112269142
---
header: 
  seq: 247
  stamp: 
    secs: 1611879026
    nsecs: 884940778
  frame_id: ''
D: 0.536818674132
delta: -0.0478948415951
dD: -0.189053400427
ddelta: 0.10341939972
---
header: 
  seq: 248
  stamp: 
    secs: 1611879026
    nsecs: 904934152
  frame_id: ''
D: 0.5346138805
delta: -0.0457609118284
dD: -0.110239681641
ddelta: 0.106696488336
---
header: 
  seq: 249
  stamp: 
    secs: 1611879026
    nsecs: 924930361
  frame_id: ''
D: 0.533977250631
delta: -0.0439453427046
dD: -0.0318314934282
ddelta: 0.0907784561902
---
header: 
  seq: 250
  stamp: 
    secs: 1611879026
    nsecs: 944938010
  frame_id: ''
D: 0.534862787589
delta: -0.0400483637862
dD: 0.0442768478722
ddelta: 0.194848945918
---
header: 
  seq: 251
  stamp: 
    secs: 1611879026
    nsecs: 954931623
  frame_id: ''
D: 0.533803139201
delta: -0.0354531457439
dD: -0.0529824193823
ddelta: 0.229760902118
---
header: 
  seq: 252
  stamp: 
    secs: 1611879026
    nsecs: 974933830
  frame_id: ''
D: 0.530672800358
delta: -0.0292368756408
dD: -0.156516942133
ddelta: 0.310813505153
---
header: 
  seq: 253
  stamp: 
    secs: 1611879026
    nsecs: 994941330
  frame_id: ''
D: 0.528105980636
delta: -0.0221485883574
dD: -0.128340986087
ddelta: 0.354414364167
---
header: 
  seq: 254
  stamp: 
    secs: 1611879027
    nsecs:  24931165
  frame_id: ''
D: 0.529640841994
delta: -0.0145970891703
dD: 0.0767430678758
ddelta: 0.377574959358
---
header: 
  seq: 255
  stamp: 
    secs: 1611879027
    nsecs:  44933630
  frame_id: ''
D: 0.530545321542
delta: -0.00721097537768
dD: 0.0452239774066
ddelta: 0.369305689629
---
header: 
  seq: 256
  stamp: 
    secs: 1611879027
    nsecs:  54938242
  frame_id: ''
D: 0.528975952556
delta: -0.0011627541409
dD: -0.0784684492921
ddelta: 0.302411061839
---
header: 
  seq: 257
  stamp: 
    secs: 1611879027
    nsecs:  74932154
  frame_id: ''
D: 0.524959076105
delta: 0.00550089752483
dD: -0.200843822574
ddelta: 0.333182583287
---
header: 
  seq: 258
  stamp: 
    secs: 1611879027
    nsecs: 104932510
  frame_id: ''
D: 0.524546827056
delta: 0.0118791320939
dD: -0.0206124524346
ddelta: 0.318911728452
---
header: 
  seq: 259
  stamp: 
    secs: 1611879027
    nsecs: 114938753
  frame_id: ''
D: 0.526275010177
delta: 0.0171012769514
dD: 0.0864091560648
ddelta: 0.261107242878
---
header: 
  seq: 260
  stamp: 
    secs: 1611879027
    nsecs: 144932541
  frame_id: ''
D: 0.527201135234
delta: 0.0245913611513
dD: 0.0463062528533
ddelta: 0.374504209994
---
header: 
  seq: 261
  stamp: 
    secs: 1611879027
    nsecs: 154933454
  frame_id: ''
D: 0.52548448697
delta: 0.0321651937155
dD: -0.0858324132037
ddelta: 0.378691628212
---
header: 
  seq: 262
  stamp: 
    secs: 1611879027
    nsecs: 174934605
  frame_id: ''
D: 0.520790701208
delta: 0.0392014452337
dD: -0.234689288128
ddelta: 0.351812575909
---
header: 
  seq: 263
  stamp: 
    secs: 1611879027
    nsecs: 194930046
  frame_id: ''
D: 0.51686400834
delta: 0.0456355131003
dD: -0.19633464337
ddelta: 0.32170339333
---
header: 
  seq: 264
  stamp: 
    secs: 1611879027
    nsecs: 224942390
  frame_id: ''
D: 0.515320175162
delta: 0.0521320352608
dD: -0.0771916589285
ddelta: 0.324826108021
---
header: 
  seq: 265
  stamp: 
    secs: 1611879027
    nsecs: 234938108
  frame_id: ''
D: 0.511331691916
delta: 0.057137006214
dD: -0.199424162271
ddelta: 0.25024854766
---
header: 
  seq: 266
  stamp: 
    secs: 1611879027
    nsecs: 264930719
  frame_id: ''
D: 0.504187489212
delta: 0.0542263392726
dD: -0.357210135239
ddelta: -0.145533347068
---
header: 
  seq: 267
  stamp: 
    secs: 1611879027
    nsecs: 284961620
  frame_id: ''
D: 0.501370507608
delta: 0.0567253290568
dD: -0.140849080181
ddelta: 0.124949489208
---
header: 
  seq: 268
  stamp: 
    secs: 1611879027
    nsecs: 294933773
  frame_id: ''
D: 0.499582232242
delta: 0.0594971168682
dD: -0.0894137683126
ddelta: 0.138589390573
---
header: 
  seq: 269
  stamp: 
    secs: 1611879027
    nsecs: 314934369
  frame_id: ''
D: 0.501067748132
delta: 0.063364862981
dD: 0.0742757945144
ddelta: 0.193387305638
---
header: 
  seq: 270
  stamp: 
    secs: 1611879027
    nsecs: 344930688
  frame_id: ''
D: 0.49560897551
delta: 0.0536213025723
dD: -0.272938631082
ddelta: -0.487178020434
---
header: 
  seq: 271
  stamp: 
    secs: 1611879027
    nsecs: 364932460
  frame_id: ''
D: 0.491933998193
delta: 0.0331058265251
dD: -0.183748865855
ddelta: -1.02577380236
---
header: 
  seq: 272
  stamp: 
    secs: 1611879027
    nsecs: 374930853
  frame_id: ''
D: 0.490245309945
delta: 0.00570019572445
dD: -0.0844344124132
ddelta: -1.37028154003
---
header: 
  seq: 273
  stamp: 
    secs: 1611879027
    nsecs: 394942880
  frame_id: ''
D: 0.492198260734
delta: -0.0328743953325
dD: 0.0976475394542
ddelta: -1.92872955285
---
header: 
  seq: 274
  stamp: 
    secs: 1611879027
    nsecs: 414930712
  frame_id: ''
D: 0.49271225353
delta: -0.0573833379055
dD: 0.0256996397774
ddelta: -1.22544712866
---
header: 
  seq: 275
  stamp: 
    secs: 1611879027
    nsecs: 434929084
  frame_id: ''
D: 0.487163803621
delta: -0.0926373149748
dD: -0.277422495419
ddelta: -1.76269885346
---
header: 
  seq: 276
  stamp: 
    secs: 1611879027
    nsecs: 464938068
  frame_id: ''
D: 0.476388918389
delta: -0.132637314975
dD: -0.538744261603
ddelta: -2.0
---
header: 
  seq: 277
  stamp: 
    secs: 1611879027
    nsecs: 474932919
  frame_id: ''
D: 0.46905525294
delta: -0.172637314767
dD: -0.366683272451
ddelta: -1.99999998964
---
header: 
  seq: 278
  stamp: 
    secs: 1611879027
    nsecs: 494929006
  frame_id: ''
D: 0.469479242695
delta: -0.212160807045
dD: 0.0211994877285
ddelta: -1.97617461386
---
header: 
  seq: 279
  stamp: 
    secs: 1611879027
    nsecs: 524934878
  frame_id: ''
D: 0.455661769427
delta: -0.252160806898
dD: -0.690873663386
ddelta: -1.99999999269
---
header: 
  seq: 280
  stamp: 
    secs: 1611879027
    nsecs: 544935034
  frame_id: ''
D: 0.456804518399
delta: -0.257286041717
dD: 0.05713744859
ddelta: -0.256261740938
---
header: 
  seq: 281
  stamp: 
    secs: 1611879027
    nsecs: 564940889
  frame_id: ''
D: 0.458869066685
delta: -0.24696066587
dD: 0.10322741429
ddelta: 0.516268792365
---
header: 
  seq: 282
  stamp: 
    secs: 1611879027
    nsecs: 584936002
  frame_id: ''
D: 0.450753852216
delta: -0.286960665811
dD: -0.405760723431
ddelta: -1.99999999705
---
header: 
  seq: 283
  stamp: 
    secs: 1611879027
    nsecs: 604930004
  frame_id: ''
D: 0.440500713591
delta: -0.318116695351
dD: -0.512656931262
ddelta: -1.55780147699
---
header: 
  seq: 284
  stamp: 
    secs: 1611879027
    nsecs: 624941883
  frame_id: ''
D: 0.433934159046
delta: -0.328948379724
dD: -0.328327727253
ddelta: -0.541584218693
---
header: 
  seq: 285
  stamp: 
    secs: 1611879027
    nsecs: 644934915
  frame_id: ''
D: 0.436586462903
delta: -0.309606619406
dD: 0.132615192862
ddelta: 0.967088015922
---
header: 
  seq: 286
  stamp: 
    secs: 1611879027
    nsecs: 654933165
  frame_id: ''
D: 0.435254857451
delta: -0.313536392905
dD: -0.066580272618
ddelta: -0.196488674966
---
header: 
  seq: 287
  stamp: 
    secs: 1611879027
    nsecs: 674944944
  frame_id: ''
D: 0.430663870184
delta: -0.334045706044
dD: -0.22954936332
ddelta: -1.02546565692
---
header: 
  seq: 288
  stamp: 
    secs: 1611879027
    nsecs: 704934110
  frame_id: ''
D: 0.429219100299
delta: -0.334814135404
dD: -0.072238494274
ddelta: -0.0384214679947
---
header: 
  seq: 289
  stamp: 
    secs: 1611879027
    nsecs: 724932105
  frame_id: ''
D: 0.436601099978
delta: -0.312696537328
dD: 0.369099983978
ddelta: 1.1058799038
---
header: 
  seq: 290
  stamp: 
    secs: 1611879027
    nsecs: 744959581
  frame_id: ''
D: 0.432240807032
delta: -0.335853217863
dD: -0.21801464731
ddelta: -1.15783402677
---
header: 
  seq: 291
  stamp: 
    secs: 1611879027
    nsecs: 764932319
  frame_id: ''
D: 0.439446545772
delta: -0.325553699941
dD: 0.360286936996
ddelta: 0.514975896097
---
header: 
  seq: 292
  stamp: 
    secs: 1611879027
    nsecs: 784934858
  frame_id: ''
D: 0.443531677334
delta: -0.315835435921
dD: 0.204256578074
ddelta: 0.485913200999
---
header: 
  seq: 293
  stamp: 
    secs: 1611879027
    nsecs: 804934074
  frame_id: ''
D: 0.44537818139
delta: -0.298996836593
dD: 0.092325202834
ddelta: 0.841929966414
---
header: 
  seq: 294
  stamp: 
    secs: 1611879027
    nsecs: 824926084
  frame_id: ''
D: 0.449550825036
delta: -0.287678105803
dD: 0.208632182286
ddelta: 0.565936539513
---
header: 
  seq: 295
  stamp: 
    secs: 1611879027
    nsecs: 844941492
  frame_id: ''
D: 0.454859892465
delta: -0.281825802013
dD: 0.26545337144
ddelta: 0.292615189484
---
header: 
  seq: 296
  stamp: 
    secs: 1611879027
    nsecs: 864931961
  frame_id: ''
D: 0.461111892693
delta: -0.278783277347
dD: 0.312600011411
ddelta: 0.152126233296
---
header: 
  seq: 297
  stamp: 
    secs: 1611879027
    nsecs: 884932761
  frame_id: ''
D: 0.467006279517
delta: -0.276404777529
dD: 0.294719341224
ddelta: 0.118924990883
---
header: 
  seq: 298
  stamp: 
    secs: 1611879027
    nsecs: 904937713
  frame_id: ''
D: 0.469250044992
delta: -0.262935312045
dD: 0.112188273751
ddelta: 0.673473274207
---
header: 
  seq: 299
  stamp: 
    secs: 1611879027
    nsecs: 914931252
  frame_id: ''
D: 0.469840485108
delta: -0.268806757688
dD: 0.0295220057546
ddelta: -0.29357228215
---
header: 
  seq: 300
  stamp: 
    secs: 1611879027
    nsecs: 934927606
  frame_id: ''
D: 0.469846038896
delta: -0.285674100039
dD: 0.000277689426648
ddelta: -0.843367117554
---
header: 
  seq: 301
  stamp: 
    secs: 1611879027
    nsecs: 964941261
  frame_id: ''
D: 0.477308220078
delta: -0.267941212308
dD: 0.373109059085
ddelta: 0.886644386576
---
header: 
  seq: 302
  stamp: 
    secs: 1611879027
    nsecs: 984929625
  frame_id: ''
D: 0.475624532136
delta: -0.262814705407
dD: -0.0841843970889
ddelta: 0.256325345022
---
header: 
  seq: 303
  stamp: 
    secs: 1611879028
    nsecs:   4934023
  frame_id: ''
D: 0.468495988245
delta: -0.273500039285
dD: -0.356427194541
ddelta: -0.534266693883
---
header: 
  seq: 304
  stamp: 
    secs: 1611879028
    nsecs:  24937348
  frame_id: ''
D: 0.463563163444
delta: -0.296391138461
dD: -0.246641240074
ddelta: -1.14455495883
---
header: 
  seq: 305
  stamp: 
    secs: 1611879028
    nsecs:  44926302
  frame_id: ''
D: 0.46417248835
delta: -0.310474361492
dD: 0.030466245318
ddelta: -0.704161151545
---
header: 
  seq: 306
  stamp: 
    secs: 1611879028
    nsecs:  64939069
  frame_id: ''
D: 0.453151479112
delta: -0.342788501034
dD: -0.551050461898
ddelta: -1.61570697706
---
header: 
  seq: 307
  stamp: 
    secs: 1611879028
    nsecs:  84935674
  frame_id: ''
D: 0.438538281531
delta: -0.367404414286
dD: -0.730659879052
ddelta: -1.23079566262
---
header: 
  seq: 308
  stamp: 
    secs: 1611879028
    nsecs: 104933114
  frame_id: ''
D: 0.434121744517
delta: -0.374831608219
dD: -0.220826850728
ddelta: -0.371359696674
---
header: 
  seq: 309
  stamp: 
    secs: 1611879028
    nsecs: 124940967
  frame_id: ''
D: 0.430718336664
delta: -0.384698375845
dD: -0.170170392646
ddelta: -0.493338381267
---
header: 
  seq: 310
  stamp: 
    secs: 1611879028
    nsecs: 144934553
  frame_id: ''
D: 0.43274929492
delta: -0.385275331909
dD: 0.101547912827
ddelta: -0.0288478031965
---
header: 
  seq: 311
  stamp: 
    secs: 1611879028
    nsecs: 164935100
  frame_id: ''
D: 0.426311548076
delta: -0.389200718598
dD: -0.32188734221
ddelta: -0.196269334468
---
header: 
  seq: 312
  stamp: 
    secs: 1611879028
    nsecs: 174946273
  frame_id: ''
D: 0.419967334726
delta: -0.395247213315
dD: -0.317210667507
ddelta: -0.302324735856
---
header: 
  seq: 313
  stamp: 
    secs: 1611879028
    nsecs: 204934625
  frame_id: ''
D: 0.420972674479
delta: -0.389514126229
dD: 0.0502669876333
ddelta: 0.286654354277
---
header: 
  seq: 314
  stamp: 
    secs: 1611879028
    nsecs: 224934414
  frame_id: ''
D: 0.426183111175
delta: -0.389003710942
dD: 0.260521834807
ddelta: 0.0255207643637
---
header: 
  seq: 315
  stamp: 
    secs: 1611879028
    nsecs: 244938696
  frame_id: ''
D: 0.433154928551
delta: -0.392269120352
dD: 0.348590868827
ddelta: -0.163270470509
---
header: 
  seq: 316
  stamp: 
    secs: 1611879028
    nsecs: 264934106
  frame_id: ''
D: 0.439129319691
delta: -0.388480076364
dD: 0.298719557006
ddelta: 0.189452199408
---
header: 
  seq: 317
  stamp: 
    secs: 1611879028
    nsecs: 274933943
  frame_id: ''
D: 0.4414331653
delta: -0.389288037793
dD: 0.115192280431
ddelta: -0.0403980714307
---
header: 
  seq: 318
  stamp: 
    secs: 1611879028
    nsecs: 294943160
  frame_id: ''
D: 0.44687494891
delta: -0.387195265516
dD: 0.272089180523
ddelta: 0.104638613844
---
header: 
  seq: 319
  stamp: 
    secs: 1611879028
    nsecs: 324932676
  frame_id: ''
D: 0.46921337792
delta: -0.347195268931
dD: 1.11692145046
ddelta: 1.99999982925
---
header: 
  seq: 320
  stamp: 
    secs: 1611879028
    nsecs: 344935049
  frame_id: ''
D: 0.487881614899
delta: -0.327398323718
dD: 0.93341184894
ddelta: 0.989847260624
---
header: 
  seq: 321
  stamp: 
    secs: 1611879028
    nsecs: 364936110
  frame_id: ''
D: 0.500083904445
delta: -0.313408958991
dD: 0.610114477331
ddelta: 0.69946823637
---
header: 
  seq: 322
  stamp: 
    secs: 1611879028
    nsecs: 384927185
  frame_id: ''
D: 0.508697063602
delta: -0.315382860011
dD: 0.430657957864
ddelta: -0.0986950509828
---
header: 
  seq: 323
  stamp: 
    secs: 1611879028
    nsecs: 404930648
  frame_id: ''
D: 0.519697939247
delta: -0.309805789492
dD: 0.550043782233
ddelta: 0.278853525948
---
header: 
  seq: 324
  stamp: 
    secs: 1611879028
    nsecs: 424935390
  frame_id: ''
D: 0.525945459734
delta: -0.306776953705
dD: 0.312376024366
ddelta: 0.151441789352
---
header: 
  seq: 325
  stamp: 
    secs: 1611879028
    nsecs: 444933738
  frame_id: ''
D: 0.53120097686
delta: -0.291443906719
dD: 0.262775856266
ddelta: 0.766652349264
---
header: 
  seq: 326
  stamp: 
    secs: 1611879028
    nsecs: 464929985
  frame_id: ''
D: 0.534668093864
delta: -0.281575283623
dD: 0.17335585024
ddelta: 0.493431154826
---
header: 
  seq: 327
  stamp: 
    secs: 1611879028
    nsecs: 484937116
  frame_id: ''
D: 0.538934873008
delta: -0.284965306788
dD: 0.213338957178
ddelta: -0.169501158275
---
header: 
  seq: 328
  stamp: 
    secs: 1611879028
    nsecs: 504933046
  frame_id: ''
D: 0.54167481316
delta: -0.298066415012
dD: 0.136997007603
ddelta: -0.65505541118
---
header: 
  seq: 329
  stamp: 
    secs: 1611879028
    nsecs: 524938848
  frame_id: ''
D: 0.540938989281
delta: -0.306774931354
dD: -0.0367911939498
ddelta: -0.435425817118
---
header: 
  seq: 330
  stamp: 
    secs: 1611879028
    nsecs: 544935093
  frame_id: ''
D: 0.542226673159
delta: -0.278399572254
dD: 0.064384193914
ddelta: 1.41876795501
---
header: 
  seq: 331
  stamp: 
    secs: 1611879028
    nsecs: 564932062
  frame_id: ''
D: 0.547073406909
delta: -0.264690137958
dD: 0.242336687478
ddelta: 0.68547171478
---
header: 
  seq: 332
  stamp: 
    secs: 1611879028
    nsecs: 574929616
  frame_id: ''
D: 0.551128196192
delta: -0.266884236937
dD: 0.20273946417
ddelta: -0.109704948912
---
header: 
  seq: 333
  stamp: 
    secs: 1611879028
    nsecs: 604930907
  frame_id: ''
D: 0.550843383689
delta: -0.294529331815
dD: -0.0142406251879
ddelta: -1.38225474392
---
header: 
  seq: 334
  stamp: 
    secs: 1611879028
    nsecs: 624927420
  frame_id: ''
D: 0.549862582837
delta: -0.314499324671
dD: -0.0490400425878
ddelta: -0.998499642823
---
header: 
  seq: 335
  stamp: 
    secs: 1611879028
    nsecs: 644936854
  frame_id: ''
D: 0.548868360711
delta: -0.322639954532
dD: -0.049711106285
ddelta: -0.407031493033
---
header: 
  seq: 336
  stamp: 
    secs: 1611879028
    nsecs: 664934617
  frame_id: ''
D: 0.550396114693
delta: -0.327275693955
dD: 0.0763876990753
ddelta: -0.231786971143
---
header: 
  seq: 337
  stamp: 
    secs: 1611879028
    nsecs: 684932170
  frame_id: ''
D: 0.55259315617
delta: -0.327404301669
dD: 0.109852073882
ddelta: -0.00643038573107
---
header: 
  seq: 338
  stamp: 
    secs: 1611879028
    nsecs: 694933595
  frame_id: ''
D: 0.554639055816
delta: -0.328041472652
dD: 0.102294982269
ddelta: -0.031858549114
---
header: 
  seq: 339
  stamp: 
    secs: 1611879028
    nsecs: 724934274
  frame_id: ''
D: 0.553314460414
delta: -0.31392833441
dD: -0.0662297700871
ddelta: 0.705656912092
---
header: 
  seq: 340
  stamp: 
    secs: 1611879028
    nsecs: 744933717
  frame_id: ''
D: 0.550458097327
delta: -0.299820417686
dD: -0.14281815435
ddelta: 0.705395836198
---
header: 
  seq: 341
  stamp: 
    secs: 1611879028
    nsecs: 764942164
  frame_id: ''
D: 0.545543460396
delta: -0.28867213021
dD: -0.245731846525
ddelta: 0.557414373792
---
header: 
  seq: 342
  stamp: 
    secs: 1611879028
    nsecs: 784933509
  frame_id: ''
D: 0.543888166901
delta: -0.272415026631
dD: -0.0827646747542
ddelta: 0.812855178947
---
header: 
  seq: 343
  stamp: 
    secs: 1611879028
    nsecs: 804931762
  frame_id: ''
D: 0.539246141832
delta: -0.24618138025
dD: -0.232101253488
ddelta: 1.31168231907
---
header: 
  seq: 344
  stamp: 
    secs: 1611879028
    nsecs: 824937184
  frame_id: ''
D: 0.535274515623
delta: -0.225231177841
dD: -0.19858131044
ddelta: 1.04751012042
---
header: 
  seq: 345
  stamp: 
    secs: 1611879028
