header: 
  seq: 0
  stamp: 
    secs: 1611879023
    nsecs: 750064592
  frame_id: ''
s: 0.0
n: 0.0
alpha: 0.0
v: 0.0
---
header: 
  seq: 1
  stamp: 
    secs: 1611879023
    nsecs: 764870715
  frame_id: ''
s: 0.0
n: -4.04709758253e-06
alpha: -3.26307790144e-05
v: 0.00669184084513
---
header: 
  seq: 2
  stamp: 
    secs: 1611879023
    nsecs: 774935262
  frame_id: ''
s: 0.0
n: -3.09500531448e-05
alpha: -0.00024695817061
v: 0.0333741147447
---
header: 
  seq: 3
  stamp: 
    secs: 1611879023
    nsecs: 784931116
  frame_id: ''
s: 0.0
n: -0.000114730520931
alpha: -0.000884050011581
v: 0.0926253804308
---
header: 
  seq: 4
  stamp: 
    secs: 1611879023
    nsecs: 794928327
  frame_id: ''
s: 0.0
n: -0.000300650234313
alpha: -0.0021452283626
v: 0.194378246467
---
header: 
  seq: 5
  stamp: 
    secs: 1611879023
    nsecs: 804939583
  frame_id: ''
s: 0.0
n: -0.000634999389728
alpha: -0.00398323293321
v: 0.342421763958
---
header: 
  seq: 6
  stamp: 
    secs: 1611879023
    nsecs: 814959719
  frame_id: ''
s: 0.0
n: -0.00114772779812
alpha: -0.00604601494896
v: 0.530433422406
---
header: 
  seq: 7
  stamp: 
    secs: 1611879023
    nsecs: 824932776
  frame_id: ''
s: 0.0454450044839
n: -0.00183377583741
alpha: -0.00791032592861
v: 0.740392273803
---
header: 
  seq: 8
  stamp: 
    secs: 1611879023
    nsecs: 835054187
  frame_id: ''
s: 0.0655643147308
n: -0.00264562095472
alpha: -0.0093324608658
v: 0.946212865934
---
header: 
  seq: 9
  stamp: 
    secs: 1611879023
    nsecs: 844936964
  frame_id: ''
s: 0.0868839169725
n: -0.00350589970038
alpha: -0.0102760949419
v: 1.12197902707
---
header: 
  seq: 10
  stamp: 
    secs: 1611879023
    nsecs: 854939309
  frame_id: ''
s: 0.107401933299
n: -0.0043338332213
alpha: -0.0108127893702
v: 1.2499808944
---
header: 
  seq: 11
  stamp: 
    secs: 1611879023
    nsecs: 864961314
  frame_id: ''
s: 0.127249762054
n: -0.00513472364279
alpha: -0.0102198995177
v: 1.34694676005
---
header: 
  seq: 12
  stamp: 
    secs: 1611879023
    nsecs: 874931582
  frame_id: ''
s: 0.139254043505
n: -0.0056191148651
alpha: -0.0102219729598
v: 1.32741803462
---
header: 
  seq: 13
  stamp: 
    secs: 1611879023
    nsecs: 884929109
  frame_id: ''
s: 0.15251743021
n: -0.00615431292129
alpha: -0.01089195801
v: 1.32741803462
---
header: 
  seq: 14
  stamp: 
    secs: 1611879023
    nsecs: 894931653
  frame_id: ''
s: 0.161241771883
n: -0.00650635352813
alpha: -0.0106438272407
v: 1.27520590567
---
header: 
  seq: 15
  stamp: 
    secs: 1611879023
    nsecs: 904934137
  frame_id: ''
s: 0.167268159148
n: -0.00674952752446
alpha: -0.0103413026524
v: 1.19952272172
---
header: 
  seq: 16
  stamp: 
    secs: 1611879023
    nsecs: 914933523
  frame_id: ''
s: 0.171031023011
n: -0.00690136486964
alpha: -0.010018115729
v: 1.10808447088
---
header: 
  seq: 17
  stamp: 
    secs: 1611879023
    nsecs: 924939303
  frame_id: ''
s: 0.172944431972
n: -0.00697857386455
alpha: -0.00969943354798
v: 1.0070325758
---
header: 
  seq: 18
  stamp: 
    secs: 1611879023
    nsecs: 934931622
  frame_id: ''
s: 0.173376442375
n: -0.00699600614884
alpha: -0.00940281573973
v: 0.901162950968
---
header: 
  seq: 19
  stamp: 
    secs: 1611879023
    nsecs: 944930079
  frame_id: ''
s: 0.172645027182
n: -0.00696649242069
alpha: -0.0091392517208
v: 0.794211795785
---
header: 
  seq: 20
  stamp: 
    secs: 1611879023
    nsecs: 954934739
  frame_id: ''
s: 0.171022561371
n: -0.00690102342945
alpha: -0.00891434776066
v: 0.689095345491
---
header: 
  seq: 21
  stamp: 
    secs: 1611879023
    nsecs: 964929652
  frame_id: ''
s: 0.168742184539
n: -0.00680900671644
alpha: -0.00872957618946
v: 0.58808036593
---
header: 
  seq: 22
  stamp: 
    secs: 1611879023
    nsecs: 974935411
  frame_id: ''
s: 0.166003307121
n: -0.0066984887995
alpha: -0.00858346222776
v: 0.492896017273
---
header: 
  seq: 23
  stamp: 
    secs: 1611879023
    nsecs: 984937399
  frame_id: ''
s: 0.162975604559
n: -0.00657631634372
alpha: -0.00847261538292
v: 0.404807196304
---
header: 
  seq: 24
  stamp: 
    secs: 1611879023
    nsecs: 994930999
  frame_id: ''
s: 0.159801757564
n: -0.00644824673525
alpha: -0.00839256215224
v: 0.324667903961
---
header: 
  seq: 25
  stamp: 
    secs: 1611879024
    nsecs:   4927301
  frame_id: ''
s: 0.156599466705
n: -0.0063190293731
alpha: -0.0083383774064
v: 0.25296768318
---
header: 
  seq: 26
  stamp: 
    secs: 1611879024
    nsecs:  14929341
  frame_id: ''
s: 0.153463224441
n: -0.00619247717338
alpha: -0.0083051356002
v: 0.189878254608
---
header: 
  seq: 27
  stamp: 
    secs: 1611879024
    nsecs:  24929328
  frame_id: ''
s: 0.150466162171
n: -0.0060715411005
alpha: -0.00828821254138
v: 0.135302729067
---
header: 
  seq: 28
  stamp: 
    secs: 1611879024
    nsecs:  34951012
  frame_id: ''
s: 0.147662112177
n: -0.0059583933699
alpha: -0.00828346934367
v: 0.0889267043642
---
header: 
  seq: 29
  stamp: 
    secs: 1611879024
    nsecs:  44949359
  frame_id: ''
s: 0.145087886348
n: -0.00585451939785
alpha: -0.00828734701481
v: 0.0502690661592
---
header: 
  seq: 30
  stamp: 
    secs: 1611879024
    nsecs:  54948824
  frame_id: ''
s: 0.140769169304
n: -0.00568025252179
alpha: -0.00833038225366
v: 0.00636570751269
---
header: 
  seq: 31
  stamp: 
    secs: 1611879024
    nsecs:  64934579
  frame_id: ''
s: 0.139164834259
n: -0.00561551513482
alpha: -0.00833918814113
v: 0.0257317555563
---
header: 
  seq: 32
  stamp: 
    secs: 1611879024
    nsecs:  74930137
  frame_id: ''
s: 0.137765326868
n: -0.00555904285879
alpha: -0.00834902263968
v: 0.0400897233013
---
header: 
  seq: 33
  stamp: 
    secs: 1611879024
    nsecs:  84939637
  frame_id: ''
s: 0.136564581105
n: -0.00551059092019
alpha: -0.00835897547223
v: 0.0501453056508
---
header: 
  seq: 34
  stamp: 
    secs: 1611879024
    nsecs:  94934544
  frame_id: ''
s: 0.135552184578
n: -0.00546973916298
alpha: -0.00836841637434
v: 0.0565705012386
---
header: 
  seq: 35
  stamp: 
    secs: 1611879024
    nsecs: 104933306
  frame_id: ''
s: 0.134714676176
n: -0.00543594441064
alpha: -0.00837694434682
v: 0.0599911191125
---
header: 
  seq: 36
  stamp: 
    secs: 1611879024
    nsecs: 114935796
  frame_id: ''
s: 0.13403663544
n: -0.00540858442395
alpha: -0.00838433924909
v: 0.0609787378626
---
header: 
  seq: 37
  stamp: 
    secs: 1611879024
    nsecs: 124933624
  frame_id: ''
s: 0.133501576348
n: -0.00538699396653
alpha: -0.0083905178782
v: 0.0600462802398
---
header: 
  seq: 38
  stamp: 
    secs: 1611879024
    nsecs: 134936560
  frame_id: ''
s: 0.13309266379
n: -0.0053704937158
alpha: -0.0083954957376
v: 0.0576464373836
---
header: 
  seq: 39
  stamp: 
    secs: 1611879024
    nsecs: 144937453
  frame_id: ''
s: 0.132793273415
n: -0.00535841285362
alpha: -0.00839935498121
v: 0.0541722750962
---
header: 
  seq: 40
  stamp: 
    secs: 1611879024
    nsecs: 154933541
  frame_id: ''
s: 0.132587415829
n: -0.00535010618334
alpha: -0.00840221849643
v: 0.0499594589759
---
header: 
  seq: 41
  stamp: 
    secs: 1611879024
    nsecs: 164928783
  frame_id: ''
s: 0.132492252861
n: -0.00466114762989
alpha: 0.0363492593118
v: 0.0460403489381
---
header: 
  seq: 42
  stamp: 
    secs: 1611879024
    nsecs: 174926524
  frame_id: ''
s: 0.132425464829
n: -0.00474382908239
alpha: 0.0280203134727
v: 0.0408622006436
---
header: 
  seq: 43
  stamp: 
    secs: 1611879024
    nsecs: 184928904
  frame_id: ''
s: 0.13241077402
n: -0.00482636521383
alpha: 0.0201483367668
v: 0.0357261682395
---
header: 
  seq: 44
  stamp: 
    secs: 1611879024
    nsecs: 194932131
  frame_id: ''
s: 0.132437013057
n: -0.00490648665619
alpha: 0.0130581789345
v: 0.0307631744882
---
header: 
  seq: 45
  stamp: 
    secs: 1611879024
    nsecs: 204957848
  frame_id: ''
s: 0.132494355104
n: -0.00498249578774
alpha: 0.00692565662717
v: 0.0260717034551
---
header: 
  seq: 46
  stamp: 
    secs: 1611879024
    nsecs: 214930049
  frame_id: ''
s: 0.132574289771
n: -0.00505318690268
alpha: 0.00181408352034
v: 0.0217221089673
---
header: 
  seq: 47
  stamp: 
    secs: 1611879024
    nsecs: 224928534
  frame_id: ''
s: 0.13266956773
n: -0.00511777047567
alpha: -0.00229401873372
v: 0.0177609835496
---
header: 
  seq: 48
  stamp: 
    secs: 1611879024
    nsecs: 234933110
  frame_id: ''
s: 0.132673601398
n: -0.00451208444536
alpha: 0.0392830965914
v: 0.0174500166095
---
header: 
  seq: 49
  stamp: 
    secs: 1611879024
    nsecs: 244927581
  frame_id: ''
s: 0.132794982588
n: -0.00464611333612
alpha: 0.0286061730572
v: 0.0131555404484
---
header: 
  seq: 50
  stamp: 
    secs: 1611879024
    nsecs: 254934312
  frame_id: ''
s: 0.13291634262
n: -0.00477131240372
alpha: 0.019091854655
v: 0.00950762010752
---
header: 
  seq: 51
  stamp: 
    secs: 1611879024
    nsecs: 264949735
  frame_id: ''
s: 0.133034301645
n: -0.00488615220227
alpha: 0.0109402801399
v: 0.00650169476175
---
header: 
  seq: 52
  stamp: 
    secs: 1611879024
    nsecs: 274936870
  frame_id: ''
s: 0.133146325688
n: -0.00498973203368
alpha: 0.00420727992514
v: 0.00416995435521
---
header: 
  seq: 53
  stamp: 
    secs: 1611879024
    nsecs: 284934385
  frame_id: ''
s: 0.133250609378
n: -0.00508166537389
alpha: -0.00115343603486
v: 0.00267352606931
---
header: 
  seq: 54
  stamp: 
    secs: 1611879024
    nsecs: 294928768
  frame_id: ''
s: 0.133345964409
n: -0.00516197640819
alpha: -0.005255312315
v: 0.00230713275434
---
header: 
  seq: 55
  stamp: 
    secs: 1611879024
    nsecs: 304933245
  frame_id: ''
s: 0.133431715567
n: -0.00523100809498
alpha: -0.00825100938882
v: 0.00276426627322
---
header: 
  seq: 56
  stamp: 
    secs: 1611879024
    nsecs: 314947939
  frame_id: ''
s: 0.133507605547
n: -0.00528934176305
alpha: -0.0103109403812
v: 0.0033705884099
---
header: 
  seq: 57
  stamp: 
    secs: 1611879024
    nsecs: 324936999
  frame_id: ''
s: 0.133573709257
n: -0.00533772792479
alpha: -0.0116075195856
v: 0.00385750475568
---
header: 
  seq: 58
  stamp: 
    secs: 1611879024
    nsecs: 334929028
  frame_id: ''
s: 0.133630357901
n: -0.00537702774445
alpha: -0.0123042596874
v: 0.00417156923149
---
header: 
  seq: 59
  stamp: 
    secs: 1611879024
    nsecs: 344955762
  frame_id: ''
s: 0.133678072782
n: -0.00540816442752
alpha: -0.0125488379748
v: 0.00431964795421
---
header: 
  seq: 60
  stamp: 
    secs: 1611879024
    nsecs: 354935030
  frame_id: ''
s: 0.133717508513
n: -0.00543208368301
alpha: -0.0124692928238
v: 0.0043251974916
---
header: 
  seq: 61
  stamp: 
    secs: 1611879024
    nsecs: 364937136
  frame_id: ''
s: 0.133749405136
n: -0.00544972234523
alpha: -0.0121725897819
v: 0.00421537766488
---
header: 
  seq: 62
  stamp: 
    secs: 1611879024
    nsecs: 374939947
  frame_id: ''
s: 0.133774548495
n: -0.00546198421714
alpha: -0.0117448953193
v: 0.00401662064722
---
header: 
  seq: 63
  stamp: 
    secs: 1611879024
    nsecs: 384935439
  frame_id: ''
s: 0.133793738135
n: -0.00546972220377
alpha: -0.0112530033494
v: 0.00375295554615
---
header: 
  seq: 64
  stamp: 
    secs: 1611879024
    nsecs: 394932796
  frame_id: ''
s: 0.133807761967
n: -0.00547372583618
alpha: -0.0107464659582
v: 0.00344539552853
---
header: 
  seq: 65
  stamp: 
    secs: 1611879024
    nsecs: 404932735
  frame_id: ''
s: 0.13381737687
n: -0.00547471333564
alpha: -0.0102600792989
v: 0.0031117956214
---
header: 
  seq: 66
  stamp: 
    secs: 1611879024
    nsecs: 414936810
  frame_id: ''
s: 0.133823294484
n: -0.00547332743037
alpha: -0.00981646453836
v: 0.00276694121549
---
header: 
  seq: 67
  stamp: 
    secs: 1611879024
    nsecs: 424942973
  frame_id: ''
s: 0.133826171414
n: -0.00547013420739
alpha: -0.00942856011525
v: 0.00242275607515
---
header: 
  seq: 68
  stamp: 
    secs: 1611879024
    nsecs: 434937407
  frame_id: ''
s: 0.133826603152
n: -0.00546562435697
alpha: -0.00910190480544
v: 0.00208857194982
---
header: 
  seq: 69
  stamp: 
    secs: 1611879024
    nsecs: 444934883
  frame_id: ''
s: 0.133825121045
n: -0.00546021624327
alpha: -0.00883664155843
v: 0.00177142672999
---
header: 
  seq: 70
  stamp: 
    secs: 1611879024
    nsecs: 454933395
  frame_id: ''
s: 0.133822191737
n: -0.00545426030967
alpha: -0.00862921079298
v: 0.00147637124697
---
header: 
  seq: 71
  stamp: 
    secs: 1611879024
    nsecs: 464932324
  frame_id: ''
s: 0.133818218529
n: -0.00544804439927
alpha: -0.00847373021642
v: 0.00120677297218
---
header: 
  seq: 72
  stamp: 
    secs: 1611879024
    nsecs: 474935360
  frame_id: ''
s: 0.133813544213
n: -0.0054417996389
alpha: -0.00836307783302
v: 0.000964611327382
---
header: 
  seq: 73
  stamp: 
    secs: 1611879024
    nsecs: 484935158
  frame_id: ''
s: 0.133808454953
n: -0.00543570659725
alpha: -0.00828970723344
v: 0.000750766913651
---
header: 
  seq: 74
  stamp: 
    secs: 1611879024
    nsecs: 494930388
  frame_id: ''
s: 0.133803184894
n: -0.00542990148445
alpha: -0.00824623103128
v: 0.000565321216283
---
header: 
  seq: 75
  stamp: 
    secs: 1611879024
    nsecs: 504932826
  frame_id: ''
s: 0.133797921188
n: -0.00542448221108
alpha: -0.00822581081327
v: 0.000407921289713
---
header: 
  seq: 76
  stamp: 
    secs: 1611879024
    nsecs: 514931220
  frame_id: ''
s: 0.133792809221
n: -0.00541951416877
alpha: -0.00822239139633
v: 0.000278389493492
---
header: 
  seq: 77
  stamp: 
    secs: 1611879024
    nsecs: 524937152
  frame_id: ''
s: 0.133787957838
n: -0.00541503563317
alpha: -0.00823081454019
v: 0.000178220431636
---
header: 
  seq: 78
  stamp: 
    secs: 1611879024
    nsecs: 534939855
  frame_id: ''
s: 0.133783444429
n: -0.00541106272236
alpha: -0.00824684336015
v: 0.000114684012481
---
header: 
  seq: 79
  stamp: 
    secs: 1611879024
    nsecs: 544933106
  frame_id: ''
s: 0.133779319758
n: -0.00540759387138
alpha: -0.00826712415028
v: 0.000100381140068
---
header: 
  seq: 80
  stamp: 
    secs: 1611879024
    nsecs: 554931025
  frame_id: ''
s: 0.133775612468
n: -0.00540461380556
alpha: -0.00828910763176
v: 0.000120806448885
---
header: 
  seq: 81
  stamp: 
    secs: 1611879024
    nsecs: 564933315
  frame_id: ''
s: 0.133772333197
n: -0.00540209701315
alpha: -0.00831094711512
v: 0.000147049346753
---
header: 
  seq: 82
  stamp: 
    secs: 1611879024
    nsecs: 574930210
  frame_id: ''
s: 0.133769478282
n: -0.00540001073177
alpha: -0.00833138692465
v: 0.000167948516317
---
header: 
  seq: 83
  stamp: 
    secs: 1611879024
    nsecs: 584943364
  frame_id: ''
s: 0.133767033038
n: -0.00539831747341
alpha: -0.00834965080321
v: 0.000181332862067
---
header: 
  seq: 84
  stamp: 
    secs: 1611879024
    nsecs: 594936234
  frame_id: ''
s: 0.133764974619
n: -0.00539697712008
alpha: -0.00836533695218
v: 0.000187540983224
---
header: 
  seq: 85
  stamp: 
    secs: 1611879024
    nsecs: 604933154
  frame_id: ''
s: 0.133763274469
n: -0.0053959486271
alpha: -0.00837832386664
v: 0.000187601464911
---
header: 
  seq: 86
  stamp: 
    secs: 1611879024
    nsecs: 614929534
  frame_id: ''
s: 0.133794109048
n: -0.00471135127069
alpha: 0.0363648070684
v: 0.00871923441945
---
header: 
  seq: 87
  stamp: 
    secs: 1611879024
    nsecs: 624927810
  frame_id: ''
s: 0.13382122169
n: -0.00411220654772
alpha: 0.072782708583
v: 0.0151513720557
---
header: 
  seq: 88
  stamp: 
    secs: 1611879024
    nsecs: 634947529
  frame_id: ''
s: 0.133812474719
n: -0.00428007392159
alpha: 0.0565780086102
v: 0.0111406519191
---
header: 
  seq: 89
  stamp: 
    secs: 1611879024
    nsecs: 644938143
  frame_id: ''
s: 0.133804247687
n: -0.00444179936967
alpha: 0.0416129140119
v: 0.00771062481945
---
header: 
  seq: 90
  stamp: 
    secs: 1611879024
    nsecs: 654934507
  frame_id: ''
s: 0.13379665449
n: -0.00459423750534
alpha: 0.0283880092477
v: 0.00482799076189
---
header: 
  seq: 91
  stamp: 
    secs: 1611879024
    nsecs: 664959757
  frame_id: ''
s: 0.133789766036
n: -0.0047352009435
alpha: 0.0171423251985
v: 0.00245181964386
---
header: 
  seq: 92
  stamp: 
    secs: 1611879024
    nsecs: 674934875
  frame_id: ''
s: 0.13378361782
n: -0.00486330840926
alpha: 0.00792159131221
v: 0.000539729105271
---
header: 
  seq: 93
  stamp: 
    secs: 1611879024
    nsecs: 684931076
  frame_id: ''
s: 0.133778216806
n: -0.00497784411979
alpha: 0.000636477398354
v: 0.000975769524289
---
header: 
  seq: 94
  stamp: 
    secs: 1611879024
    nsecs: 694932186
  frame_id: ''
s: 0.133773547572
n: -0.00507862985581
alpha: -0.00488948749011
v: 0.00211796152833
---
header: 
  seq: 95
  stamp: 
    secs: 1611879024
    nsecs: 704956361
  frame_id: ''
s: 0.133769577714
n: -0.00516591047044
alpha: -0.00888191807987
v: 0.00294827961958
---
header: 
  seq: 96
  stamp: 
    secs: 1611879024
    nsecs: 714945745
  frame_id: ''
s: 0.133766262526
n: -0.00524025304225
alpha: -0.0115866321722
v: 0.00351202608121
---
header: 
  seq: 97
  stamp: 
    secs: 1611879024
    nsecs: 724938970
  frame_id: ''
s: 0.133763548977
n: -0.00530245945283
alpha: -0.0132486340641
v: 0.00385260409342
---
header: 
  seq: 98
  stamp: 
    secs: 1611879024
    nsecs: 734931387
  frame_id: ''
s: 0.133761379044
n: -0.0053534918438
alpha: -0.0140977749389
v: 0.00401007798319
---
header: 
  seq: 99
  stamp: 
    secs: 1611879024
    nsecs: 744928973
  frame_id: ''
s: 0.133759692437
n: -0.00539441016984
alpha: -0.0143398386363
v: 0.00402073486756
---
header: 
  seq: 100
  stamp: 
    secs: 1611879024
    nsecs: 754929618
  frame_id: ''
s: 0.133758428784
n: -0.0054263209013
alpha: -0.0141518727347
v: 0.00391689890707
---
header: 
  seq: 101
  stamp: 
    secs: 1611879024
    nsecs: 764928485
  frame_id: ''
s: 0.133757529335
n: -0.00545033582928
alpha: -0.0136807041518
v: 0.00372690662487
---
header: 
  seq: 102
  stamp: 
    secs: 1611879024
    nsecs: 774944503
  frame_id: ''
s: 0.133756938238
n: -0.00546753987693
alpha: -0.0130437233185
v: 0.00347520138872
---
header: 
  seq: 103
  stamp: 
    secs: 1611879024
    nsecs: 784928081
  frame_id: ''
s: 0.133756603453
n: -0.00547896681328
alpha: -0.0123311747137
v: 0.0031825162911
---
header: 
  seq: 104
  stamp: 
    secs: 1611879024
    nsecs: 794929058
  frame_id: ''
s: 0.133756477358
n: -0.00548558179079
alpha: -0.0116093422042
v: 0.00286612018006
---
header: 
  seq: 105
  stamp: 
    secs: 1611879024
    nsecs: 804935471
  frame_id: ''
s: 0.133756517092
n: -0.00548826967709
alpha: -0.010924157205
v: 0.00254010576597
---
header: 
  seq: 106
  stamp: 
    secs: 1611879024
    nsecs: 814934383
  frame_id: ''
s: 0.133788893358
n: -0.00480398811534
alpha: 0.0344486148898
v: 0.00637570298137
---
header: 
  seq: 107
  stamp: 
    secs: 1611879024
    nsecs: 824933700
  frame_id: ''
s: 0.13368461852
n: -0.00422261294691
alpha: 0.0714117300007
v: 0.0129075768666
---
header: 
  seq: 108
  stamp: 
    secs: 1611879024
    nsecs: 834941902
  frame_id: ''
s: 0.133693566398
n: -0.00438363786192
alpha: 0.0556619628016
v: 0.00926462343213
---
header: 
  seq: 109
  stamp: 
    secs: 1611879024
    nsecs: 844942089
  frame_id: ''
s: 0.133702418115
n: -0.00453715318367
alpha: 0.041062891478
v: 0.0061732650482
---
header: 
  seq: 110
  stamp: 
    secs: 1611879024
    nsecs: 854934539
  frame_id: ''
s: 0.13371094818
n: -0.00468054642769
alpha: 0.0281213361084
v: 0.00359761266864
---
header: 
  seq: 111
  stamp: 
    secs: 1611879024
    nsecs: 864934873
  frame_id: ''
s: 0.13371899018
n: -0.00481206796586
alpha: 0.0170855218288
v: 0.00149732309702
---
header: 
  seq: 112
  stamp: 
    secs: 1611879024
    nsecs: 874933328
  frame_id: ''
s: 0.133726428298
n: -0.0049306880706
alpha: 0.00801185009269
v: 0.000237532537016
---
header: 
  seq: 113
  stamp: 
    secs: 1611879024
    nsecs: 884935421
  frame_id: ''
s: 0.133733189294
n: -0.00503596565072
alpha: 0.000822038604781
v: 0.0014950496979
---
header: 
  seq: 114
  stamp: 
    secs: 1611879024
    nsecs: 894944152
  frame_id: ''
s: 0.133739235089
n: -0.00512792974162
alpha: -0.00464973653151
v: 0.00246179931428
---
header: 
  seq: 115
  stamp: 
    secs: 1611879024
    nsecs: 904936840
  frame_id: ''
s: 0.133744556012
n: -0.00520697422045
alpha: -0.00861935171318
v: 0.00314632814788
---
header: 
  seq: 116
  stamp: 
    secs: 1611879024
    nsecs: 914932102
  frame_id: ''
s: 0.133749164756
n: -0.00527376574352
alpha: -0.0113240886906
v: 0.00359130979971
---
header: 
  seq: 117
  stamp: 
    secs: 1611879024
    nsecs: 924934517
  frame_id: ''
s: 0.133753091056
n: -0.00532916453516
alpha: -0.0130017473337
v: 0.00383737216824
---
header: 
  seq: 118
  stamp: 
    secs: 1611879024
    nsecs: 934933823
  frame_id: ''
s: 0.133756377071
n: -0.00537415738118
alpha: -0.0138763152422
v: 0.00392179424143
---
header: 
  seq: 119
  stamp: 
    secs: 1611879024
    nsecs: 944938834
  frame_id: ''
s: 0.133759073447
n: -0.00540980198332
alpha: -0.0141489799451
v: 0.00387811598351
---
header: 
  seq: 120
  stamp: 
    secs: 1611879024
    nsecs: 954935901
  frame_id: ''
s: 0.133761236021
n: -0.00543718170201
alpha: -0.013993334119
v: 0.00373601013655
---
header: 
  seq: 121
  stamp: 
    secs: 1611879024
    nsecs: 964937489
  frame_id: ''
s: 0.133762923106
n: -0.00545736964094
alpha: -0.0135537370216
v: 0.00352130629672
---
header: 
  seq: 122
  stamp: 
    secs: 1611879024
    nsecs: 974934144
  frame_id: ''
s: 0.13376419332
n: -0.00547140099904
alpha: -0.0129459343067
v: 0.00325612156535
---
header: 
  seq: 123
  stamp: 
    secs: 1611879024
    nsecs: 984935315
  frame_id: ''
s: 0.133765103878
n: -0.00548025262374
alpha: -0.0122591870145
v: 0.00295906740179
---
header: 
  seq: 124
  stamp: 
    secs: 1611879024
    nsecs: 994936547
  frame_id: ''
s: 0.133765709311
n: -0.00548482873542
alpha: -0.0115593069178
v: 0.00264550897108
---
header: 
  seq: 125
  stamp: 
    secs: 1611879025
    nsecs:   4941276
  frame_id: ''
s: 0.133766060542
n: -0.00548595184972
alpha: -0.0108921315323
v: 0.00232785770813
---
header: 
  seq: 126
  stamp: 
    secs: 1611879025
    nsecs:  14935404
  frame_id: ''
s: 0.133766204266
n: -0.00548435799579
alpha: -0.0102870931006
v: 0.00201588139851
---
header: 
  seq: 127
  stamp: 
    secs: 1611879025
    nsecs:  24930380
  frame_id: ''
s: 0.133766182589
n: -0.00548069540918
alpha: -0.00976063928649
v: 0.00171701916467
---
header: 
  seq: 128
  stamp: 
    secs: 1611879025
    nsecs:  34934312
  frame_id: ''
s: 0.133766032872
n: -0.00547552596362
alpha: -0.00931934856195
v: 0.00143669145125
---
header: 
  seq: 129
  stamp: 
    secs: 1611879025
    nsecs:  44932887
  frame_id: ''
s: 0.133765787744
n: -0.00546932869318
alpha: -0.00896265097818
v: 0.00117859746584
---
header: 
  seq: 130
  stamp: 
    secs: 1611879025
    nsecs:  54934367
  frame_id: ''
s: 0.133765475245
n: -0.0054625048419
alpha: -0.00868511669044
v: 0.00094499457557
---
header: 
  seq: 131
  stamp: 
    secs: 1611879025
    nsecs:  64941540
  frame_id: ''
s: 0.133765119061
n: -0.00545538396078
alpha: -0.00847831222484
v: 0.000736955913082
---
header: 
  seq: 132
  stamp: 
    secs: 1611879025
    nsecs:  74938626
  frame_id: ''
s: 0.133776854413
n: -0.00463164391718
alpha: 0.0364212460082
v: 0.00969702093374
---
header: 
  seq: 133
  stamp: 
    secs: 1611879025
    nsecs:  84934467
  frame_id: ''
s: 0.133774956239
n: -0.00472642839247
alpha: 0.0281893799686
v: 0.00729034641532
---
header: 
  seq: 134
  stamp: 
    secs: 1611879025
    nsecs:  94933811
  frame_id: ''
s: 0.133672578991
n: -0.00415513113164
alpha: 0.0651272891876
v: 0.0135928034392
---
header: 
  seq: 135
  stamp: 
    secs: 1611879025
    nsecs: 104928893
  frame_id: ''
s: 0.133683338528
n: -0.00432587633682
alpha: 0.0497346627925
v: 0.00974058258598
---
header: 
  seq: 136
  stamp: 
    secs: 1611879025
    nsecs: 114940590
  frame_id: ''
s: 0.133693884544
n: -0.00448856271877
alpha: 0.0357332123276
v: 0.00647311192287
---
header: 
  seq: 137
  stamp: 
    secs: 1611879025
    nsecs: 124939654
  frame_id: ''
s: 0.133703970376
n: -0.00464044407928
alpha: 0.0235183084845
v: 0.00375196394817
---
header: 
  seq: 138
  stamp: 
    secs: 1611879025
    nsecs: 134930306
  frame_id: ''
s: 0.133713417011
n: -0.0047796858377
alpha: 0.0132541904646
v: 0.00153368667579
---
header: 
  seq: 139
  stamp: 
    secs: 1611879025
    nsecs: 144957369
  frame_id: ''
s: 0.133722103043
n: -0.00490521360824
alpha: 0.0049370789075
v: 0.00027715557918
---
header: 
  seq: 140
  stamp: 
    secs: 1611879025
    nsecs: 154928045
  frame_id: ''
s: 0.133729955257
n: -0.00501657422677
alpha: -0.00155160688576
v: 0.00161854146931
---
header: 
  seq: 141
  stamp: 
    secs: 1611879025
    nsecs: 164936022
  frame_id: ''
s: 0.133736939964
n: -0.00511381033639
alpha: -0.00640197681428
v: 0.00263712128
---
header: 
  seq: 142
  stamp: 
    secs: 1611879025
    nsecs: 174944538
  frame_id: ''
s: 0.133775263817
n: -0.00451350891264
alpha: 0.0349117119895
v: 0.00525816430945
---
header: 
  seq: 143
  stamp: 
    secs: 1611879025
    nsecs: 184938230
  frame_id: ''
s: 0.133776518315
n: -0.00466928488686
alpha: 0.0243148694823
v: 0.00266535033151
---
header: 
  seq: 144
  stamp: 
    secs: 1611879025
    nsecs: 194930021
  frame_id: ''
s: 0.133777072923
n: -0.00481075143953
alpha: 0.0151110304678
v: 0.000680679141529
---
header: 
  seq: 145
  stamp: 
    secs: 1611879025
    nsecs: 204931267
  frame_id: ''
s: 0.133777067709
n: -0.00493714321842
alpha: 0.00740917050701
v: 0.0012021355416
---
header: 
  seq: 146
  stamp: 
    secs: 1611879025
    nsecs: 214930323
  frame_id: ''
s: 0.133776627225
n: -0.0050482853676
alpha: 0.00119441418562
v: 0.00241255491476
---
header: 
  seq: 147
  stamp: 
    secs: 1611879025
    nsecs: 224936238
  frame_id: ''
s: 0.133775860486
n: -0.00514446717934
alpha: -0.00363201680973
v: 0.00330849932344
---
header: 
  seq: 148
  stamp: 
    secs: 1611879025
    nsecs: 234933983
  frame_id: ''
s: 0.133774861378
n: -0.00522633087964
alpha: -0.00722045647098
v: 0.00391707224378
---
header: 
  seq: 149
  stamp: 
    secs: 1611879025
    nsecs: 244933466
  frame_id: ''
s: 0.133773709403
n: -0.00529477528587
alpha: -0.00974757793083
v: 0.00428252431227
---
header: 
  seq: 150
  stamp: 
    secs: 1611879025
    nsecs: 254928423
  frame_id: ''
s: 0.133772470659
n: -0.00535087371833
alpha: -0.0113975609128
v: 0.00444794226922
---
header: 
  seq: 151
  stamp: 
    secs: 1611879025
    nsecs: 264929224
  frame_id: ''
s: 0.133771198975
n: -0.00539580528757
alpha: -0.0123487516503
v: 0.00445287916535
---
header: 
  seq: 152
  stamp: 
    secs: 1611879025
    nsecs: 274931990
  frame_id: ''
s: 0.133769937137
n: -0.00543079850112
alpha: -0.0127648777197
v: 0.00433272949884
---
header: 
  seq: 153
  stamp: 
    secs: 1611879025
    nsecs: 284939478
  frame_id: ''
s: 0.133768718149
n: -0.00545708602483
alpha: -0.0127899045742
v: 0.00411857415037
---
header: 
  seq: 154
  stamp: 
    secs: 1611879025
    nsecs: 294933024
  frame_id: ''
s: 0.133767566482
n: -0.00547586938146
alpha: -0.0125456916281
v: 0.00383723829626
---
header: 
  seq: 155
  stamp: 
    secs: 1611879025
    nsecs: 304930391
  frame_id: ''
s: 0.133766499296
n: -0.00548829236283
alpha: -0.012131704571
v: 0.00351147467465
---
header: 
  seq: 156
  stamp: 
    secs: 1611879025
    nsecs: 314929126
  frame_id: ''
s: 0.133765527578
n: -0.00549542196043
alpha: -0.0116261525276
v: 0.00316022731712
---
header: 
  seq: 157
  stamp: 
    secs: 1611879025
    nsecs: 324928451
  frame_id: ''
s: 0.133764657213
n: -0.00549823567576
alpha: -0.0110880329277
v: 0.00279894621878
---
header: 
  seq: 158
  stamp: 
    secs: 1611879025
    nsecs: 334935368
  frame_id: ''
s: 0.13376388995
n: -0.00549761414634
alpha: -0.0105596759775
v: 0.0024399311201
---
header: 
  seq: 159
  stamp: 
    secs: 1611879025
    nsecs: 344936876
  frame_id: ''
s: 0.133662700916
n: -0.00483060545561
alpha: 0.0346840166665
v: 0.00636756244149
---
header: 
  seq: 160
  stamp: 
    secs: 1611879025
    nsecs: 354928866
  frame_id: ''
s: 0.133674660098
n: -0.00490807093473
alpha: 0.0267912428762
v: 0.00458626281484
---
header: 
  seq: 161
  stamp: 
    secs: 1611879025
    nsecs: 364928840
  frame_id: ''
s: 0.133686381194
n: -0.00498197034118
alpha: 0.0192910947182
v: 0.00307364705221
---
header: 
  seq: 162
  stamp: 
    secs: 1611879025
    nsecs: 374931642
  frame_id: ''
s: 0.13369759023
n: -0.00505103520568
alpha: 0.0125065633057
v: 0.00181301723626
---
header: 
  seq: 163
  stamp: 
    secs: 1611879025
    nsecs: 384933147
  frame_id: ''
s: 0.133708088394
n: -0.00511441377629
alpha: 0.00661613723183
v: 0.000787488049405
---
header: 
  seq: 164
  stamp: 
    secs: 1611879025
    nsecs: 394941527
  frame_id: ''
s: 0.133717740884
n: -0.00517160216642
alpha: 0.00168874431931
v: 0.000146699013382
---
header: 
  seq: 165
  stamp: 
    secs: 1611879025
    nsecs: 404939092
  frame_id: ''
s: 0.133726466437
n: -0.00522238110228
alpha: -0.00228579994601
v: 0.000702790301526
---
header: 
  seq: 166
  stamp: 
    secs: 1611879025
    nsecs: 414930783
  frame_id: ''
s: 0.133734227701
n: -0.00526675878929
alpha: -0.00537123410433
v: 0.00117549849171
---
header: 
  seq: 167
  stamp: 
    secs: 1611879025
    nsecs: 424926474
  frame_id: ''
s: 0.133741022517
n: -0.00530492013108
alpha: -0.00766416285957
v: 0.0015129653942
---
header: 
  seq: 168
  stamp: 
    secs: 1611879025
    nsecs: 434928185
  frame_id: ''
s: 0.133746876159
n: -0.00533718230559
alpha: -0.00927793603852
v: 0.00173387718782
---
header: 
  seq: 169
  stamp: 
    secs: 1611879025
    nsecs: 444928510
  frame_id: ''
s: 0.133751834532
n: -0.00536395652444
alpha: -0.0103306144373
v: 0.00185758348031
---
header: 
  seq: 170
  stamp: 
    secs: 1611879025
    nsecs: 454939262
  frame_id: ''
s: 0.133755958307
n: -0.00538571566792
alpha: -0.0109364505122
v: 0.00190211017205
---
header: 
  seq: 171
  stamp: 
    secs: 1611879025
    nsecs: 464936747
  frame_id: ''
s: 0.133759317949
n: -0.0054029673926
alpha: -0.011200282893
v: 0.00188375964459
---
header: 
  seq: 172
  stamp: 
    secs: 1611879025
    nsecs: 474934048
  frame_id: ''
s: 0.133761989574
n: -0.00541623224522
alpha: -0.0112142596649
v: 0.00181699192702
---
header: 
  seq: 173
  stamp: 
    secs: 1611879025
    nsecs: 484930055
  frame_id: ''
s: 0.13376405157
n: -0.00542602628086
alpha: -0.0110563511498
v: 0.00171441549583
---
header: 
  seq: 174
  stamp: 
    secs: 1611879025
    nsecs: 494958273
  frame_id: ''
s: 0.133765581907
n: -0.00543284766906
alpha: -0.0107901763909
v: 0.00158684114236
---
header: 
  seq: 175
  stamp: 
    secs: 1611879025
    nsecs: 504933598
  frame_id: ''
s: 0.133798864718
n: -0.0047533266718
alpha: 0.034287756896
v: 0.00718709044252
---
header: 
  seq: 176
  stamp: 
    secs: 1611879025
    nsecs: 514938024
  frame_id: ''
s: 0.133795540238
n: -0.00484079967073
alpha: 0.0263051105365
v: 0.00518836918206
---
header: 
  seq: 177
  stamp: 
    secs: 1611879025
    nsecs: 524933227
  frame_id: ''
s: 0.133792002949
n: -0.00492435874971
alpha: 0.0187723965278
v: 0.00348998743708
---
header: 
  seq: 178
  stamp: 
    secs: 1611879025
    nsecs: 534931536
  frame_id: ''
s: 0.133788398792
n: -0.00500254334624
alpha: 0.0119964718981
v: 0.00207351602614
---
header: 
  seq: 179
  stamp: 
    secs: 1611879025
    nsecs: 544958929
  frame_id: ''
s: 0.133784843143
n: -0.00507436736174
alpha: 0.00614232688306
v: 0.000920202399691
---
header: 
  seq: 180
  stamp: 
    secs: 1611879025
    nsecs: 554934037
  frame_id: ''
s: 0.133781424384
n: -0.0051392412234
alpha: 0.00126799954946
v: 0.000161805955089
---
header: 
  seq: 181
  stamp: 
    secs: 1611879025
    nsecs: 564941141
  frame_id: ''
s: 0.133778207438
n: -0.00519690020765
alpha: -0.00264514974909
v: 0.000760428559916
---
header: 
  seq: 182
  stamp: 
    secs: 1611879025
    nsecs: 574933348
  frame_id: ''
s: 0.133775237173
n: -0.00524733963239
alpha: -0.00566714421105
v: 0.0012933682088
---
header: 
  seq: 183
  stamp: 
    secs: 1611879025
    nsecs: 584930438
  frame_id: ''
s: 0.133772541606
n: -0.00529075719925
alpha: -0.00789901286953
v: 0.00167516099118
---
header: 
  seq: 184
  stamp: 
    secs: 1611879025
    nsecs: 594929873
  frame_id: ''
s: 0.133770134868
n: -0.00532750250466
alpha: -0.00945699270791
v: 0.00192619069125
---
header: 
  seq: 185
  stamp: 
    secs: 1611879025
    nsecs: 604931704
  frame_id: ''
s: 0.133768019892
n: -0.00535803353497
alpha: -0.0104608073186
v: 0.00206801839761
---
header: 
  seq: 186
  stamp: 
    secs: 1611879025
    nsecs: 614928691
  frame_id: ''
s: 0.133766190825
n: -0.00538287980656
alpha: -0.0110254346882
v: 0.00212079849405
---
header: 
  seq: 187
  stamp: 
    secs: 1611879025
    nsecs: 624937323
  frame_id: ''
s: 0.13376463514
n: -0.0054026117025
alpha: -0.011255754096
v: 0.00210278342348
---
header: 
  seq: 188
  stamp: 
    secs: 1611879025
    nsecs: 634939042
  frame_id: ''
s: 0.13376333547
n: -0.00541781548364
alpha: -0.0112434829809
v: 0.00203017750828
---
header: 
  seq: 189
  stamp: 
    secs: 1611879025
    nsecs: 644935092
  frame_id: ''
s: 0.133762271167
n: -0.00542907341018
alpha: -0.0110658640228
v: 0.00191712089332
---
header: 
  seq: 190
  stamp: 
    secs: 1611879025
    nsecs: 654933839
  frame_id: ''
s: 0.133761419609
n: -0.00543694839228
alpha: -0.0107856286474
v: 0.00177574646127
---
header: 
  seq: 191
  stamp: 
    secs: 1611879025
    nsecs: 664933290
  frame_id: ''
s: 0.133760757266
n: -0.00544197259145
alpha: -0.0104518365521
v: 0.00161628426277
---
header: 
  seq: 192
  stamp: 
    secs: 1611879025
    nsecs: 674937226
  frame_id: ''
s: 0.13376026056
n: -0.0054446394125
alpha: -0.0101012649473
v: 0.00144719750142
---
header: 
  seq: 193
  stamp: 
    secs: 1611879025
    nsecs: 684933604
  frame_id: ''
s: 0.133659383177
n: -0.00478166569981
alpha: 0.0349934048695
v: 0.00718143497676
---
header: 
  seq: 194
  stamp: 
    secs: 1611879025
    nsecs: 694931266
  frame_id: ''
s: 0.13367167728
n: -0.00486363433351
alpha: 0.0269801773078
v: 0.00524092400426
---
header: 
  seq: 195
  stamp: 
    secs: 1611879025
    nsecs: 704930146
  frame_id: ''
s: 0.133683742054
n: -0.00494227544282
alpha: 0.019386309981
v: 0.00358589371471
---
header: 
  seq: 196
  stamp: 
    secs: 1611879025
    nsecs: 714928025
  frame_id: ''
s: 0.133695291995
n: -0.00501613530713
alpha: 0.0125319454053
v: 0.00219945639205
---
header: 
  seq: 197
  stamp: 
    secs: 1611879025
    nsecs: 724943557
  frame_id: ''
s: 0.133706119401
n: -0.00508421660473
alpha: 0.00659219899352
v: 0.00106218939321
---
header: 
  seq: 198
  stamp: 
    secs: 1611879025
    nsecs: 734941575
  frame_id: ''
s: 0.133716082878
n: -0.00514590480228
alpha: 0.00163246721359
v: 0.000179846088762
---
header: 
  seq: 199
  stamp: 
    secs: 1611879025
    nsecs: 744938811
  frame_id: ''
s: 0.133725096548
n: -0.00520090022709
alpha: -0.00236086370975
v: 0.000587737141207
---
header: 
  seq: 200
  stamp: 
    secs: 1611879025
    nsecs: 754936424
  frame_id: ''
s: 0.133733120105
n: -0.00524915645391
alpha: -0.00545468738475
v: 0.00112359053782
---
header: 
  seq: 201
  stamp: 
    secs: 1611879025
    nsecs: 764933760
  frame_id: ''
s: 0.133740149815
n: -0.00529082532104
alpha: -0.00774838790537
v: 0.00151173549463
---
header: 
  seq: 202
  stamp: 
    secs: 1611879025
    nsecs: 774933075
  frame_id: ''
s: 0.13374621049
n: -0.0053262086362
alpha: -0.00935767171431
v: 0.00177200566968
---
header: 
  seq: 203
  stamp: 
    secs: 1611879025
    nsecs: 784935230
  frame_id: ''
s: 0.133751348451
n: -0.00535571643217
alpha: -0.0104025263941
v: 0.00192520918679
---
header: 
  seq: 204
  stamp: 
    secs: 1611879025
    nsecs: 794939857
  frame_id: ''
s: 0.133755625462
n: -0.00537983148099
alpha: -0.0109987221348
v: 0.00199076317641
---
header: 
  seq: 205
  stamp: 
    secs: 1611879025
    nsecs: 804931008
  frame_id: ''
s: 0.133759113568
n: -0.00539907966546
alpha: -0.0112522448409
v: 0.00198627713074
---
header: 
  seq: 206
  stamp: 
    secs: 1611879025
    nsecs: 814927927
  frame_id: ''
s: 0.133761890809
n: -0.00541400573263
alpha: -0.0112560679048
v: 0.00192742222212
---
header: 
  seq: 207
  stamp: 
    secs: 1611879025
    nsecs: 824933422
  frame_id: ''
s: 0.133764037705
n: -0.00542515390941
alpha: -0.0110887173667
v: 0.0018279123163
---
header: 
  seq: 208
  stamp: 
    secs: 1611879025
    nsecs: 834929193
  frame_id: ''
s: 0.133765634462
n: -0.00543305284046
alpha: -0.010814150319
v: 0.00169955173342
---
header: 
  seq: 209
  stamp: 
    secs: 1611879025
    nsecs: 844927809
  frame_id: ''
s: 0.133666235445
n: -0.00477447165163
alpha: 0.0342709566299
v: 0.00687228252584
---
header: 
  seq: 210
  stamp: 
    secs: 1611879025
    nsecs: 854928018
  frame_id: ''
s: 0.13367948828
n: -0.00486005730104
alpha: 0.0262942222811
v: 0.00492299761176
---
header: 
  seq: 211
  stamp: 
    secs: 1611879025
    nsecs: 864952800
  frame_id: ''
s: 0.133692080893
n: -0.00494161138378
alpha: 0.0187662043397
v: 0.00326961178899
---
header: 
  seq: 212
  stamp: 
    secs: 1611879025
    nsecs: 874941934
  frame_id: ''
s: 0.133703808814
n: -0.00501775539818
alpha: 0.0119938635663
v: 0.00189249020601
---
header: 
  seq: 213
  stamp: 
    secs: 1611879025
    nsecs: 884939887
  frame_id: ''
s: 0.133714537125
n: -0.00508756806273
alpha: 0.00614232747219
v: 0.000768706036923
---
header: 
  seq: 214
  stamp: 
    secs: 1611879025
    nsecs: 894933442
  frame_id: ''
s: 0.133724188771
n: -0.00515050940239
alpha: 0.00126978618611
v: 0.000128051503255
---
header: 
  seq: 215
  stamp: 
    secs: 1611879025
    nsecs: 904933839
  frame_id: ''
s: 0.133732733846
n: -0.00520635107087
alpha: -0.00264224681307
v: 0.000820180577013
---
header: 
  seq: 216
  stamp: 
    secs: 1611879025
    nsecs: 914936941
  frame_id: ''
s: 0.133740179949
n: -0.00525511346642
alpha: -0.00566364999296
v: 0.00133624207433
---
header: 
  seq: 217
  stamp: 
    secs: 1611879025
    nsecs: 924941572
  frame_id: ''
s: 0.133746563643
n: -0.00529700988508
alpha: -0.00789532202505
v: 0.00170038258432
---
header: 
  seq: 218
  stamp: 
    secs: 1611879025
    nsecs: 934934640
  frame_id: ''
s: 0.133751942991
n: -0.00533239770487
alpha: -0.0094533871347
v: 0.00193618696407
---
header: 
  seq: 219
  stamp: 
    secs: 1611879025
    nsecs: 944930856
  frame_id: ''
s: 0.133756391164
n: -0.00536173640014
alpha: -0.0104574749254
v: 0.00206559442698
---
header: 
  seq: 220
  stamp: 
    secs: 1611879025
    nsecs: 954928245
  frame_id: ''
s: 0.133759991042
n: -0.00538555203879
alpha: -0.0110224878437
v: 0.0021086388742
---
header: 
  seq: 221
  stamp: 
    secs: 1611879025
    nsecs: 964927371
  frame_id: ''
s: 0.133762830744
n: -0.00540440781209
alpha: -0.0112532467593
v: 0.00208331150109
---
header: 
  seq: 222
  stamp: 
    secs: 1611879025
    nsecs: 974933172
  frame_id: ''
s: 0.133765000007
n: -0.00541888007827
alpha: -0.0112414259089
v: 0.00200551246507
---
header: 
  seq: 223
  stamp: 
    secs: 1611879025
    nsecs: 984934384
  frame_id: ''
s: 0.134715920684
n: -0.00542156185808
alpha: -0.0110642377552
v: 0.0123288560345
---
header: 
  seq: 224
  stamp: 
    secs: 1611879025
    nsecs: 994935272
  frame_id: ''
s: 0.136497371354
n: -0.00541399739024
alpha: -0.0107843941962
v: 0.0330585829711
---
header: 
  seq: 225
  stamp: 
    secs: 1611879026
    nsecs:   4932321
  frame_id: ''
s: 0.138044907
n: -0.00540565099881
alpha: -0.0104509438835
v: 0.0483169419533
---
header: 
  seq: 226
  stamp: 
    secs: 1611879026
    nsecs:  14937108
  frame_id: ''
s: 0.139246705955
n: -0.00460044293349
alpha: 0.0346528367936
v: 0.0580390311089
---
header: 
  seq: 227
  stamp: 
    secs: 1611879026
    nsecs:  24933991
  frame_id: ''
s: 0.140251588988
n: -0.00389444472358
alpha: 0.0714196322358
v: 0.0649523672238
---
header: 
  seq: 228
  stamp: 
    secs: 1611879026
    nsecs:  34930743
  frame_id: ''
s: 0.141195936969
n: -0.00408178477047
alpha: 0.0555349926608
v: 0.0678505683677
---
header: 
  seq: 229
  stamp: 
    secs: 1611879026
    nsecs:  44937732
  frame_id: ''
s: 0.143860027654
n: -0.00424622823628
alpha: 0.0408511511894
v: 0.0921927211707
---
header: 
  seq: 230
  stamp: 
    secs: 1611879026
    nsecs:  54958462
  frame_id: ''
s: 0.146126996638
n: -0.00440223000539
alpha: 0.0278641761516
v: 0.108858096681
---
header: 
  seq: 231
  stamp: 
    secs: 1611879026
    nsecs:  64955422
  frame_id: ''
s: 0.147901256277
n: -0.00375082886126
alpha: 0.0615660838993
v: 0.118067067502
---
header: 
  seq: 232
  stamp: 
    secs: 1611879026
    nsecs:  74928859
  frame_id: ''
s: 0.149481030353
n: -0.00316604944027
alpha: 0.0889237329402
v: 0.123873771884
---
header: 
  seq: 233
  stamp: 
    secs: 1611879026
    nsecs:  84927371
  frame_id: ''
s: 0.150882167535
n: -0.00264687249223
alpha: 0.110308217894
v: 0.126753901478
---
header: 
  seq: 234
  stamp: 
    secs: 1611879026
    nsecs:  94928759
  frame_id: ''
s: 0.153582148466
n: -0.00196952900329
alpha: 0.126329458612
v: 0.145726899311
---
header: 
  seq: 235
  stamp: 
    secs: 1611879026
    nsecs: 104938244
  frame_id: ''
s: 0.155823986527
n: -0.00139904446511
alpha: 0.137724521973
v: 0.156437997813
---
header: 
  seq: 236
  stamp: 
    secs: 1611879026
    nsecs: 114936715
  frame_id: ''
s: 0.157646971924
n: -0.000927569204417
alpha: 0.145273613797
v: 0.160414838525
---
header: 
  seq: 237
  stamp: 
    secs: 1611879026
    nsecs: 124931818
  frame_id: ''
s: 0.159358837821
n: -0.00050603426422
alpha: 0.149739992149
v: 0.162401128182
---
header: 
  seq: 238
  stamp: 
    secs: 1611879026
    nsecs: 134933911
  frame_id: ''
s: 0.162482411934
n: 0.000642175683722
alpha: 0.107076345063
v: 0.183492273627
---
header: 
  seq: 239
  stamp: 
    secs: 1611879026
    nsecs: 144956036
  frame_id: ''
s: 0.165061948944
n: 0.0016130677502
alpha: 0.0709888506176
v: 0.194876205355
---
header: 
  seq: 240
  stamp: 
    secs: 1611879026
    nsecs: 154928222
  frame_id: ''
s: 0.167267025792
n: 0.00162248353556
alpha: 0.0863068453488
v: 0.197268265003
---
header: 
  seq: 241
  stamp: 
    secs: 1611879026
    nsecs: 164964257
  frame_id: ''
s: 0.169013881734
n: 0.00158035798967
alpha: 0.0996048181208
v: 0.193807859474
---
header: 
  seq: 242
  stamp: 
    secs: 1611879026
    nsecs: 174959339
  frame_id: ''
s: 0.17213367899
n: 0.00231176137522
alpha: 0.0659741461792
v: 0.209687189039
---
header: 
  seq: 243
  stamp: 
    secs: 1611879026
    nsecs: 184933391
  frame_id: ''
s: 0.174679392642
n: 0.00291391270941
alpha: 0.0385193518811
v: 0.216193365622
---
header: 
  seq: 244
  stamp: 
    secs: 1611879026
    nsecs: 194933442
  frame_id: ''
s: 0.176707603575
n: 0.00339874222025
alpha: 0.0169282249463
v: 0.215226298882
---
header: 
  seq: 245
  stamp: 
    secs: 1611879026
    nsecs: 204931994
  frame_id: ''
s: 0.180175417973
n: 0.0037947558574
alpha: 0.000637695145298
v: 0.231838180452
---
header: 
  seq: 246
  stamp: 
    secs: 1611879026
    nsecs: 214932812
  frame_id: ''
s: 0.183005811384
n: 0.00409669397518
alpha: -0.0110535029174
v: 0.238344348479
---
header: 
  seq: 247
  stamp: 
    secs: 1611879026
    nsecs: 224934684
  frame_id: ''
s: 0.187160167413
n: 0.00433299713348
alpha: -0.0188994658238
v: 0.260324999974
---
header: 
  seq: 248
  stamp: 
    secs: 1611879026
    nsecs: 234936683
  frame_id: ''
s: 0.189731366891
n: 0.00474023638759
alpha: -0.0306676503805
v: 0.260324999974
---
header: 
  seq: 249
  stamp: 
    secs: 1611879026
    nsecs: 244934103
  frame_id: ''
s: 0.193423463602
n: 0.00396848546829
alpha: 0.0786654466621
v: 0.271111536129
---
header: 
  seq: 250
  stamp: 
    secs: 1611879026
    nsecs: 254928990
  frame_id: ''
s: 0.196487265288
n: 0.00411383801407
alpha: 0.0573644875259
v: 0.275536780558
---
header: 
  seq: 251
  stamp: 
    secs: 1611879026
    nsecs: 264929721
  frame_id: ''
s: 0.199855259334
n: 0.00422290102786
alpha: 0.0388636093121
v: 0.283183627698
---
header: 
  seq: 252
  stamp: 
    secs: 1611879026
    nsecs: 274936205
  frame_id: ''
s: 0.202535721024
n: 0.00429372106918
alpha: 0.0233818767263
v: 0.28124839532
---
header: 
  seq: 253
  stamp: 
    secs: 1611879026
    nsecs: 284937443
  frame_id: ''
s: 0.205556018113
n: 0.00434079921545
alpha: 0.0108893965064
v: 0.283800707426
---
header: 
  seq: 254
  stamp: 
    secs: 1611879026
    nsecs: 294931192
  frame_id: ''
s: 0.208875535151
n: 0.00436909976935
alpha: 0.0011876182006
v: 0.289781714661
---
header: 
  seq: 255
  stamp: 
    secs: 1611879026
    nsecs: 304933127
  frame_id: ''
s: 0.213403671105
n: 0.00439098501339
alpha: -0.00602564366065
v: 0.31017275235
---
header: 
  seq: 256
  stamp: 
    secs: 1611879026
    nsecs: 314930697
  frame_id: ''
s: 0.217085161804
n: 0.00439331753174
alpha: -0.0111055209246
v: 0.317401391305
---
header: 
  seq: 257
  stamp: 
    secs: 1611879026
    nsecs: 324927224
  frame_id: ''
s: 0.220005483643
n: 0.00438037742846
alpha: -0.0144222357842
v: 0.314182539092
---
header: 
  seq: 258
  stamp: 
    secs: 1611879026
    nsecs: 334941520
  frame_id: ''
s: 0.224151012442
n: 0.00437187459116
alpha: -0.0163342853053
v: 0.326745440775
---
header: 
  seq: 259
  stamp: 
    secs: 1611879026
    nsecs: 344934119
  frame_id: ''
s: 0.227473468074
n: 0.00435310734267
alpha: -0.0171707819235
v: 0.327412273012
---
header: 
  seq: 260
  stamp: 
    secs: 1611879026
    nsecs: 354934374
  frame_id: ''
s: 0.231012434904
n: 0.00433485761441
alpha: -0.0172211142401
v: 0.330717761379
---
header: 
  seq: 261
  stamp: 
    secs: 1611879026
    nsecs: 364938310
  frame_id: ''
s: 0.234740238563
n: 0.00431852049936
alpha: -0.0167302352983
v: 0.335982971939
---
header: 
  seq: 262
  stamp: 
    secs: 1611879026
    nsecs: 374933134
  frame_id: ''
s: 0.237680754936
n: 0.00429715021777
alpha: -0.0158980841671
v: 0.330711083905
---
header: 
  seq: 263
  stamp: 
    secs: 1611879026
    nsecs: 384940333
  frame_id: ''
s: 0.241825600881
n: 0.00428841627371
alpha: -0.0148818716716
v: 0.341217650032
---
header: 
  seq: 264
  stamp: 
    secs: 1611879026
    nsecs: 394936941
  frame_id: ''
s: 0.245131154847
n: 0.00427580137552
alpha: -0.0138001907615
v: 0.339874902796
---
header: 
  seq: 265
  stamp: 
    secs: 1611879026
    nsecs: 404933812
  frame_id: ''
s: 0.249590410189
n: 0.00427647479876
alpha: -0.0127381311616
v: 0.353181161952
---
header: 
  seq: 266
  stamp: 
    secs: 1611879026
    nsecs: 414931477
  frame_id: ''
s: 0.254111561269
n: 0.00428148950947
alpha: -0.0117527768539
v: 0.365595461705
---
header: 
  seq: 267
  stamp: 
    secs: 1611879026
    nsecs: 424927138
  frame_id: ''
s: 0.258673901818
n: 0.00429074204216
alpha: -0.0108786381334
v: 0.376969509698
---
header: 
  seq: 268
  stamp: 
    secs: 1611879026
    nsecs: 434934301
  frame_id: ''
s: 0.262310844994
n: 0.00429605623286
alpha: -0.0101327152588
v: 0.375302981747
---
header: 
  seq: 269
  stamp: 
    secs: 1611879026
    nsecs: 444932337
  frame_id: ''
s: 0.267025277173
n: 0.00431411409361
alpha: -0.00951900822023
v: 0.38736843982
---
header: 
  seq: 270
  stamp: 
    secs: 1611879026
    nsecs: 454932782
  frame_id: ''
s: 0.270930726929
n: 0.00516432147464
alpha: 0.0357211175915
v: 0.387967993889
---
header: 
  seq: 271
  stamp: 
    secs: 1611879026
    nsecs: 464940426
  frame_id: ''
s: 0.275697104611
n: 0.0061677030261
alpha: 0.0725176126569
v: 0.399616322854
---
header: 
  seq: 272
  stamp: 
    secs: 1611879026
    nsecs: 474937421
  frame_id: ''
s: 0.280440344996
n: 0.00704164320234
alpha: 0.101341389439
v: 0.40960415211
---
header: 
  seq: 273
  stamp: 
    secs: 1611879026
    nsecs: 484940856
  frame_id: ''
s: 0.285152444638
n: 0.0077915483108
alpha: 0.122989813776
v: 0.417913668547
---
header: 
  seq: 274
  stamp: 
    secs: 1611879026
    nsecs: 494931329
  frame_id: ''
s: 0.290924278539
n: 0.00848098677103
alpha: 0.145769666611
v: 0.438388882538
---
header: 
  seq: 275
  stamp: 
    secs: 1611879026
    nsecs: 504928977
  frame_id: ''
s: 0.297334434307
n: 0.00983289485308
alpha: 0.10993185893
v: 0.465147845197
---
header: 
  seq: 276
  stamp: 
    secs: 1611879026
    nsecs: 514929910
  frame_id: ''
s: 0.302519739072
n: 0.0109762124385
alpha: 0.0783472563961
v: 0.473106447371
---
header: 
  seq: 277
  stamp: 
    secs: 1611879026
    nsecs: 524930238
  frame_id: ''
s: 0.307557111107
n: 0.0119333860956
alpha: 0.0515560825485
v: 0.477983692302
---
header: 
  seq: 278
  stamp: 
    secs: 1611879026
    nsecs: 534940795
  frame_id: ''
s: 0.312534211156
n: 0.0123555770755
alpha: 0.0919000091478
v: 0.480610368957
---
header: 
  seq: 279
  stamp: 
    secs: 1611879026
    nsecs: 544932925
  frame_id: ''
s: 0.318251386044
n: 0.0130421569755
alpha: 0.063046602661
v: 0.492556229095
---
header: 
  seq: 280
  stamp: 
    secs: 1611879026
    nsecs: 554936237
  frame_id: ''
s: 0.322790913938
n: 0.0135825034694
alpha: 0.0390367613929
v: 0.488111435786
---
header: 
  seq: 281
  stamp: 
    secs: 1611879026
    nsecs: 564931366
  frame_id: ''
s: 0.328186566237
n: 0.0140099991683
alpha: 0.0197732447605
v: 0.494713368831
---
header: 
  seq: 282
  stamp: 
    secs: 1611879026
    nsecs: 574939170
  frame_id: ''
s: 0.332437218972
n: 0.0143238476587
alpha: 0.00490671798419
v: 0.48606599121
---
header: 
  seq: 283
  stamp: 
    secs: 1611879026
    nsecs: 584932431
  frame_id: ''
s: 0.338526778058
n: 0.0145644842108
alpha: -0.00606392719
v: 0.501361461251
---
header: 
  seq: 284
  stamp: 
    secs: 1611879026
    nsecs: 594936549
  frame_id: ''
s: 0.344335503336
n: 0.0147285159406
alpha: -0.0137138503967
v: 0.511190468649
---
header: 
  seq: 285
  stamp: 
    secs: 1611879026
    nsecs: 604934304
  frame_id: ''
s: 0.349882943883
n: 0.014829393082
alpha: -0.0186346420224
v: 0.516499174746
---
header: 
  seq: 286
  stamp: 
    secs: 1611879026
    nsecs: 614930138
  frame_id: ''
s: 0.355191591293
n: 0.0148793381475
alpha: -0.0213938969195
v: 0.518148077846
---
header: 
  seq: 287
  stamp: 
    secs: 1611879026
    nsecs: 624932778
  frame_id: ''
s: 0.361234931865
n: 0.0148972553978
alpha: -0.0225089678716
v: 0.528802880149
---
header: 
  seq: 288
  stamp: 
    secs: 1611879026
    nsecs: 634933608
  frame_id: ''
s: 0.366020763902
n: 0.0148758098834
alpha: -0.0224319902443
v: 0.522378785926
---
header: 
  seq: 289
  stamp: 
    secs: 1611879026
    nsecs: 644939403
  frame_id: ''
s: 0.371593737165
n: 0.0148403021896
alpha: -0.0215435151143
v: 0.526645956729
---
header: 
  seq: 290
  stamp: 
    secs: 1611879026
    nsecs: 654939145
  frame_id: ''
s: 0.375963112422
n: 0.0147808948529
alpha: -0.020152415122
v: 0.515302002238
---
header: 
  seq: 291
  stamp: 
    secs: 1611879026
    nsecs: 664937274
  frame_id: ''
s: 0.381173173415
n: 0.0147205108277
alpha: -0.0185000902755
v: 0.515943655235
---
header: 
  seq: 292
  stamp: 
    secs: 1611879026
    nsecs: 674930527
  frame_id: ''
s: 0.387130069672
n: 0.0146630534679
alpha: -0.0167673669652
v: 0.525893176271
---
header: 
  seq: 293
  stamp: 
    secs: 1611879026
    nsecs: 684932994
  frame_id: ''
s: 0.393739978715
n: 0.0146114770743
alpha: -0.015082829756
v: 0.542804841462
---
header: 
  seq: 294
  stamp: 
    secs: 1611879026
    nsecs: 694932464
  frame_id: ''
s: 0.400911716413
n: 0.0145679154089
alpha: -0.0135316376994
v: 0.564658088745
---
header: 
  seq: 295
  stamp: 
    secs: 1611879026
    nsecs: 704932374
  frame_id: ''
s: 0.40666002694
n: 0.0145178495243
alpha: -0.0121641471161
v: 0.565915090882
---
header: 
  seq: 296
  stamp: 
    secs: 1611879026
    nsecs: 714939163
  frame_id: ''
s: 0.413039589604
n: 0.0144800761126
alpha: -0.0110038881849
v: 0.57494287918
---
header: 
  seq: 297
  stamp: 
    secs: 1611879026
    nsecs: 724936990
  frame_id: ''
s: 0.418071813398
n: 0.0144389641674
alpha: -0.0100546239343
v: 0.565933292065
---
header: 
  seq: 298
  stamp: 
    secs: 1611879026
    nsecs: 734934807
  frame_id: ''
s: 0.423814439347
n: 0.0144123571656
alpha: -0.00930636050243
v: 0.566973077671
---
header: 
  seq: 299
  stamp: 
    secs: 1611879026
    nsecs: 744933183
  frame_id: ''
s: 0.428289050385
n: 0.0143838210138
alpha: -0.00874028136606
v: 0.551971000438
---
header: 
  seq: 300
  stamp: 
    secs: 1611879026
    nsecs: 754934307
  frame_id: ''
s: 0.433551310591
n: 0.0143705352638
alpha: -0.00833265095443
v: 0.548738085143
---
header: 
  seq: 301
  stamp: 
    secs: 1611879026
    nsecs: 764932590
  frame_id: ''
s: 0.438568366557
n: 0.0143635061549
alpha: -0.00805778013966
v: 0.542834562628
---
header: 
  seq: 302
  stamp: 
    secs: 1611879026
    nsecs: 774940456
  frame_id: ''
s: 0.445264617233
n: 0.0153278288318
alpha: -0.00789017281251
v: 0.558922207528
---
header: 
  seq: 303
  stamp: 
    secs: 1611879026
    nsecs: 784938040
  frame_id: ''
s: 0.45059653803
n: 0.0161696232357
alpha: -0.00780598394156
v: 0.556010742659
---
header: 
  seq: 304
  stamp: 
    secs: 1611879026
    nsecs: 794935314
  frame_id: ''
s: 0.456617287721
n: 0.0169085970918
alpha: -0.00778391940583
v: 0.56214400098
---
header: 
  seq: 305
  stamp: 
    secs: 1611879026
    nsecs: 804935076
  frame_id: ''
s: 0.463252131166
n: 0.0165996599566
alpha: -0.00780570005444
v: 0.574604185277
---
header: 
  seq: 306
  stamp: 
    secs: 1611879026
    nsecs: 814929121
  frame_id: ''
s: 0.46850421714
n: 0.0172498792329
alpha: -0.00785619978706
v: 0.568695627433
---
header: 
  seq: 307
  stamp: 
    secs: 1611879026
    nsecs: 824928456
  frame_id: ''
s: 0.47444000238
n: 0.017813729004
alpha: -0.00792335224095
v: 0.572082449836
---
header: 
  seq: 308
  stamp: 
    secs: 1611879026
    nsecs: 834938739
  frame_id: ''
s: 0.479073639495
n: 0.0192300586245
alpha: -0.00799790462386
v: 0.559504515147
---
header: 
  seq: 309
  stamp: 
    secs: 1611879026
    nsecs: 844934187
  frame_id: ''
s: 0.484470919257
n: 0.020455682927
alpha: -0.0080730815675
v: 0.558124583882
---
header: 
  seq: 310
  stamp: 
    secs: 1611879026
    nsecs: 854927608
  frame_id: ''
s: 0.490557868534
n: 0.0205514699007
alpha: -0.00814420740658
v: 0.564257500649
---
header: 
  seq: 311
  stamp: 
    secs: 1611879026
    nsecs: 864928704
  frame_id: ''
s: 0.497242765296
n: 0.0205980277099
alpha: -0.0082083224986
v: 0.577111853682
---
header: 
  seq: 312
  stamp: 
    secs: 1611879026
    nsecs: 874934398
  frame_id: ''
s: 0.503495237779
n: 0.0205990227794
alpha: -0.00826381832168
v: 0.582961517687
---
header: 
  seq: 313
  stamp: 
    secs: 1611879026
    nsecs: 884940778
  frame_id: ''
s: 0.509356147166
n: 0.0205655537962
alpha: -0.00831010716706
v: 0.583194318122
---
header: 
  seq: 314
  stamp: 
    secs: 1611879026
    nsecs: 894939405
  frame_id: ''
s: 0.515817527656
n: 0.0205151916711
alpha: -0.00834733519355
v: 0.59095279437
---
header: 
  seq: 315
  stamp: 
    secs: 1611879026
    nsecs: 904934152
  frame_id: ''
s: 0.520897369352
n: 0.0213884756879
alpha: -0.00837614226256
v: 0.581042400161
---
header: 
  seq: 316
  stamp: 
    secs: 1611879026
    nsecs: 914934866
  frame_id: ''
s: 0.526666661811
n: 0.0221415503338
alpha: -0.00839746810729
v: 0.580989592406
---
header: 
  seq: 317
  stamp: 
    secs: 1611879026
    nsecs: 924930361
  frame_id: ''
s: 0.532100233615
n: 0.0227741520466
alpha: -0.00841240177017
v: 0.576662884369
---
header: 
  seq: 318
  stamp: 
    secs: 1611879026
    nsecs: 934928918
  frame_id: ''
s: 0.537248271211
n: 0.0223470786552
alpha: -0.00842206963164
v: 0.568406239054
---
header: 
  seq: 319
  stamp: 
    secs: 1611879026
    nsecs: 944938010
  frame_id: ''
s: 0.54309215087
n: 0.0219469045355
alpha: -0.00842755652961
v: 0.570078835538
---
header: 
  seq: 320
  stamp: 
    secs: 1611879026
    nsecs: 954931623
  frame_id: ''
s: 0.549552534079
n: 0.0215808144954
alpha: -0.00842985423228
v: 0.579408420951
---
header: 
  seq: 321
  stamp: 
    secs: 1611879026
    nsecs: 964955490
  frame_id: ''
s: 0.556550520129
n: 0.021253446124
alpha: -0.00842983170698
v: 0.594406926528
---
header: 
  seq: 322
  stamp: 
    secs: 1611879026
    nsecs: 974933830
  frame_id: ''
s: 0.562111082523
n: 0.0209513715091
alpha: -0.00842822208193
v: 0.589542940131
---
header: 
  seq: 323
  stamp: 
    secs: 1611879026
    nsecs: 984932547
  frame_id: ''
s: 0.568297247
n: 0.0206933491195
alpha: -0.00842562181283
v: 0.593175433909
---
header: 
  seq: 324
  stamp: 
    secs: 1611879026
    nsecs: 994941330
  frame_id: ''
s: 0.574086405112
n: 0.0204708099906
alpha: -0.00842249825457
v: 0.591388601479
---
header: 
  seq: 325
  stamp: 
    secs: 1611879027
    nsecs:   4937805
  frame_id: ''
s: 0.579516490878
n: 0.0212324095643
alpha: -0.00841920253614
v: 0.585366517683
---
header: 
  seq: 326
  stamp: 
    secs: 1611879027
    nsecs:  14937822
  frame_id: ''
s: 0.58559928708
n: 0.020967654209
alpha: -0.00841598529897
v: 0.588206808162
---
header: 
  seq: 327
  stamp: 
    secs: 1611879027
    nsecs:  24931165
  frame_id: ''
s: 0.590352734117
n: 0.0207282554486
alpha: -0.00841301345812
v: 0.574033909182
---
header: 
  seq: 328
  stamp: 
    secs: 1611879027
    nsecs:  34929957
  frame_id: ''
s: 0.59583834989
n: 0.0205312098474
alpha: -0.00841038666509
v: 0.57084231998
---
header: 
  seq: 329
  stamp: 
    secs: 1611879027
    nsecs:  44933630
  frame_id: ''
s: 0.601970737063
n: 0.0213239363298
alpha: -0.00840815258559
v: 0.576211809187
---
header: 
  seq: 330
  stamp: 
    secs: 1611879027
    nsecs:  54938242
  frame_id: ''
s: 0.608680392278
n: 0.022036178284
alpha: -0.00840632045583
v: 0.588268433525
---
header: 
  seq: 331
  stamp: 
    secs: 1611879027
    nsecs:  64964698
  frame_id: ''
s: 0.615898159702
n: 0.0217186271019
alpha: -0.00840487265276
v: 0.604917485114
---
header: 
  seq: 332
  stamp: 
    secs: 1611879027
    nsecs:  74932154
  frame_id: ''
s: 0.621634483212
n: 0.0223745641329
alpha: -0.00840377421516
v: 0.60115705854
---
header: 
  seq: 333
  stamp: 
    secs: 1611879027
    nsecs:  84933038
  frame_id: ''
s: 0.6279642457
n: 0.022955119079
alpha: -0.00840298039489
v: 0.605344179922
---
header: 
  seq: 334
  stamp: 
    secs: 1611879027
    nsecs:  94929631
  frame_id: ''
s: 0.632918648141
n: 0.0234469003428
alpha: -0.00840244240943
v: 0.591747856494
---
header: 
  seq: 335
  stamp: 
    secs: 1611879027
    nsecs: 104932510
  frame_id: ''
s: 0.638563828965
n: 0.0238718758154
alpha: -0.00840211162059
v: 0.588498755841
---
header: 
  seq: 336
  stamp: 
    secs: 1611879027
    nsecs: 114938753
  frame_id: ''
s: 0.643877783014
n: 0.0242270644045
alpha: -0.00840194238658
v: 0.581469630261
---
header: 
  seq: 337
  stamp: 
    secs: 1611879027
    nsecs: 124936710
  frame_id: ''
s: 0.648905056538
n: 0.0245190701182
alpha: -0.00840189383612
v: 0.571691939421
---
header: 
  seq: 338
  stamp: 
    secs: 1611879027
    nsecs: 134931212
  frame_id: ''
s: 0.654637624849
n: 0.0247627689566
alpha: -0.00840193079873
v: 0.571951473397
---
header: 
  seq: 339
  stamp: 
    secs: 1611879027
    nsecs: 144932541
  frame_id: ''
s: 0.6610051306
n: 0.0240147685485
alpha: -0.00840202410203
v: 0.579678403571
---
header: 
  seq: 340
  stamp: 
    secs: 1611879027
    nsecs: 154933454
  frame_id: ''
s: 0.667920190417
n: 0.0233485109935
alpha: -0.00840215041793
v: 0.593558648105
---
header: 
  seq: 341
  stamp: 
    secs: 1611879027
    nsecs: 164935400
  frame_id: ''
s: 0.675298568279
n: 0.0237157473915
alpha: -0.00840229180917
v: 0.611712118229
---
header: 
  seq: 342
  stamp: 
    secs: 1611879027
    nsecs: 174934605
  frame_id: ''
s: 0.681178113601
n: 0.0240324162279
alpha: -0.00840243509764
v: 0.608787611273
---
header: 
  seq: 343
  stamp: 
    secs: 1611879027
    nsecs: 184933126
  frame_id: ''
s: 0.687626602887
n: 0.0243168785763
alpha: -0.00840257114854
v: 0.613370306052
---
header: 
  seq: 344
  stamp: 
    secs: 1611879027
    nsecs: 194930046
  frame_id: ''
s: 0.693626702823
n: 0.0245623831357
alpha: -0.00840269413929
v: 0.611745593091
---
header: 
  seq: 345
  stamp: 
    secs: 1611879027
    nsecs: 204932931
  frame_id: ''
s: 0.699229860781
n: 0.0247717417705
alpha: -0.00840280086178
v: 0.605335595653
---
header: 
  seq: 346
  stamp: 
    secs: 1611879027
    nsecs: 214928636
  frame_id: ''
s: 0.705436494615
n: 0.0249561270342
alpha: -0.00840289008892
v: 0.607293137221
---
header: 
  seq: 347
  stamp: 
    secs: 1611879027
    nsecs: 224942390
  frame_id: ''
s: 0.711228342069
n: 0.0251099712347
alpha: -0.0084029620229
v: 0.603791294863
---
header: 
  seq: 348
  stamp: 
    secs: 1611879027
    nsecs: 234938108
  frame_id: ''
s: 0.718553857596
n: 0.0252527270935
alpha: -0.00840301783241
v: 0.619965540951
---
header: 
  seq: 349
  stamp: 
    secs: 1611879027
