header: 
  seq: 0
  stamp: 
    secs: 0
    nsecs:         0
  frame_id: ''
D: 0.1
delta: 0.0
dD: 5.0
ddelta: 0.0
---
header: 
  seq: 1
  stamp: 
    secs: 0
    nsecs:         0
  frame_id: ''
D: 0.199999999993
delta: -3.30755126082e-07
dD: 4.99999999966
ddelta: -1.65377563041e-05
---
header: 
  seq: 2
  stamp: 
    secs: 0
    nsecs:         0
  frame_id: ''
D: 0.299999999532
delta: -6.17427436143e-07
dD: 4.99999997694
ddelta: -1.43336155031e-05
---
header: 
  seq: 3
  stamp: 
    secs: 0
    nsecs:         0
  frame_id: ''
D: 0.396484021304
delta: -8.89537935033e-07
dD: 4.82420108863
ddelta: -1.36055249445e-05
---
header: 
  seq: 4
  stamp: 
    secs: 0
    nsecs:         0
  frame_id: ''
D: 0.462140542884
delta: -1.14167940275e-06
dD: 3.282826079
ddelta: -1.26070733856e-05
---
header: 
  seq: 5
  stamp: 
    secs: 0
    nsecs:         0
  frame_id: ''
D: 0.506723923008
delta: -1.36799955984e-06
dD: 2.22916900617
ddelta: -1.13160078548e-05
---
header: 
  seq: 6
  stamp: 
    secs: 0
    nsecs:         0
  frame_id: ''
D: 0.53697630855
delta: -1.56529732579e-06
dD: 1.51261927712
ddelta: -9.86488829715e-06
---
header: 
  seq: 7
  stamp: 
    secs: 0
    nsecs:         0
  frame_id: ''
D: 0.557501220829
delta: -1.73374578499e-06
dD: 1.02624561395
ddelta: -8.42242296029e-06
---
header: 
  seq: 8
  stamp: 
    secs: 0
    nsecs:         0
  frame_id: ''
D: 0.571427078151
delta: -1.87540976049e-06
dD: 0.696292866101
ddelta: -7.08319877485e-06
---
header: 
  seq: 9
  stamp: 
    secs: 0
    nsecs:         0
  frame_id: ''
D: 0.580876448307
delta: -1.99324345232e-06
dD: 0.472468507792
ddelta: -5.89168459143e-06
---
header: 
  seq: 10
  stamp: 
    secs: 0
    nsecs:         0
  frame_id: ''
D: 0.587288886757
delta: -2.09045659663e-06
dD: 0.320621922499
ddelta: -4.86065721582e-06
---
header: 
  seq: 11
  stamp: 
    secs: 0
    nsecs:         0
  frame_id: ''
D: 0.591640754662
delta: -2.17016451885e-06
dD: 0.217593395263
ddelta: -3.98539611066e-06
---
header: 
  seq: 12
  stamp: 
    secs: 0
    nsecs:         0
  frame_id: ''
D: 0.59459435986
delta: -2.23521083528e-06
dD: 0.147680259899
ddelta: -3.25231582184e-06
---
header: 
  seq: 13
  stamp: 
    secs: 0
    nsecs:         0
  frame_id: ''
D: 0.596599047616
delta: -2.28809759129e-06
dD: 0.100234387768
ddelta: -2.64433780028e-06
---
header: 
  seq: 14
  stamp: 
    secs: 0
    nsecs:         0
  frame_id: ''
D: 0.597959719616
delta: -2.33097370423e-06
dD: 0.0680336000304
ddelta: -2.14380564733e-06
---
header: 
  seq: 15
  stamp: 
    secs: 0
    nsecs:         0
  frame_id: ''
D: 0.598883287485
delta: -2.3656542297e-06
dD: 0.0461783934491
ddelta: -1.73402627335e-06
---
header: 
  seq: 16
  stamp: 
    secs: 0
    nsecs:         0
  frame_id: ''
D: 0.599510175784
delta: -2.39365402151e-06
dD: 0.0313444149374
ddelta: -1.3999895905e-06
---
header: 
  seq: 17
  stamp: 
    secs: 0
    nsecs:         0
  frame_id: ''
D: 0.599935691514
delta: -2.41622630601e-06
dD: 0.0212757865203
ddelta: -1.12861422472e-06
---
header: 
  seq: 18
  stamp: 
    secs: 0
    nsecs:         0
  frame_id: ''
D: 0.600224522569
delta: -2.43440101781e-06
dD: 0.0144415527404
ddelta: -9.08735590415e-07
---
header: 
  seq: 19
  stamp: 
    secs: 0
    nsecs:         0
  frame_id: ''
D: 0.60042057583
delta: -2.44902028891e-06
dD: 0.00980266306012
ddelta: -7.3096355458e-07
---
header: 
  seq: 20
  stamp: 
    secs: 0
    nsecs:         0
  frame_id: ''
D: 0.600553653615
delta: -2.46076996717e-06
dD: 0.00665388922393
ddelta: -5.87483912973e-07
---
header: 
  seq: 21
  stamp: 
    secs: 0
    nsecs:         0
  frame_id: ''
D: 0.600643984849
delta: -2.47020687145e-06
dD: 0.00451656168992
ddelta: -4.71845214085e-07
---
header: 
  seq: 22
  stamp: 
    secs: 0
    nsecs:         0
  frame_id: ''
D: 0.600705300441
delta: -2.47778193452e-06
dD: 0.00306577960712
ddelta: -3.78753153853e-07
---
header: 
  seq: 23
  stamp: 
    secs: 0
    nsecs:         0
  frame_id: ''
D: 0.600746920656
delta: -2.48385960089e-06
dD: 0.0020810107631
ddelta: -3.03883318241e-07
---
header: 
  seq: 24
  stamp: 
    secs: 0
    nsecs:         0
  frame_id: ''
D: 0.600775171927
delta: -2.48873393081e-06
dD: 0.00141256356733
ddelta: -2.43716496217e-07
---
header: 
  seq: 25
  stamp: 
    secs: 0
    nsecs:         0
  frame_id: ''
D: 0.600794348538
delta: -2.49264187381e-06
dD: 0.000958830553767
ddelta: -1.95397149653e-07
---
header: 
  seq: 26
  stamp: 
    secs: 0
    nsecs:         0
  frame_id: ''
D: 0.600807365387
delta: -2.49577414834e-06
dD: 0.000650842428962
ddelta: -1.56613726801e-07
---
header: 
  seq: 27
  stamp: 
    secs: 0
    nsecs:         0
  frame_id: ''
D: 0.600816201066
delta: -2.49828412079e-06
dD: 0.000441783953265
ddelta: -1.25498622412e-07
---
header: 
  seq: 28
  stamp: 
    secs: 0
    nsecs:         0
  frame_id: ''
D: 0.600822198619
delta: -2.50029502649e-06
dD: 0.00029987763449
ddelta: -1.00545284861e-07
---
header: 
  seq: 29
  stamp: 
    secs: 0
    nsecs:         0
  frame_id: ''
D: 0.600826269686
delta: -2.50190582623e-06
dD: 0.000203553350758
ddelta: -8.05399869198e-08
---
header: 
  seq: 30
  stamp: 
    secs: 0
    nsecs:         0
  frame_id: ''
D: 0.600829033077
delta: -2.50319594535e-06
dD: 0.000138169588015
ddelta: -6.45059563569e-08
---
header: 
  seq: 31
  stamp: 
    secs: 0
    nsecs:         0
  frame_id: ''
D: 0.600830908835
delta: -2.50422910164e-06
dD: 9.37878732981e-05
ddelta: -5.16578142186e-08
---
header: 
  seq: 32
  stamp: 
    secs: 0
    nsecs:         0
  frame_id: ''
D: 0.600832182077
delta: -2.50505639245e-06
dD: 6.36620949499e-05
ddelta: -4.13645404729e-08
---
header: 
  seq: 33
  stamp: 
    secs: 0
    nsecs:         0
  frame_id: ''
D: 0.600833046338
delta: -2.50571878146e-06
dD: 4.32130751107e-05
ddelta: -3.31194505204e-08
---
header: 
  seq: 34
  stamp: 
    secs: 0
    nsecs:         0
  frame_id: ''
D: 0.600833632989
delta: -2.50624909961e-06
dD: 2.93325233307e-05
ddelta: -2.65159077413e-08
---
header: 
  seq: 35
  stamp: 
    secs: 0
    nsecs:         0
  frame_id: ''
D: 0.6008340312
delta: -2.50667365383e-06
dD: 1.99105694473e-05
ddelta: -2.1227710883e-08
---
header: 
  seq: 36
  stamp: 
    secs: 0
    nsecs:         0
  frame_id: ''
D: 0.600834301501
delta: -2.50701351942e-06
dD: 1.35150588189e-05
ddelta: -1.69932795459e-08
---
header: 
  seq: 37
  stamp: 
    secs: 0
    nsecs:         0
  frame_id: ''
D: 0.600834484979
delta: -2.50728557777e-06
dD: 9.17386195978e-06
ddelta: -1.36029176338e-08
---
header: 
  seq: 38
  stamp: 
    secs: 0
    nsecs:         0
  frame_id: ''
D: 0.600834609521
delta: -2.50750334909e-06
dD: 6.22710892941e-06
ddelta: -1.08885660235e-08
---
header: 
  seq: 39
  stamp: 
    secs: 0
    nsecs:         0
  frame_id: ''
D: 0.600834694059
delta: -2.50767766039e-06
dD: 4.22688786303e-06
ddelta: -8.71556487101e-09
---
header: 
  seq: 40
  stamp: 
    secs: 0
    nsecs:         0
  frame_id: ''
D: 0.600834751442
delta: -2.50781718111e-06
dD: 2.86916146526e-06
ddelta: -6.97603608948e-09
---
header: 
  seq: 41
  stamp: 
    secs: 0
    nsecs:         0
  frame_id: ''
D: 0.600834790393
delta: -2.50792885252e-06
dD: 1.94755285534e-06
ddelta: -5.58357048321e-09
---
header: 
  seq: 42
  stamp: 
    secs: 0
    nsecs:         0
  frame_id: ''
D: 0.600834816832
delta: -2.50801823181e-06
dD: 1.32197583735e-06
ddelta: -4.4689644269e-09
---
header: 
  seq: 43
  stamp: 
    secs: 0
    nsecs:         0
  frame_id: ''
D: 0.600834834779
delta: -2.50808976782e-06
dD: 8.97341564392e-07
ddelta: -3.57680018715e-09
---
header: 
  seq: 44
  stamp: 
    secs: 0
    nsecs:         0
  frame_id: ''
D: 0.600834846961
delta: -2.50814702189e-06
dD: 6.09104841612e-07
ddelta: -2.86270390297e-09
---
header: 
  seq: 45
  stamp: 
    secs: 0
    nsecs:         0
  frame_id: ''
D: 0.60083485523
delta: -2.50819284485e-06
dD: 4.13453151327e-07
ddelta: -2.29114758985e-09
---
header: 
  seq: 46
  stamp: 
    secs: 0
    nsecs:         0
  frame_id: ''
D: 0.600834860843
delta: -2.5082295186e-06
dD: 2.80647107555e-07
ddelta: -1.83368767218e-09
---
header: 
  seq: 47
  stamp: 
    secs: 0
    nsecs:         0
  frame_id: ''
D: 0.600834864653
delta: -2.50825886967e-06
dD: 1.90499932603e-07
ddelta: -1.46755364791e-09
---
header: 
  seq: 48
  stamp: 
    secs: 0
    nsecs:         0
  frame_id: ''
D: 0.600834867239
delta: -2.50828236002e-06
dD: 1.29309108749e-07
ddelta: -1.17451748944e-09
---
header: 
  seq: 49
  stamp: 
    secs: 0
    nsecs:         0
  frame_id: ''
D: 0.600834868995
delta: -2.50830115978e-06
dD: 8.77734909463e-08
ddelta: -9.39988076559e-10
---
header: 
  seq: 50
  stamp: 
    secs: 0
    nsecs:         0
  frame_id: ''
D: 0.600834870187
delta: -2.5083162055e-06
dD: 5.95793835852e-08
ddelta: -7.52285994389e-10
---
header: 
  seq: 51
  stamp: 
    secs: 0
    nsecs:         0
  frame_id: ''
D: 0.600834870995
delta: -2.50832824676e-06
dD: 4.04420164571e-08
ddelta: -6.0206261887e-10
---
header: 
  seq: 52
  stamp: 
    secs: 0
    nsecs:         0
  frame_id: ''
D: 0.600834871544
delta: -2.50833788346e-06
dD: 2.74515612656e-08
ddelta: -4.81835462239e-10
---
header: 
  seq: 53
  stamp: 
    secs: 0
    nsecs:         0
  frame_id: ''
D: 0.600834871917
delta: -2.50834559577e-06
dD: 1.86338029714e-08
ddelta: -3.8561550511e-10
---
header: 
  seq: 54
  stamp: 
    secs: 0
    nsecs:         0
  frame_id: ''
D: 0.60083487217
delta: -2.50835176796e-06
dD: 1.26484091589e-08
ddelta: -3.08609332434e-10
---
header: 
  seq: 55
  stamp: 
    secs: 0
    nsecs:         0
  frame_id: ''
D: 0.600834872342
delta: -2.50835670757e-06
dD: 8.58558535604e-09
ddelta: -2.46980484235e-10
---
header: 
  seq: 56
  stamp: 
    secs: 0
    nsecs:         0
  frame_id: ''
D: 0.600834872458
delta: -2.50836066074e-06
dD: 5.82777657841e-09
ddelta: -1.97658450126e-10
---
header: 
  seq: 57
  stamp: 
    secs: 0
    nsecs:         0
  frame_id: ''
D: 0.600834872537
delta: -2.50836382446e-06
dD: 3.95584416675e-09
ddelta: -1.58185774495e-10
---
header: 
  seq: 58
  stamp: 
    secs: 0
    nsecs:         0
  frame_id: ''
D: 0.600834872591
delta: -2.50836635637e-06
dD: 2.68516501168e-09
ddelta: -1.26595673455e-10
---
header: 
  seq: 59
  stamp: 
    secs: 0
    nsecs:         0
  frame_id: ''
D: 0.600834872628
delta: -2.50836838265e-06
dD: 1.82266975497e-09
ddelta: -1.01314077213e-10
---
header: 
  seq: 60
  stamp: 
    secs: 0
    nsecs:         0
  frame_id: ''
D: 0.600834872652
delta: -2.50837000427e-06
dD: 1.23720668577e-09
ddelta: -8.10812229783e-11
---
header: 
  seq: 61
  stamp: 
    secs: 0
    nsecs:         0
  frame_id: ''
D: 0.600834872669
delta: -2.50837130205e-06
dD: 8.39799820437e-10
ddelta: -6.48889011559e-11
---
header: 
  seq: 62
  stamp: 
    secs: 0
    nsecs:         0
  frame_id: ''
D: 0.600834872681
delta: -2.50837234066e-06
dD: 5.7003890585e-10
ddelta: -5.193022938e-11
---
header: 
  seq: 63
  stamp: 
    secs: 0
    nsecs:         0
  frame_id: ''
D: 0.600834872688
delta: -2.50837317185e-06
dD: 3.86942365895e-10
ddelta: -4.15594506261e-11
---
header: 
  seq: 64
  stamp: 
    secs: 0
    nsecs:         0
  frame_id: ''
D: 0.600834872694
delta: -2.50837383704e-06
dD: 2.62654885179e-10
ddelta: -3.32597614371e-11
---
header: 
  seq: 65
  stamp: 
    secs: 0
    nsecs:         0
  frame_id: ''
D: 0.600834872697
delta: -2.50837436939e-06
dD: 1.78274372215e-10
ddelta: -2.66175618254e-11
---
header: 
  seq: 66
  stamp: 
    secs: 0
    nsecs:         0
  frame_id: ''
D: 0.6008348727
delta: -2.50837479543e-06
dD: 1.21019939955e-10
ddelta: -2.13018464826e-11
---
header: 
  seq: 67
  stamp: 
    secs: 0
    nsecs:         0
  frame_id: ''
D: 0.600834872701
delta: -2.50837513638e-06
dD: 8.21556601414e-11
ddelta: -1.70477118562e-11
---
header: 
  seq: 68
  stamp: 
    secs: 0
    nsecs:         0
  frame_id: ''
D: 0.600834872702
delta: -2.50837540925e-06
dD: 5.57678076137e-11
ddelta: -1.36431554444e-11
---
header: 
  seq: 69
  stamp: 
    secs: 0
    nsecs:         0
  frame_id: ''
D: 0.600834872703
delta: -2.50837562762e-06
dD: 3.78605325399e-11
ddelta: -1.09185120178e-11
---
header: 
  seq: 70
  stamp: 
    secs: 0
    nsecs:         0
  frame_id: ''
D: 0.600834872704
delta: -2.50837580238e-06
dD: 2.56968963299e-11
ddelta: -8.73799932172e-12
---
header: 
  seq: 71
  stamp: 
    secs: 0
    nsecs:         0
  frame_id: ''
D: 0.600834872704
delta: -2.50837594224e-06
dD: 1.74550814885e-11
ddelta: -6.99295093873e-12
---
header: 
  seq: 72
  stamp: 
    secs: 0
    nsecs:         0
  frame_id: ''
D: 0.600834872704
delta: -2.50837605416e-06
dD: 1.18401075602e-11
ddelta: -5.59640199608e-12
---
header: 
  seq: 73
  stamp: 
    secs: 0
    nsecs:         0
  frame_id: ''
D: 0.600834872704
delta: -2.50837614374e-06
dD: 8.05253765733e-12
ddelta: -4.47875462687e-12
---
header: 
  seq: 74
  stamp: 
    secs: 0
    nsecs:         0
  frame_id: ''
D: 0.600834872704
delta: -2.50837621543e-06
dD: 5.45434642937e-12
ddelta: -3.58431023488e-12
---
header: 
  seq: 75
  stamp: 
    secs: 0
    nsecs:         0
  frame_id: ''
D: 0.600834872704
delta: -2.5083762728e-06
dD: 3.70899078852e-12
ddelta: -2.86849356895e-12
---
header: 
  seq: 76
  stamp: 
    secs: 0
    nsecs:         0
  frame_id: ''
D: 0.600834872705
delta: -2.50837631871e-06
dD: 2.51362426615e-12
ddelta: -2.29563126663e-12
---
header: 
  seq: 77
  stamp: 
    secs: 0
    nsecs:         0
  frame_id: ''
D: 0.600834872705
delta: -2.50837635545e-06
dD: 1.70855803891e-12
ddelta: -1.83717428445e-12
---
header: 
  seq: 78
  stamp: 
    secs: 0
    nsecs:         0
  frame_id: ''
D: 0.600834872705
delta: -2.50837638486e-06
dD: 1.16956434746e-12
ddelta: -1.47027502772e-12
---
header: 
  seq: 79
  stamp: 
    secs: 0
    nsecs:         0
  frame_id: ''
D: 0.600834872705
delta: -2.50837640839e-06
dD: 7.87494369505e-13
ddelta: -1.17664852889e-12
---
header: 
  seq: 80
  stamp: 
    secs: 0
    nsecs:         0
  frame_id: ''
D: 0.600834872705
delta: -2.50837642722e-06
dD: 5.34702155828e-13
ddelta: -9.41661785101e-13
---
header: 
  seq: 81
  stamp: 
    secs: 0
    nsecs:         0
  frame_id: ''
D: 0.600834872705
delta: -2.5083764423e-06
dD: 3.66093995092e-13
ddelta: -7.53603835937e-13
---
header: 
  seq: 82
  stamp: 
    secs: 0
    nsecs:         0
  frame_id: ''
D: 0.600834872705
delta: -2.50837645436e-06
dD: 2.44478123244e-13
ddelta: -6.03102629407e-13
---
header: 
  seq: 83
  stamp: 
    secs: 0
    nsecs:         0
  frame_id: ''
D: 0.600834872705
delta: -2.50837646401e-06
dD: 1.7099868486e-13
ddelta: -4.82657848809e-13
---
header: 
  seq: 84
  stamp: 
    secs: 0
    nsecs:         0
  frame_id: ''
D: 0.600834872705
delta: -2.50837647174e-06
dD: 1.07979003716e-13
ddelta: -3.86266938151e-13
---
header: 
  seq: 85
  stamp: 
    secs: 0
    nsecs:         0
  frame_id: ''
D: 0.600834872705
delta: -2.50837647792e-06
dD: 8.87853546566e-14
ddelta: -3.09126050023e-13
---
header: 
  seq: 86
  stamp: 
    secs: 0
    nsecs:         0
  frame_id: ''
D: 0.600834872705
delta: -2.50837648287e-06
dD: 5.17875732193e-14
ddelta: -2.47390914136e-13
---
header: 
  seq: 87
  stamp: 
    secs: 0
    nsecs:         0
  frame_id: ''
D: 0.600834872705
delta: -2.50837648683e-06
dD: 2.96169349641e-14
ddelta: -1.97984809229e-13
---
header: 
  seq: 88
  stamp: 
    secs: 0
    nsecs:         0
  frame_id: ''
D: 0.600834872705
delta: -2.50837649e-06
dD: 1.92342827117e-14
ddelta: -1.58445558049e-13
---
header: 
  seq: 89
  stamp: 
    secs: 0
    nsecs:         0
  frame_id: ''
D: 0.600834872705
delta: -2.50837649253e-06
dD: 1.28648518111e-14
ddelta: -1.26802562352e-13
---
header: 
  seq: 90
  stamp: 
    secs: 0
    nsecs:         0
  frame_id: ''
D: 0.600834872705
delta: -2.50837649456e-06
dD: 2.29195561998e-14
ddelta: -1.01478986219e-13
---
header: 
  seq: 91
  stamp: 
    secs: 0
    nsecs:         0
  frame_id: ''
D: 0.600834872705
delta: -2.50837649619e-06
dD: 1.46362244969e-14
ddelta: -8.12127842576e-14
---
header: 
  seq: 92
  stamp: 
    secs: 0
    nsecs:         0
  frame_id: ''
D: 0.600834872705
delta: -2.50837649748e-06
dD: 2.12066171406e-14
ddelta: -6.49938773442e-14
---
header: 
  seq: 93
  stamp: 
    secs: 1611880657
    nsecs: 260066663
  frame_id: ''
D: 0.596049480607
delta: -0.00184399389101
dD: -0.239269604886
ddelta: -0.0920742757257
---
header: 
  seq: 94
  stamp: 
    secs: 1611880657
    nsecs: 320066135
  frame_id: ''
D: 0.538792758608
delta: -0.0259427811439
dD: -2.86283609992
ddelta: -1.20493936264
---
header: 
  seq: 95
  stamp: 
    secs: 1611880657
    nsecs: 340065500
  frame_id: ''
D: 0.638792758608
delta: -0.0659427811439
dD: 5.0
ddelta: -2.0
---
header: 
  seq: 96
  stamp: 
    secs: 1611880657
    nsecs: 370070650
  frame_id: ''
D: 0.630377495166
delta: -0.025942781145
dD: -0.420763172147
ddelta: 1.99999999994
---
header: 
  seq: 97
  stamp: 
    secs: 1611880657
    nsecs: 380069577
  frame_id: ''
D: 0.530377495166
delta: 0.014057218855
dD: -5.0
ddelta: 2.0
---
header: 
  seq: 98
  stamp: 
    secs: 1611880657
    nsecs: 400068479
  frame_id: ''
D: 0.471759446297
delta: -0.025942781145
dD: -2.93090244344
ddelta: -2.0
---
header: 
  seq: 99
  stamp: 
    secs: 1611880657
    nsecs: 420099270
  frame_id: ''
D: 0.4694805746
delta: -0.0359863662576
dD: -0.113943584837
ddelta: -0.502179255628
---
header: 
  seq: 100
  stamp: 
    secs: 1611880657
    nsecs: 440066097
  frame_id: ''
D: 0.48313943947
delta: -0.0588916686793
dD: 0.682943243526
ddelta: -1.14526512109
---
header: 
  seq: 101
  stamp: 
    secs: 1611880657
    nsecs: 460067249
  frame_id: ''
D: 0.503613208955
delta: -0.0714999170731
dD: 1.02368847425
ddelta: -0.630412419691
---
header: 
  seq: 102
  stamp: 
    secs: 1611880657
    nsecs: 480069690
  frame_id: ''
D: 0.524727571012
delta: -0.0802777476045
dD: 1.05571810282
ddelta: -0.438891526568
---
header: 
  seq: 103
  stamp: 
    secs: 1611880657
    nsecs: 500067025
  frame_id: ''
D: 0.544517825194
delta: -0.0865244429185
dD: 0.989512709093
ddelta: -0.312334765701
---
header: 
  seq: 104
  stamp: 
    secs: 1611880657
    nsecs: 520071720
  frame_id: ''
D: 0.561772184625
delta: -0.0910170962575
dD: 0.862717971587
ddelta: -0.224632666949
---
header: 
  seq: 105
  stamp: 
    secs: 1611880657
    nsecs: 540070187
  frame_id: ''
D: 0.573133979321
delta: -0.0942230341789
dD: 0.568089734779
ddelta: -0.160296896072
---
header: 
  seq: 106
  stamp: 
    secs: 1611880657
    nsecs: 560069070
  frame_id: ''
D: 0.579591272553
delta: -0.0968892705932
dD: 0.322864661603
ddelta: -0.133311820711
---
header: 
  seq: 107
  stamp: 
    secs: 1611880657
    nsecs: 580069524
  frame_id: ''
D: 0.583442856349
delta: -0.0984712667284
dD: 0.192579189805
ddelta: -0.0790998067638
---
header: 
  seq: 108
  stamp: 
    secs: 1611880657
    nsecs: 600073290
  frame_id: ''
D: 0.586061746137
delta: -0.100000275611
dD: 0.130944489404
ddelta: -0.0764504441313
---
header: 
  seq: 109
  stamp: 
    secs: 1611880657
    nsecs: 620068731
  frame_id: ''
D: 0.588143020383
delta: -0.101401956495
dD: 0.104063712286
ddelta: -0.0700840442052
---
header: 
  seq: 110
  stamp: 
    secs: 1611880657
    nsecs: 640065730
  frame_id: ''
D: 0.589994516384
delta: -0.103365858483
dD: 0.0925748000762
ddelta: -0.0981950993752
---
header: 
  seq: 111
  stamp: 
    secs: 1611880657
    nsecs: 660071551
  frame_id: ''
D: 0.591771032026
delta: -0.104698300604
dD: 0.088825782081
ddelta: -0.066622106091
---
header: 
  seq: 112
  stamp: 
    secs: 1611880657
    nsecs: 680069535
  frame_id: ''
D: 0.593487573242
delta: -0.105547676254
dD: 0.0858270607869
ddelta: -0.0424687824777
---
header: 
  seq: 113
  stamp: 
    secs: 1611880657
    nsecs: 700068660
  frame_id: ''
D: 0.595043199977
delta: -0.106797107003
dD: 0.077781336777
ddelta: -0.0624715374328
---
header: 
  seq: 114
  stamp: 
    secs: 1611880657
    nsecs: 720068822
  frame_id: ''
D: 0.59646783647
delta: -0.107553767544
dD: 0.0712318246536
ddelta: -0.0378330270487
---
header: 
  seq: 115
  stamp: 
    secs: 1611880657
    nsecs: 740063721
  frame_id: ''
D: 0.59766652702
delta: -0.107261588926
dD: 0.0599345275003
ddelta: 0.0146089308902
---
header: 
  seq: 116
  stamp: 
    secs: 1611880657
    nsecs: 760062718
  frame_id: ''
D: 0.598408451283
delta: -0.106854576742
dD: 0.0370962131467
ddelta: 0.0203506091948
---
header: 
  seq: 117
  stamp: 
    secs: 1611880657
    nsecs: 780072140
  frame_id: ''
D: 0.599145361995
delta: -0.106815033132
dD: 0.0368455356054
ddelta: 0.00197718049582
---
header: 
  seq: 118
  stamp: 
    secs: 1611880657
    nsecs: 800068157
  frame_id: ''
D: 0.599550850049
delta: -0.107587897054
dD: 0.0202744026615
ddelta: -0.0386431960728
---
header: 
  seq: 119
  stamp: 
    secs: 1611880657
    nsecs: 820063178
  frame_id: ''
D: 0.600003715996
delta: -0.107993128372
dD: 0.022643297389
ddelta: -0.0202615659227
---
header: 
  seq: 120
  stamp: 
    secs: 1611880657
    nsecs: 840064812
  frame_id: ''
D: 0.600248230252
delta: -0.1081090762
dD: 0.0122257127671
ddelta: -0.00579739139893
---
header: 
  seq: 121
  stamp: 
    secs: 1611880657
    nsecs: 860072428
  frame_id: ''
D: 0.600331443166
delta: -0.108067225597
dD: 0.00416064570303
ddelta: 0.00209253016241
---
header: 
  seq: 122
  stamp: 
    secs: 1611880657
    nsecs: 880065707
  frame_id: ''
D: 0.600424007508
delta: -0.108103156829
dD: 0.00462821712067
ddelta: -0.00179656159244
---
header: 
  seq: 123
  stamp: 
    secs: 1611880657
    nsecs: 900074406
  frame_id: ''
D: 0.600229007665
delta: -0.107469105172
dD: -0.00974999216202
ddelta: 0.0317025828279
---
header: 
  seq: 124
  stamp: 
    secs: 1611880657
    nsecs: 920068255
  frame_id: ''
D: 0.600231504448
delta: -0.107199536822
dD: 0.000124839167209
ddelta: 0.0134784175122
---
header: 
  seq: 125
  stamp: 
    secs: 1611880657
    nsecs: 940066700
  frame_id: ''
D: 0.60041915631
delta: -0.107285385672
dD: 0.00938259306088
ddelta: -0.00429244249056
---
header: 
  seq: 126
  stamp: 
    secs: 1611880657
    nsecs: 960070716
  frame_id: ''
D: 0.600607581281
delta: -0.107423517223
dD: 0.00942124856571
ddelta: -0.00690657757806
---
header: 
  seq: 127
  stamp: 
    secs: 1611880657
    nsecs: 980066384
  frame_id: ''
D: 0.600843248259
delta: -0.107697080146
dD: 0.0117833489004
ddelta: -0.0136781461342
---
header: 
  seq: 128
  stamp: 
    secs: 1611880658
    nsecs:     63996
  frame_id: ''
D: 0.600958953251
delta: -0.108013530441
dD: 0.00578524958927
ddelta: -0.0158225147733
---
header: 
  seq: 129
  stamp: 
    secs: 1611880658
    nsecs:  20069915
  frame_id: ''
D: 0.600898897821
delta: -0.107589959393
dD: -0.0030027714822
ddelta: 0.0211785523974
---
header: 
  seq: 130
  stamp: 
    secs: 1611880658
    nsecs:  40064484
  frame_id: ''
D: 0.600863474857
delta: -0.108155336195
dD: -0.00177114820179
ddelta: -0.0282688400882
---
header: 
  seq: 131
  stamp: 
    secs: 1611880658
    nsecs:  60063721
  frame_id: ''
D: 0.600908615959
delta: -0.108431165663
dD: 0.00225705508168
ddelta: -0.0137914734012
---
header: 
  seq: 132
  stamp: 
    secs: 1611880658
    nsecs:  80068306
  frame_id: ''
D: 0.600939735564
delta: -0.10862277366
dD: 0.00155598027375
ddelta: -0.00958039982426
---
header: 
  seq: 133
  stamp: 
    secs: 1611880658
    nsecs: 100096572
  frame_id: ''
D: 0.601038273566
delta: -0.108627211107
dD: 0.00492690006838
ddelta: -0.00022187237261
---
header: 
  seq: 134
  stamp: 
    secs: 1611880658
    nsecs: 120065436
  frame_id: ''
D: 0.60087868161
delta: -0.108765400081
dD: -0.00797959775376
ddelta: -0.00690944868636
---
header: 
  seq: 135
  stamp: 
    secs: 1611880658
    nsecs: 140072978
  frame_id: ''
D: 0.60094207549
delta: -0.108906684282
dD: 0.00316969396731
ddelta: -0.00706421005937
---
header: 
  seq: 136
  stamp: 
    secs: 1611880658
    nsecs: 160069520
  frame_id: ''
D: 0.600857322587
delta: -0.109603539326
dD: -0.00423764512437
ddelta: -0.0348427521805
---
header: 
  seq: 137
  stamp: 
    secs: 1611880658
    nsecs: 180076162
  frame_id: ''
D: 0.600913637806
delta: -0.109190117614
dD: 0.00281576093746
ddelta: 0.0206710855874
---
header: 
  seq: 138
  stamp: 
    secs: 1611880658
    nsecs: 200066926
  frame_id: ''
D: 0.600850131688
delta: -0.109533997515
dD: -0.00317530592526
ddelta: -0.0171939950424
---
header: 
  seq: 139
  stamp: 
    secs: 1611880658
    nsecs: 220065929
  frame_id: ''
D: 0.600839508497
delta: -0.109664403604
dD: -0.000531159535608
ddelta: -0.00652030446442
---
header: 
  seq: 140
  stamp: 
    secs: 1611880658
    nsecs: 240075383
  frame_id: ''
D: 0.600652123904
delta: -0.110248499329
dD: -0.00936922966275
ddelta: -0.0292047862682
---
header: 
  seq: 141
  stamp: 
    secs: 1611880658
    nsecs: 260070105
  frame_id: ''
D: 0.600736366272
delta: -0.11027746048
dD: 0.00421211842752
ddelta: -0.00144805754283
---
header: 
  seq: 142
  stamp: 
    secs: 1611880658
    nsecs: 280063163
  frame_id: ''
D: 0.600929742835
delta: -0.10995762257
dD: 0.00966882813807
ddelta: 0.0159918955258
---
header: 
  seq: 143
  stamp: 
    secs: 1611880658
    nsecs: 300068516
  frame_id: ''
D: 0.600908971346
delta: -0.110214517968
dD: -0.00103857444169
ddelta: -0.0128447698963
---
header: 
  seq: 144
  stamp: 
    secs: 1611880658
    nsecs: 320066353
  frame_id: ''
D: 0.600787242166
delta: -0.110151038618
dD: -0.00608645899119
ddelta: 0.0031739674782
---
header: 
  seq: 145
  stamp: 
    secs: 1611880658
    nsecs: 340063489
  frame_id: ''
D: 0.600792874238
delta: -0.109965327232
dD: 0.000281603608937
ddelta: 0.00928556928553
---
header: 
  seq: 146
  stamp: 
    secs: 1611880658
    nsecs: 360075183
  frame_id: ''
D: 0.600544918188
delta: -0.109016761565
dD: -0.0123978025215
ddelta: 0.0474282833928
---
header: 
  seq: 147
  stamp: 
    secs: 1611880658
    nsecs: 380090224
  frame_id: ''
D: 0.600522232945
delta: -0.108421030971
dD: -0.00113426216095
ddelta: 0.0297865296563
---
header: 
  seq: 148
  stamp: 
    secs: 1611880658
    nsecs: 400068002
  frame_id: ''
D: 0.60061234625
delta: -0.10806618589
dD: 0.00450566527311
ddelta: 0.0177422540539
---
header: 
  seq: 149
  stamp: 
    secs: 1611880658
    nsecs: 420071007
  frame_id: ''
D: 0.600496755807
delta: -0.107275229561
dD: -0.00577952218203
ddelta: 0.0395478164785
---
header: 
  seq: 150
  stamp: 
    secs: 1611880658
    nsecs: 440066628
  frame_id: ''
D: 0.600351064994
delta: -0.106382629766
dD: -0.00728454062638
ddelta: 0.0446299897201
---
header: 
  seq: 151
  stamp: 
    secs: 1611880658
    nsecs: 460065714
  frame_id: ''
D: 0.60057262385
delta: -0.106899784899
dD: 0.0110779428144
ddelta: -0.0258577566454
---
header: 
  seq: 152
  stamp: 
    secs: 1611880658
    nsecs: 480069939
  frame_id: ''
D: 0.600398962663
delta: -0.107204746821
dD: -0.00868305936082
ddelta: -0.0152480960809
---
header: 
  seq: 153
  stamp: 
    secs: 1611880658
    nsecs: 500067271
  frame_id: ''
D: 0.600133099272
delta: -0.108181058406
dD: -0.0132931695415
ddelta: -0.0488155792665
---
header: 
  seq: 154
  stamp: 
    secs: 1611880658
    nsecs: 520063343
  frame_id: ''
D: 0.600432627009
delta: -0.108060196888
dD: 0.0149763868319
ddelta: 0.00604307588981
---
header: 
  seq: 155
  stamp: 
    secs: 1611880658
    nsecs: 540072115
  frame_id: ''
D: 0.600493476611
delta: -0.107314382547
dD: 0.00304248008146
ddelta: 0.0372907170909
---
header: 
  seq: 156
  stamp: 
    secs: 1611880658
    nsecs: 560070119
  frame_id: ''
D: 0.600695862579
delta: -0.107129683738
dD: 0.010119298444
ddelta: 0.00923494042128
---
header: 
  seq: 157
  stamp: 
    secs: 1611880658
    nsecs: 580072205
  frame_id: ''
D: 0.600610664809
delta: -0.106539815929
dD: -0.00425988854729
ddelta: 0.0294933904443
---
header: 
  seq: 158
  stamp: 
    secs: 1611880658
    nsecs: 600072722
  frame_id: ''
D: 0.600673984653
delta: -0.105751679187
dD: 0.00316599221891
ddelta: 0.0394068371111
---
header: 
  seq: 159
  stamp: 
    secs: 1611880658
    nsecs: 620067143
  frame_id: ''
D: 0.600689497109
delta: -0.106354311434
dD: 0.00077562281924
ddelta: -0.0301316123584
---
header: 
  seq: 160
  stamp: 
    secs: 1611880658
    nsecs: 640072612
  frame_id: ''
D: 0.600818429827
delta: -0.106301187243
dD: 0.00644663586357
ddelta: 0.00265620956417
---
header: 
  seq: 161
  stamp: 
    secs: 1611880658
    nsecs: 660073643
  frame_id: ''
D: 0.60097226066
delta: -0.10661394091
dD: 0.00769154165138
ddelta: -0.0156376833715
---
header: 
  seq: 162
  stamp: 
    secs: 1611880658
    nsecs: 680065054
  frame_id: ''
D: 0.600774623783
delta: -0.107672507651
dD: -0.00988184381717
ddelta: -0.0529283370229
---
header: 
  seq: 163
  stamp: 
    secs: 1611880658
    nsecs: 700064485
  frame_id: ''
D: 0.600469274614
delta: -0.108151678295
dD: -0.0152674584598
ddelta: -0.0239585321984
---
header: 
  seq: 164
  stamp: 
    secs: 1611880658
    nsecs: 720066566
  frame_id: ''
D: 0.600446054057
delta: -0.108465076211
dD: -0.00116102786734
ddelta: -0.0156698958221
---
header: 
  seq: 165
  stamp: 
    secs: 1611880658
    nsecs: 740067049
  frame_id: ''
D: 0.600347020634
delta: -0.109235938625
dD: -0.00495167112919
ddelta: -0.0385431207004
---
header: 
  seq: 166
  stamp: 
    secs: 1611880658
    nsecs: 760078743
  frame_id: ''
D: 0.600553914138
delta: -0.109441246752
dD: 0.0103446751754
ddelta: -0.0102654063337
---
header: 
  seq: 167
  stamp: 
    secs: 1611880658
    nsecs: 780071865
  frame_id: ''
D: 0.600497828618
delta: -0.108676850263
dD: -0.00280427595807
ddelta: 0.0382198244686
---
header: 
  seq: 168
  stamp: 
    secs: 1611880658
    nsecs: 800066776
  frame_id: ''
D: 0.600224207703
delta: -0.107544930803
dD: -0.013681045756
ddelta: 0.0565959729986
---
header: 
  seq: 169
  stamp: 
    secs: 1611880658
    nsecs: 820075319
  frame_id: ''
D: 0.599948273837
delta: -0.106410137068
dD: -0.0137966932929
ddelta: 0.0567396867522
---
header: 
  seq: 170
  stamp: 
    secs: 1611880658
    nsecs: 840067884
  frame_id: ''
D: 0.600355259781
delta: -0.106800406935
dD: 0.0203492971537
ddelta: -0.0195134933925
---
header: 
  seq: 171
  stamp: 
    secs: 1611880658
    nsecs: 860068235
  frame_id: ''
D: 0.60020582496
delta: -0.107097604317
dD: -0.00747174102178
ddelta: -0.0148598690619
---
header: 
  seq: 172
  stamp: 
    secs: 1611880658
    nsecs: 880071213
  frame_id: ''
D: 0.600262099761
delta: -0.107543385209
dD: 0.00281374002702
ddelta: -0.0222890446017
---
header: 
  seq: 173
  stamp: 
    secs: 1611880658
    nsecs: 900070556
  frame_id: ''
D: 0.600430119487
delta: -0.10797469668
dD: 0.00840098629909
ddelta: -0.0215655735757
---
header: 
  seq: 174
  stamp: 
    secs: 1611880658
    nsecs: 920065420
  frame_id: ''
D: 0.600409984798
delta: -0.108924045042
dD: -0.00100673443986
ddelta: -0.0474674180893
---
header: 
  seq: 175
  stamp: 
    secs: 1611880658
    nsecs: 940071134
  frame_id: ''
D: 0.600630905339
delta: -0.109297632188
dD: 0.0110460270363
ddelta: -0.0186793573004
---
header: 
  seq: 176
  stamp: 
    secs: 1611880658
    nsecs: 960071575
  frame_id: ''
D: 0.600354594659
delta: -0.109025854433
dD: -0.0138155339775
ddelta: 0.0135888877552
---
header: 
  seq: 177
  stamp: 
    secs: 1611880658
    nsecs: 980066263
  frame_id: ''
D: 0.600542965654
delta: -0.108688138128
dD: 0.00941854973255
ddelta: 0.0168858152648
---
header: 
  seq: 178
  stamp: 
    secs: 1611880659
    nsecs:     69484
  frame_id: ''
D: 0.600641093289
delta: -0.109046566737
dD: 0.00490638175902
ddelta: -0.0179214304891
---
header: 
  seq: 179
  stamp: 
    secs: 1611880659
    nsecs:  20066815
  frame_id: ''
D: 0.600688127706
delta: -0.109772792693
dD: 0.00235172086676
ddelta: -0.036311297801
---
header: 
  seq: 180
  stamp: 
    secs: 1611880659
    nsecs:  40069237
  frame_id: ''
D: 0.600794406642
delta: -0.109872848048
dD: 0.00531394676625
ddelta: -0.00500276771941
---
header: 
  seq: 181
  stamp: 
    secs: 1611880659
    nsecs:  60073057
  frame_id: ''
D: 0.600426057703
delta: -0.109002862966
dD: -0.0184174469384
ddelta: 0.0434992540949
---
header: 
  seq: 182
  stamp: 
    secs: 1611880659
    nsecs:  80065078
  frame_id: ''
D: 0.600544999792
delta: -0.109143164721
dD: 0.00594710444022
ddelta: -0.00701508773828
---
header: 
  seq: 183
  stamp: 
    secs: 1611880659
    nsecs: 100071574
  frame_id: ''
D: 0.600530773636
delta: -0.109035445376
dD: -0.000711307757013
ddelta: 0.00538596721171
---
header: 
  seq: 184
  stamp: 
    secs: 1611880659
    nsecs: 120072755
  frame_id: ''
D: 0.600235548202
delta: -0.108224790933
dD: -0.0147612717181
ddelta: 0.040532722189
---
header: 
  seq: 185
  stamp: 
    secs: 1611880659
    nsecs: 140065456
  frame_id: ''
D: 0.600256061825
delta: -0.107929026001
dD: 0.00102568113015
ddelta: 0.0147882465576
---
header: 
  seq: 186
  stamp: 
    secs: 1611880659
    nsecs: 160067717
  frame_id: ''
D: 0.60036289687
delta: -0.107807599414
dD: 0.00534175228349
ddelta: 0.00607132936465
---
header: 
  seq: 187
  stamp: 
    secs: 1611880659
    nsecs: 180096084
  frame_id: ''
D: 0.600257350151
delta: -0.107178500241
dD: -0.00527733594814
ddelta: 0.0314549586741
---
header: 
  seq: 188
  stamp: 
    secs: 1611880659
    nsecs: 200068309
  frame_id: ''
D: 0.600346568996
delta: -0.106296883609
dD: 0.00446094222124
ddelta: 0.0440808315919
---
header: 
  seq: 189
  stamp: 
    secs: 1611880659
    nsecs: 220066700
  frame_id: ''
D: 0.600306430982
delta: -0.105463509625
dD: -0.00200690068384
ddelta: 0.0416686991865
---
header: 
  seq: 190
  stamp: 
    secs: 1611880659
    nsecs: 240069297
  frame_id: ''
D: 0.600583410468
delta: -0.105536339919
dD: 0.0138489742779
ddelta: -0.00364151471542
---
header: 
  seq: 191
  stamp: 
    secs: 1611880659
    nsecs: 260083271
  frame_id: ''
D: 0.600524064052
delta: -0.106642256141
dD: -0.00296732078777
ddelta: -0.0552958110972
---
header: 
  seq: 192
  stamp: 
    secs: 1611880659
    nsecs: 280074890
  frame_id: ''
D: 0.6002499759
delta: -0.108151191917
dD: -0.0137044075801
ddelta: -0.075446788762
---
header: 
  seq: 193
  stamp: 
    secs: 1611880659
    nsecs: 300072890
  frame_id: ''
D: 0.600275112446
delta: -0.108916319552
dD: 0.00125682726967
ddelta: -0.0382563817793
---
header: 
  seq: 194
  stamp: 
    secs: 1611880659
    nsecs: 320065752
  frame_id: ''
D: 0.600481278241
delta: -0.109119892343
dD: 0.0103082897761
ddelta: -0.0101786395425
---
header: 
  seq: 195
  stamp: 
    secs: 1611880659
    nsecs: 340075266
  frame_id: ''
D: 0.60046229274
delta: -0.109709912502
dD: -0.000949275078444
ddelta: -0.0295010079519
---
header: 
  seq: 196
  stamp: 
    secs: 1611880659
    nsecs: 360068121
  frame_id: ''
D: 0.60066615802
delta: -0.109742508219
dD: 0.010193264035
ddelta: -0.00162978582061
---
header: 
  seq: 197
  stamp: 
    secs: 1611880659
    nsecs: 380069629
  frame_id: ''
D: 0.600580278805
delta: -0.108843475114
dD: -0.00429396077955
ddelta: 0.0449516552317
---
header: 
  seq: 198
  stamp: 
    secs: 1611880659
    nsecs: 400074977
  frame_id: ''
D: 0.600641177797
delta: -0.108367886915
dD: 0.00304494959354
ddelta: 0.0237794099612
---
header: 
  seq: 199
  stamp: 
    secs: 1611880659
    nsecs: 420069165
  frame_id: ''
D: 0.600778966576
delta: -0.108211346266
dD: 0.00688943898228
ddelta: 0.0078270324558
---
header: 
  seq: 200
  stamp: 
    secs: 1611880659
    nsecs: 440068306
  frame_id: ''
D: 0.60079980508
delta: -0.108852887081
dD: 0.00104192517696
ddelta: -0.0320770407786
---
header: 
  seq: 201
  stamp: 
    secs: 1611880659
    nsecs: 460070839
  frame_id: ''
D: 0.600797247436
delta: -0.108507248831
dD: -0.000127882172207
ddelta: 0.0172819124973
---
header: 
  seq: 202
  stamp: 
    secs: 1611880659
    nsecs: 480068356
  frame_id: ''
D: 0.600854945121
delta: -0.108992952538
dD: 0.00288488421878
ddelta: -0.0242851853227
---
header: 
  seq: 203
  stamp: 
    secs: 1611880659
    nsecs: 500066936
  frame_id: ''
D: 0.599736158522
delta: -0.108929120774
dD: -0.0559393299326
ddelta: 0.00319158819516
---
header: 
  seq: 204
  stamp: 
    secs: 1611880659
    nsecs: 520068235
  frame_id: ''
D: 0.598313598858
delta: -0.108612782084
dD: -0.0711279831925
ddelta: 0.0158169344867
---
header: 
  seq: 205
  stamp: 
    secs: 1611880659
    nsecs: 540070069
  frame_id: ''
D: 0.498313598858
delta: -0.068612782084
dD: -5.0
ddelta: 2.0
---
header: 
  seq: 206
  stamp: 
    secs: 1611880659
    nsecs: 570077726
  frame_id: ''
D: 0.398313599234
delta: -0.0286127821111
dD: -4.99999998141
ddelta: 1.99999999871
---
header: 
  seq: 207
  stamp: 
    secs: 1611880659
    nsecs: 590070547
  frame_id: ''
D: 0.298313599234
delta: 0.0113872178889
dD: -5.0
ddelta: 2.0
---
header: 
  seq: 208
  stamp: 
    secs: 1611880659
    nsecs: 600070836
  frame_id: ''
D: 0.198313599234
delta: 0.0513872178889
dD: -5.0
ddelta: 2.0
---
header: 
  seq: 209
  stamp: 
    secs: 1611880659
    nsecs: 620066402
  frame_id: ''
D: 0.0983135992337
delta: 0.0913872178889
dD: -5.0
ddelta: 2.0
---
header: 
  seq: 210
  stamp: 
    secs: 1611880659
    nsecs: 640079782
  frame_id: ''
D: 0.198313599234
delta: 0.10733593072
dD: 5.0
ddelta: 0.797435641557
---
header: 
  seq: 211
  stamp: 
    secs: 1611880659
    nsecs: 660073606
  frame_id: ''
D: 0.0983135992337
delta: 0.14733593072
dD: -5.0
ddelta: 2.0
---
header: 
  seq: 212
  stamp: 
    secs: 1611880659
    nsecs: 690077025
  frame_id: ''
D: 0.0647415290399
delta: 0.162794420985
dD: -1.67860350969
ddelta: 0.772924513225
---
header: 
  seq: 213
  stamp: 
    secs: 1611880659
    nsecs: 700072799
  frame_id: ''
D: 0.16474152904
delta: 0.13542129082
dD: 5.0
ddelta: -1.3686565082
---
header: 
  seq: 214
  stamp: 
    secs: 1611880659
    nsecs: 720070617
  frame_id: ''
D: 0.229614559147
delta: 0.0954212908499
dD: 3.24365150533
ddelta: -1.99999999853
---
header: 
  seq: 215
  stamp: 
    secs: 1611880659
    nsecs: 740069411
  frame_id: ''
D: 0.129614559147
delta: 0.05542129085
dD: -5.0
ddelta: -2.0
---
header: 
  seq: 216
  stamp: 
    secs: 1611880659
    nsecs: 760074516
  frame_id: ''
D: 0.229614559146
delta: 0.0154212908515
dD: 4.99999999996
ddelta: -1.99999999992
---
header: 
  seq: 217
  stamp: 
    secs: 1611880659
    nsecs: 780072502
  frame_id: ''
D: 0.329614554672
delta: 0.0174907133923
dD: 4.99999977629
ddelta: 0.10347112704
---
header: 
  seq: 218
  stamp: 
    secs: 1611880659
    nsecs: 800078510
  frame_id: ''
D: 0.40384531472
delta: -0.00972082056877
dD: 3.71153800242
ddelta: -1.36057669805
---
header: 
  seq: 219
  stamp: 
    secs: 1611880659
    nsecs: 820074832
  frame_id: ''
D: 0.457926857028
delta: -0.034463296857
dD: 2.7040771156
ddelta: -1.23712381375
---
header: 
  seq: 220
  stamp: 
    secs: 1611880659
    nsecs: 840069119
  frame_id: ''
D: 0.493936989791
delta: -0.048550713891
dD: 1.80050663818
ddelta: -0.704370851702
---
header: 
  seq: 221
  stamp: 
    secs: 1611880659
    nsecs: 860072313
  frame_id: ''
D: 0.518849042148
delta: -0.0553163535447
dD: 1.24560261783
ddelta: -0.338281982681
---
header: 
  seq: 222
  stamp: 
    secs: 1611880659
    nsecs: 880067287
  frame_id: ''
D: 0.532780076473
delta: -0.0540211000041
dD: 0.696551716248
ddelta: 0.0647626770285
---
header: 
  seq: 223
  stamp: 
    secs: 1611880659
    nsecs: 900067697
  frame_id: ''
D: 0.542377885645
delta: -0.0553426436936
dD: 0.479890458616
ddelta: -0.0660771844763
---
header: 
  seq: 224
  stamp: 
    secs: 1611880659
    nsecs: 920077440
  frame_id: ''
D: 0.549366659
delta: -0.0525341230852
dD: 0.349438667761
ddelta: 0.140426030422
---
header: 
  seq: 225
  stamp: 
    secs: 1611880659
    nsecs: 940069759
  frame_id: ''
D: 0.555633592035
delta: -0.0484637082793
dD: 0.313346651745
ddelta: 0.203520740292
---
header: 
  seq: 226
  stamp: 
    secs: 1611880659
    nsecs: 960070125
  frame_id: ''
D: 0.560845090788
delta: -0.0437434969077
dD: 0.260574937652
ddelta: 0.236010568581
---
header: 
  seq: 227
  stamp: 
    secs: 1611880659
    nsecs: 980073368
  frame_id: ''
D: 0.567642324722
delta: -0.0525652211498
dD: 0.339861696691
ddelta: -0.441086212104
---
header: 
  seq: 228
  stamp: 
    secs: 1611880660
    nsecs:     71555
  frame_id: ''
D: 0.573808249808
delta: -0.0665297083097
dD: 0.308296254314
ddelta: -0.698224357995
---
header: 
  seq: 229
  stamp: 
    secs: 1611880660
    nsecs:  20069133
  frame_id: ''
D: 0.571950350849
delta: -0.0698877051703
dD: -0.0928949479606
ddelta: -0.167899843029
---
header: 
  seq: 230
  stamp: 
    secs: 1611880660
    nsecs:  40078151
  frame_id: ''
D: 0.567911094482
delta: -0.0673142300399
dD: -0.201962818353
ddelta: 0.128673756521
---
header: 
  seq: 231
  stamp: 
    secs: 1611880660
    nsecs:  60063722
  frame_id: ''
D: 0.56473484096
delta: -0.0622981408061
dD: -0.158812676086
ddelta: 0.250804461686
---
header: 
  seq: 232
  stamp: 
    secs: 1611880660
    nsecs:  80069207
  frame_id: ''
D: 0.563863681468
delta: -0.0668946427098
dD: -0.0435579746021
ddelta: -0.229825095178
---
header: 
  seq: 233
  stamp: 
    secs: 1611880660
    nsecs: 100074570
  frame_id: ''
D: 0.565139594491
delta: -0.0711507611769
dD: 0.0637956511343
ddelta: -0.212805923358
---
header: 
  seq: 234
  stamp: 
    secs: 1611880660
    nsecs: 120069466
  frame_id: ''
D: 0.562187180424
delta: -0.074416255434
dD: -0.147620703378
ddelta: -0.163274712852
---
header: 
  seq: 235
  stamp: 
    secs: 1611880660
    nsecs: 140065652
  frame_id: ''
D: 0.558332017117
delta: -0.084949494244
dD: -0.19275816534
ddelta: -0.5266619405
---
header: 
  seq: 236
  stamp: 
    secs: 1611880660
    nsecs: 160070059
  frame_id: ''
D: 0.555185982178
delta: -0.0843380998906
dD: -0.157301746961
ddelta: 0.0305697176701
---
header: 
  seq: 237
  stamp: 
    secs: 1611880660
    nsecs: 180068655
  frame_id: ''
D: 0.55457731395
delta: -0.077934354074
dD: -0.0304334113949
ddelta: 0.320187290828
---
header: 
  seq: 238
  stamp: 
    secs: 1611880660
    nsecs: 200072292
  frame_id: ''
D: 0.550491388982
delta: -0.0692598584104
dD: -0.20429624839
ddelta: 0.433724783182
---
header: 
  seq: 239
  stamp: 
    secs: 1611880660
    nsecs: 220072268
  frame_id: ''
D: 0.545471752902
delta: -0.0608879546866
dD: -0.250981803994
ddelta: 0.418595186191
---
header: 
  seq: 240
  stamp: 
    secs: 1611880660
    nsecs: 240065879
  frame_id: ''
D: 0.542818498488
delta: -0.0540881653345
dD: -0.132662720709
ddelta: 0.339989467601
---
header: 
  seq: 241
  stamp: 
    secs: 1611880660
    nsecs: 260062977
  frame_id: ''
D: 0.539033435155
delta: -0.0489301826056
dD: -0.189253166642
ddelta: 0.257899136445
---
header: 
  seq: 242
  stamp: 
    secs: 1611880660
    nsecs: 280068089
  frame_id: ''
D: 0.533875030598
delta: -0.0453809689699
dD: -0.257920227824
ddelta: 0.177460681788
---
header: 
  seq: 243
  stamp: 
    secs: 1611880660
    nsecs: 300064458
  frame_id: ''
D: 0.531250277834
delta: -0.0432954645025
dD: -0.131237638221
ddelta: 0.104275223369
---
header: 
  seq: 244
  stamp: 
    secs: 1611880660
    nsecs: 320063689
  frame_id: ''
D: 0.532470076344
delta: -0.0421969580289
dD: 0.0609899255194
ddelta: 0.0549253236794
---
header: 
  seq: 245
  stamp: 
    secs: 1611880660
    nsecs: 340071664
  frame_id: ''
D: 0.529309993982
delta: -0.0413585765106
dD: -0.158004118111
ddelta: 0.0419190759172
---
header: 
  seq: 246
  stamp: 
    secs: 1611880660
    nsecs: 360084488
  frame_id: ''
D: 0.527059575796
delta: -0.041062058852
dD: -0.112520909294
ddelta: 0.0148258829293
---
header: 
  seq: 247
  stamp: 
    secs: 1611880660
    nsecs: 380066075
  frame_id: ''
D: 0.528064146478
delta: -0.0410226327654
dD: 0.0502285340659
ddelta: 0.00197130432728
---
header: 
  seq: 248
  stamp: 
    secs: 1611880660
    nsecs: 400074237
  frame_id: ''
D: 0.526321875612
delta: -0.0408235327005
dD: -0.0871135433033
ddelta: 0.00995500324956
---
header: 
  seq: 249
  stamp: 
    secs: 1611880660
    nsecs: 420065633
  frame_id: ''
D: 0.524271598953
delta: -0.040748737996
dD: -0.102513832938
ddelta: 0.00373973522445
---
header: 
  seq: 250
  stamp: 
    secs: 1611880660
    nsecs: 440066479
  frame_id: ''
D: 0.520383381766
delta: -0.0406210673591
dD: -0.194410859323
ddelta: 0.00638353184497
---
header: 
  seq: 251
  stamp: 
    secs: 1611880660
    nsecs: 460072309
  frame_id: ''
D: 0.515424205702
delta: -0.0405325981242
dD: -0.247958803207
ddelta: 0.00442346174475
---
header: 
  seq: 252
  stamp: 
    secs: 1611880660
    nsecs: 480067423
  frame_id: ''
D: 0.513710030795
delta: -0.0406245709863
dD: -0.0857087453618
ddelta: -0.00459864310542
---
header: 
  seq: 253
  stamp: 
    secs: 1611880660
    nsecs: 500067204
  frame_id: ''
D: 0.508458955567
delta: -0.0404712151861
dD: -0.262553761381
ddelta: 0.00766779000733
---
header: 
  seq: 254
  stamp: 
    secs: 1611880660
    nsecs: 520076198
  frame_id: ''
D: 0.505572029565
delta: -0.0405721446804
dD: -0.14434630013
ddelta: -0.00504647471427
---
header: 
  seq: 255
  stamp: 
    secs: 1611880660
    nsecs: 540068722
  frame_id: ''
D: 0.499250209999
delta: -0.0404664493448
dD: -0.316090978309
ddelta: 0.00528476678014
---
header: 
  seq: 256
  stamp: 
    secs: 1611880660
    nsecs: 560067874
  frame_id: ''
D: 0.495852873458
delta: -0.0406352552154
dD: -0.169866827007
ddelta: -0.00844029353108
---
header: 
  seq: 257
  stamp: 
    secs: 1611880660
    nsecs: 580071616
  frame_id: ''
D: 0.493137652271
delta: -0.0407357023763
dD: -0.135761059362
ddelta: -0.0050223580452
---
header: 
  seq: 258
  stamp: 
    secs: 1611880660
    nsecs: 600068184
  frame_id: ''
D: 0.491027259991
delta: -0.0408536168335
dD: -0.105519613991
ddelta: -0.00589572285841
---
header: 
  seq: 259
  stamp: 
    secs: 1611880660
    nsecs: 620069201
  frame_id: ''
D: 0.484913618322
delta: -0.0407992535657
dD: -0.305682083466
ddelta: 0.00271816339236
---
header: 
  seq: 260
  stamp: 
    secs: 1611880660
    nsecs: 640073580
  frame_id: ''
D: 0.481934131973
delta: -0.0410393762472
dD: -0.148974317464
ddelta: -0.0120061340793
---
header: 
  seq: 261
  stamp: 
    secs: 1611880660
    nsecs: 660065015
  frame_id: ''
D: 0.478307830291
delta: -0.0411377770067
dD: -0.181315084075
ddelta: -0.00492003797487
---
header: 
  seq: 262
  stamp: 
    secs: 1611880660
    nsecs: 680065448
  frame_id: ''
D: 0.477172067921
delta: -0.0413749418816
dD: -0.0567881185219
ddelta: -0.0118582437428
---
header: 
  seq: 263
  stamp: 
    secs: 1611880660
    nsecs: 700063442
  frame_id: ''
D: 0.476997405037
delta: -0.048431297523
dD: -0.00873314419071
ddelta: -0.352817782069
---
header: 
  seq: 264
  stamp: 
    secs: 1611880660
    nsecs: 720068100
  frame_id: ''
D: 0.476461180061
delta: -0.0638117147414
dD: -0.0268112487924
ddelta: -0.769020860921
---
header: 
  seq: 265
  stamp: 
    secs: 1611880660
    nsecs: 740065086
  frame_id: ''
D: 0.472305635424
delta: -0.0759938001271
dD: -0.207777231858
ddelta: -0.609104269282
---
header: 
  seq: 266
  stamp: 
    secs: 1611880660
    nsecs: 760066076
  frame_id: ''
D: 0.468889742402
delta: -0.0910952431189
dD: -0.170794651088
ddelta: -0.755072149592
---
header: 
  seq: 267
  stamp: 
    secs: 1611880660
    nsecs: 780070527
  frame_id: ''
D: 0.464336973883
delta: -0.10113252626
dD: -0.227638425938
ddelta: -0.501864157076
---
header: 
  seq: 268
  stamp: 
    secs: 1611880660
    nsecs: 800065021
  frame_id: ''
D: 0.45794834009
delta: -0.102152265073
dD: -0.319431689683
ddelta: -0.0509869406464
---
header: 
  seq: 269
  stamp: 
    secs: 1611880660
    nsecs: 820074625
  frame_id: ''
D: 0.45489976484
delta: -0.0989182898055
dD: -0.152428762466
ddelta: 0.161698763394
---
header: 
  seq: 270
  stamp: 
    secs: 1611880660
    nsecs: 840063273
  frame_id: ''
D: 0.450484164289
delta: -0.0938509140993
dD: -0.220780027576
ddelta: 0.253368785309
---
header: 
  seq: 271
  stamp: 
    secs: 1611880660
    nsecs: 860065397
  frame_id: ''
D: 0.451183973889
delta: -0.0895922972708
dD: 0.0349904799896
ddelta: 0.212930841427
---
header: 
  seq: 272
  stamp: 
    secs: 1611880660
    nsecs: 880066138
  frame_id: ''
D: 0.450578849039
delta: -0.0859167271616
dD: -0.0302562425041
ddelta: 0.18377850546
---
header: 
  seq: 273
  stamp: 
    secs: 1611880660
    nsecs: 900069033
  frame_id: ''
D: 0.445986299041
delta: -0.0831406598958
dD: -0.229627499903
ddelta: 0.13880336329
---
header: 
  seq: 274
  stamp: 
    secs: 1611880660
    nsecs: 920063887
  frame_id: ''
D: 0.443159311107
delta: -0.0817968708989
dD: -0.141349396686
ddelta: 0.067189449843
---
header: 
  seq: 275
  stamp: 
    secs: 1611880660
    nsecs: 940073186
  frame_id: ''
D: 0.440747203357
delta: -0.0810810860756
dD: -0.120605387514
ddelta: 0.0357892411668
---
header: 
  seq: 276
  stamp: 
    secs: 1611880660
    nsecs: 960079575
  frame_id: ''
D: 0.43935193811
delta: -0.0808576966511
dD: -0.069763262312
ddelta: 0.011169471226
---
header: 
  seq: 277
  stamp: 
    secs: 1611880660
    nsecs: 980066619
  frame_id: ''
D: 0.437771946191
delta: -0.0807555214287
dD: -0.0789995959518
ddelta: 0.0051087611174
---
header: 
  seq: 278
  stamp: 
    secs: 1611880661
    nsecs:     86563
  frame_id: ''
D: 0.435631547793
delta: -0.0806882903459
dD: -0.107019919939
ddelta: 0.00336155414119
---
header: 
  seq: 279
  stamp: 
    secs: 1611880661
    nsecs:  20065852
  frame_id: ''
D: 0.434233022567
delta: -0.0807178335604
dD: -0.0699262613021
ddelta: -0.00147716072205
---
header: 
  seq: 280
  stamp: 
    secs: 1611880661
    nsecs:  40067494
  frame_id: ''
D: 0.435126758482
delta: -0.0808609537818
dD: 0.0446867957575
ddelta: -0.00715601107167
---
header: 
  seq: 281
  stamp: 
    secs: 1611880661
    nsecs:  60074007
  frame_id: ''
D: 0.435512595774
delta: -0.0798663479062
dD: 0.0192918646395
ddelta: 0.0497302937783
---
header: 
  seq: 282
  stamp: 
    secs: 1611880661
    nsecs:  80067720
  frame_id: ''
D: 0.430443488463
delta: -0.0771856237921
dD: -0.253455365582
ddelta: 0.134036205705
---
header: 
  seq: 283
  stamp: 
    secs: 1611880661
    nsecs: 100066119
  frame_id: ''
D: 0.424655694509
delta: -0.0742359640249
dD: -0.289389697706
ddelta: 0.147482988362
---
header: 
  seq: 284
  stamp: 
    secs: 1611880661
    nsecs: 120072139
  frame_id: ''
D: 0.421736772021
delta: -0.0715139816342
dD: -0.145946124403
ddelta: 0.136099119535
---
header: 
  seq: 285
  stamp: 
    secs: 1611880661
    nsecs: 140068017
  frame_id: ''
D: 0.421655134504
delta: -0.0691373904743
dD: -0.00408187585665
ddelta: 0.118829557994
---
header: 
  seq: 286
  stamp: 
    secs: 1611880661
    nsecs: 160062945
  frame_id: ''
D: 0.420046955268
delta: -0.0669562524582
dD: -0.0804089617922
ddelta: 0.109056900806
---
header: 
  seq: 287
  stamp: 
    secs: 1611880661
    nsecs: 180069290
  frame_id: ''
D: 0.420174580252
delta: -0.0654738207788
dD: 0.00638124919366
ddelta: 0.0741215839722
---
header: 
  seq: 288
  stamp: 
    secs: 1611880661
    nsecs: 200068109
  frame_id: ''
D: 0.420275030945
delta: -0.0643810138917
dD: 0.00502253467772
ddelta: 0.0546403443543
---
header: 
  seq: 289
  stamp: 
    secs: 1611880661
    nsecs: 220067995
  frame_id: ''
D: 0.424322622647
delta: -0.0639735225436
dD: 0.202379585087
ddelta: 0.0203745674052
---
header: 
  seq: 290
  stamp: 
    secs: 1611880661
    nsecs: 240071355
  frame_id: ''
D: 0.426273706355
delta: -0.0618438579328
dD: 0.0975541853955
ddelta: 0.106483230539
---
header: 
  seq: 291
  stamp: 
    secs: 1611880661
    nsecs: 260068334
  frame_id: ''
D: 0.427682539687
delta: -0.0591813674968
dD: 0.0704416666301
ddelta: 0.133124521801
---
header: 
  seq: 292
  stamp: 
    secs: 1611880661
    nsecs: 280074001
  frame_id: ''
D: 0.4305075434
delta: -0.0565404809984
dD: 0.141250185627
ddelta: 0.13204432492
---
header: 
  seq: 293
  stamp: 
    secs: 1611880661
    nsecs: 300071288
  frame_id: ''
D: 0.434163868465
delta: -0.0541257059384
dD: 0.182816253278
ddelta: 0.120738752997
---
header: 
  seq: 294
  stamp: 
    secs: 1611880661
    nsecs: 320065680
  frame_id: ''
D: 0.439156221742
delta: -0.0521548042828
dD: 0.249617663809
ddelta: 0.0985450827836
---
header: 
  seq: 295
  stamp: 
    secs: 1611880661
    nsecs: 340073159
  frame_id: ''
D: 0.442428928079
delta: -0.0505138311189
dD: 0.163635316891
ddelta: 0.0820486581939
---
header: 
  seq: 296
  stamp: 
    secs: 1611880661
    nsecs: 360070313
  frame_id: ''
D: 0.442790430423
delta: -0.0492651235104
dD: 0.0180751171598
ddelta: 0.062435380423
---
header: 
  seq: 297
  stamp: 
    secs: 1611880661
    nsecs: 380066346
  frame_id: ''
D: 0.443217420444
delta: -0.0485541329539
dD: 0.0213495010911
ddelta: 0.0355495278271
---
header: 
  seq: 298
  stamp: 
    secs: 1611880661
    nsecs: 400073512
  frame_id: ''
D: 0.446335731815
delta: -0.0483115504534
dD: 0.155915568537
ddelta: 0.0121291250266
---
header: 
  seq: 299
  stamp: 
    secs: 1611880661
    nsecs: 420071705
  frame_id: ''
D: 0.448962251138
delta: -0.0482053733118
dD: 0.131325966115
ddelta: 0.00530885707644
---
header: 
  seq: 300
  stamp: 
    secs: 1611880661
    nsecs: 440069557
  frame_id: ''
D: 0.45097074818
delta: -0.0482891813465
dD: 0.100424852116
ddelta: -0.00419040173413
---
header: 
  seq: 301
  stamp: 
    secs: 1611880661
    nsecs: 460072402
  frame_id: ''
D: 0.453466098472
delta: -0.0485550842537
dD: 0.124767514613
ddelta: -0.0132951453618
---
header: 
  seq: 302
  stamp: 
    secs: 1611880661
    nsecs: 480069348
  frame_id: ''
D: 0.453902306181
delta: -0.048789917017
dD: 0.021810385439
ddelta: -0.0117416381641
---
header: 
  seq: 303
  stamp: 
    secs: 1611880661
    nsecs: 500068744
  frame_id: ''
D: 0.456252808085
delta: -0.0492509003787
dD: 0.117525095227
ddelta: -0.023049168084
---
header: 
  seq: 304
  stamp: 
    secs: 1611880661
    nsecs: 520070915
  frame_id: ''
D: 0.455332242772
delta: -0.0494961966307
dD: -0.0460282656796
ddelta: -0.0122648125971
---
header: 
  seq: 305
  stamp: 
    secs: 1611880661
    nsecs: 540069349
  frame_id: ''
D: 0.453060992539
delta: -0.0498353502885
dD: -0.113562511626
ddelta: -0.0169576828902
---
header: 
  seq: 306
  stamp: 
    secs: 1611880661
    nsecs: 560074303
  frame_id: ''
D: 0.451739974724
delta: -0.0502743764153
dD: -0.0660508907656
ddelta: -0.0219513063405
---
header: 
  seq: 307
  stamp: 
    secs: 1611880661
    nsecs: 580070798
  frame_id: ''
D: 0.447535035925
delta: -0.0505320740854
dD: -0.210246939933
ddelta: -0.0128848835056
---
header: 
  seq: 308
  stamp: 
    secs: 1611880661
    nsecs: 600068321
  frame_id: ''
D: 0.447837212113
delta: -0.0511243684917
dD: 0.0151088093775
ddelta: -0.0296147203141
---
header: 
  seq: 309
  stamp: 
    secs: 1611880661
    nsecs: 620072126
  frame_id: ''
D: 0.446229478473
delta: -0.0489246435265
dD: -0.0803866820074
ddelta: 0.109986248259
---
header: 
  seq: 310
  stamp: 
    secs: 1611880661
    nsecs: 640096299
  frame_id: ''
D: 0.439982379455
delta: -0.0444352373461
dD: -0.312354950898
ddelta: 0.224470309019
---
header: 
  seq: 311
  stamp: 
    secs: 1611880661
    nsecs: 660068311
  frame_id: ''
D: 0.43325802026
delta: -0.039180640249
dD: -0.336217959742
ddelta: 0.262729854855
---
header: 
  seq: 312
  stamp: 
    secs: 1611880661
    nsecs: 680071249
  frame_id: ''
D: 0.429421310107
delta: -0.0340426542633
dD: -0.191835507627
ddelta: 0.256899299284
---
header: 
  seq: 313
  stamp: 
    secs: 1611880661
    nsecs: 700069918
  frame_id: ''
D: 0.426622970138
delta: -0.0294561945219
dD: -0.139916998496
ddelta: 0.229322987072
---
header: 
  seq: 314
  stamp: 
    secs: 1611880661
    nsecs: 720065351
  frame_id: ''
D: 0.423777626407
delta: -0.0256920817649
dD: -0.14226718654
ddelta: 0.188205637852
---
header: 
  seq: 315
  stamp: 
    secs: 1611880661
    nsecs: 740070371
  frame_id: ''
D: 0.423407063694
delta: -0.0228860406372
dD: -0.0185281356365
ddelta: 0.140302056382
---
header: 
  seq: 316
  stamp: 
    secs: 1611880661
    nsecs: 760064141
  frame_id: ''
D: 0.421444293158
delta: -0.0209059445296
dD: -0.0981385268044
ddelta: 0.0990048053794
---
header: 
  seq: 317
  stamp: 
    secs: 1611880661
    nsecs: 780068117
  frame_id: ''
D: 0.420068518368
delta: -0.0197138251373
dD: -0.0687887394727
ddelta: 0.059605969615
---
header: 
  seq: 318
  stamp: 
    secs: 1611880661
    nsecs: 800069817
  frame_id: ''
D: 0.421288357955
delta: -0.0191674749756
dD: 0.0609919793142
ddelta: 0.0273175080845
---
header: 
  seq: 319
  stamp: 
    secs: 1611880661
    nsecs: 820067348
  frame_id: ''
D: 0.420696186218
delta: -0.0190284375197
dD: -0.0296085868174
ddelta: 0.00695187279782
---
header: 
  seq: 320
  stamp: 
    secs: 1611880661
    nsecs: 840066003
  frame_id: ''
D: 0.420385392226
delta: -0.0192535433332
dD: -0.0155396996277
ddelta: -0.0112552906761
---
header: 
  seq: 321
  stamp: 
    secs: 1611880661
    nsecs: 860069108
  frame_id: ''
D: 0.422349443027
delta: -0.0197220261483
dD: 0.0982025400612
ddelta: -0.0234241407548
---
header: 
  seq: 322
  stamp: 
    secs: 1611880661
    nsecs: 880067722
  frame_id: ''
D: 0.424028416694
delta: -0.0202635683953
dD: 0.0839486833419
ddelta: -0.0270771123466
---
header: 
  seq: 323
  stamp: 
    secs: 1611880661
    nsecs: 900068457
  frame_id: ''
D: 0.424243909881
delta: -0.0208381060802
dD: 0.0107746593716
ddelta: -0.028726884248
---
header: 
  seq: 324
  stamp: 
    secs: 1611880661
    nsecs: 920073528
  frame_id: ''
D: 0.425751623566
delta: -0.021469841753
dD: 0.0753856842077
ddelta: -0.0315867836359
---
header: 
  seq: 325
  stamp: 
    secs: 1611880661
    nsecs: 940071012
  frame_id: ''
D: 0.427704399363
delta: -0.0151730278547
dD: 0.0976387898767
ddelta: 0.314840694945
---
header: 
  seq: 326
  stamp: 
    secs: 1611880661
    nsecs: 960066229
  frame_id: ''
D: 0.431408136802
delta: -0.0104310473316
dD: 0.185186871925
ddelta: 0.237099026153
---
header: 
  seq: 327
  stamp: 
    secs: 1611880661
    nsecs: 980075735
  frame_id: ''
D: 0.435660289088
delta: -0.0068653177462
dD: 0.212607614305
ddelta: 0.178286479269
---
header: 
  seq: 328
  stamp: 
    secs: 1611880662
    nsecs:     66108
  frame_id: ''
D: 0.435846089847
delta: -0.00334744819882
dD: 0.00929003794122
ddelta: 0.175893477363
---
header: 
  seq: 329
  stamp: 
    secs: 1611880662
    nsecs:  20062698
  frame_id: ''
D: 0.435921468397
delta: -4.80537122249e-05
dD: 0.00376892750522
ddelta: 0.164969724327
---
header: 
  seq: 330
  stamp: 
    secs: 1611880662
    nsecs:  40069148
  frame_id: ''
D: 0.441334576805
delta: 0.00293649256713
dD: 0.270655420397
ddelta: 0.149227313967
---
header: 
  seq: 331
  stamp: 
    secs: 1611880662
    nsecs:  60064911
  frame_id: ''
D: 0.444921055912
delta: 0.00542266160734
dD: 0.17932395535
ddelta: 0.124308452005
---
header: 
  seq: 332
  stamp: 
    secs: 1611880662
    nsecs:  80064250
  frame_id: ''
D: 0.451998075815
delta: 0.00749007745461
dD: 0.353850995139
ddelta: 0.103370792363
---
header: 
  seq: 333
  stamp: 
    secs: 1611880662
    nsecs: 100068261
  frame_id: ''
D: 0.455727000589
delta: 0.00899133426658
dD: 0.186446238687
ddelta: 0.0750628405886
---
header: 
  seq: 334
  stamp: 
    secs: 1611880662
    nsecs: 120065634
  frame_id: ''
D: 0.461909836685
delta: 0.0100979221073
dD: 0.309141804826
ddelta: 0.0553293920358
---
header: 
  seq: 335
  stamp: 
    secs: 1611880662
    nsecs: 140071605
  frame_id: ''
D: 0.464146745085
delta: 0.010729994195
dD: 0.111845419962
ddelta: 0.0316036043664
---
header: 
  seq: 336
  stamp: 
    secs: 1611880662
    nsecs: 160065193
  frame_id: ''
D: 0.468618106186
delta: 0.0110867765394
dD: 0.223568055051
ddelta: 0.0178391172209
---
header: 
  seq: 337
  stamp: 
    secs: 1611880662
    nsecs: 180065556
  frame_id: ''
D: 0.469189560444
delta: 0.0111354456826
dD: 0.0285727128601
ddelta: 0.00243345714047
---
header: 
  seq: 338
  stamp: 
    secs: 1611880662
    nsecs: 200069570
  frame_id: ''
D: 0.467437717979
delta: 0.0110134181616
dD: -0.0875921232751
ddelta: -0.00610137606753
---
header: 
  seq: 339
  stamp: 
    secs: 1611880662
    nsecs: 220064579
  frame_id: ''
D: 0.465666395991
delta: 0.0107950956113
dD: -0.0885660993953
ddelta: -0.0109161275232
---
header: 
  seq: 340
  stamp: 
    secs: 1611880662
    nsecs: 240064524
  frame_id: ''
D: 0.466241493091
delta: 0.010540515315
dD: 0.0287548549709
ddelta: -0.0127290148168
---
header: 
  seq: 341
  stamp: 
    secs: 1611880662
    nsecs: 260071307
  frame_id: ''
D: 0.466048113085
delta: 0.0102673612996
dD: -0.0096690003274
ddelta: -0.0136577007833
---
header: 
  seq: 342
  stamp: 
    secs: 1611880662
    nsecs: 280065696
  frame_id: ''
D: 0.461564287509
delta: 0.0100059127725
dD: -0.224191278845
ddelta: -0.0130724264003
---
