header: 
  seq: 0
  stamp: 
    secs: 1611880657
    nsecs: 224122700
  frame_id: ''
s: 0.0
n: 0.0
alpha: 0.0
v: 0.0
---
header: 
  seq: 1
  stamp: 
    secs: 1611880657
    nsecs: 240010475
  frame_id: ''
s: 0.0
n: 4.39465283345e-06
alpha: 0.000608673959585
v: 0.00191773648525
---
header: 
  seq: 2
  stamp: 
    secs: 1611880657
    nsecs: 250077910
  frame_id: ''
s: 0.0
n: 3.36079711385e-05
alpha: 0.00460660186784
v: 0.00956429762601
---
header: 
  seq: 3
  stamp: 
    secs: 1611880657
    nsecs: 260066663
  frame_id: ''
s: 0.0
n: 0.000132815289184
alpha: 0.0149803152983
v: 0.0265868363107
---
header: 
  seq: 4
  stamp: 
    secs: 1611880657
    nsecs: 270069521
  frame_id: ''
s: 0.0
n: 0.000354933760916
alpha: 0.0351765538191
v: 0.0558211799667
---
header: 
  seq: 5
  stamp: 
    secs: 1611880657
    nsecs: 280065602
  frame_id: ''
s: 0.0
n: 0.000724177445372
alpha: 0.0691577526903
v: 0.0982399182295
---
header: 
  seq: 6
  stamp: 
    secs: 1611880657
    nsecs: 290071821
  frame_id: ''
s: 0.0
n: 0.00133491007023
alpha: 0.101644219523
v: 0.152264751619
---
header: 
  seq: 7
  stamp: 
    secs: 1611880657
    nsecs: 300074623
  frame_id: ''
s: 0.0
n: 0.002086753092
alpha: 0.137907041518
v: 0.212404709138
---
header: 
  seq: 8
  stamp: 
    secs: 1611880657
    nsecs: 310068269
  frame_id: ''
s: 0.0
n: 0.00296952165287
alpha: 0.166385271234
v: 0.271353616587
---
header: 
  seq: 9
  stamp: 
    secs: 1611880657
    nsecs: 320066135
  frame_id: ''
s: 0.0
n: 0.00400888558374
alpha: 0.177525982619
v: 0.321932608988
---
header: 
  seq: 10
  stamp: 
    secs: 1611880657
    nsecs: 330071467
  frame_id: ''
s: 0.0
n: 0.00529666178302
alpha: 0.167244631319
v: 0.380122575501
---
header: 
  seq: 11
  stamp: 
    secs: 1611880657
    nsecs: 340065500
  frame_id: ''
s: 8.67443064733
n: 0.00591066522187
alpha: 6.4579528914
v: 0.386534872702
---
header: 
  seq: 12
  stamp: 
    secs: 1611880657
    nsecs: 350075892
  frame_id: ''
s: 8.67102782456
n: 0.0063942459114
alpha: 6.4620976971
v: 0.380778338224
---
header: 
  seq: 13
  stamp: 
    secs: 1611880657
    nsecs: 360074517
  frame_id: ''
s: 8.66840680657
n: 0.00675608927924
alpha: 6.46366953541
v: 0.365681733854
---
header: 
  seq: 14
  stamp: 
    secs: 1611880657
    nsecs: 370070650
  frame_id: ''
s: 8.6664840473
n: 0.00701162591369
alpha: 6.4633623596
v: 0.34388336386
---
header: 
  seq: 15
  stamp: 
    secs: 1611880657
    nsecs: 380069577
  frame_id: ''
s: 8.66515827117
n: 0.00717792132786
alpha: 6.46176504415
v: 0.317591852864
---
header: 
  seq: 16
  stamp: 
    secs: 1611880657
    nsecs: 390069390
  frame_id: ''
s: 8.66202003117
n: 0.00766569971366
alpha: 6.46821065822
v: 0.317591852864
---
header: 
  seq: 17
  stamp: 
    secs: 1611880657
    nsecs: 400068479
  frame_id: ''
s: 8.66147743449
n: 0.00771000166844
alpha: 6.46414492541
v: 0.288564393129
---
header: 
  seq: 18
  stamp: 
    secs: 1611880657
    nsecs: 410082704
  frame_id: ''
s: 8.66135574262
n: 0.00784884576127
alpha: 6.45123693935
v: 0.25842305973
---
header: 
  seq: 19
  stamp: 
    secs: 1611880657
    nsecs: 420099270
  frame_id: ''
s: 8.66156273852
n: 0.00776624430066
alpha: 6.44898589767
v: 0.227671561118
---
header: 
  seq: 20
  stamp: 
    secs: 1611880657
    nsecs: 430072845
  frame_id: ''
s: 8.66202233386
n: 0.0076502135634
alpha: 6.44689920894
v: 0.197467291515
---
header: 
  seq: 21
  stamp: 
    secs: 1611880657
    nsecs: 440066097
  frame_id: ''
s: 8.66484055821
n: 0.0071494542205
alpha: 6.44343819215
v: 0.141134367489
---
header: 
  seq: 22
  stamp: 
    secs: 1611880657
    nsecs: 450073334
  frame_id: ''
s: 8.66544996969
n: 0.00716661661769
alpha: 6.43503139113
v: 0.116107445519
---
header: 
  seq: 23
  stamp: 
    secs: 1611880657
    nsecs: 460067249
  frame_id: ''
s: 8.66612236528
n: 0.00702323638449
alpha: 6.43551158249
v: 0.0930553880344
---
header: 
  seq: 24
  stamp: 
    secs: 1611880657
    nsecs: 470077033
  frame_id: ''
s: 8.66682674991
n: 0.00687903387567
alpha: 6.43610389215
v: 0.0724423263059
---
header: 
  seq: 25
  stamp: 
    secs: 1611880657
    nsecs: 480069690
  frame_id: ''
s: 8.66753770371
n: 0.00687660213832
alpha: 6.4294045058
v: 0.05457449451
---
header: 
  seq: 26
  stamp: 
    secs: 1611880657
    nsecs: 490069154
  frame_id: ''
s: 8.66823323986
n: 0.00686384867507
alpha: 6.42405976162
v: 0.0391343205644
---
header: 
  seq: 27
  stamp: 
    secs: 1611880657
    nsecs: 500067025
  frame_id: ''
s: 8.66889633094
n: 0.0067045377104
alpha: 6.42729418784
v: 0.0256705006159
---
header: 
  seq: 28
  stamp: 
    secs: 1611880657
    nsecs: 510072915
  frame_id: ''
s: 8.66953706162
n: 0.00656361430392
alpha: 6.42292810077
v: 0.014213432111
---
header: 
  seq: 29
  stamp: 
    secs: 1611880657
    nsecs: 520071720
  frame_id: ''
s: 8.67010307161
n: 0.0064282345384
alpha: 6.42689998103
v: 0.00514226602035
---
header: 
  seq: 30
  stamp: 
    secs: 1611880657
    nsecs: 530073749
  frame_id: ''
s: 8.67061314239
n: 0.00630696051459
alpha: 6.430395472
v: 0.00218923067047
---
header: 
  seq: 31
  stamp: 
    secs: 1611880657
    nsecs: 540070187
  frame_id: ''
s: 8.671066131
n: 0.00633947421834
alpha: 6.42602333315
v: 0.00739971412148
---
header: 
  seq: 32
  stamp: 
    secs: 1611880657
    nsecs: 550075065
  frame_id: ''
s: 8.6714611461
n: 0.0063689628858
alpha: 6.42247344484
v: 0.0114174633167
---
header: 
  seq: 33
  stamp: 
    secs: 1611880657
    nsecs: 560069070
  frame_id: ''
s: 8.67179905218
n: 0.00625576782867
alpha: 6.42703128828
v: 0.0143019518521
---
header: 
  seq: 34
  stamp: 
    secs: 1611880657
    nsecs: 570067385
  frame_id: ''
s: 8.67208469607
n: 0.00629621519271
alpha: 6.42358678214
v: 0.0160454090549
---
header: 
  seq: 35
  stamp: 
    secs: 1611880657
    nsecs: 580069524
  frame_id: ''
s: 8.67232090801
n: 0.00633306777526
alpha: 6.42081712419
v: 0.0169814470994
---
header: 
  seq: 36
  stamp: 
    secs: 1611880657
    nsecs: 590079335
  frame_id: ''
s: 8.67251117704
n: 0.00622651551399
alpha: 6.42600787596
v: 0.0173043138643
---
header: 
  seq: 37
  stamp: 
    secs: 1611880657
    nsecs: 600073290
  frame_id: ''
s: 8.67266205137
n: 0.00627302416998
alpha: 6.42305756663
v: 0.0169837645478
---
header: 
  seq: 38
  stamp: 
    secs: 1611880657
    nsecs: 610070230
  frame_id: ''
s: 8.67277641624
n: 0.0061756375052
alpha: 6.42799119206
v: 0.016381066717
---
header: 
  seq: 39
  stamp: 
    secs: 1611880657
    nsecs: 620068731
  frame_id: ''
s: 8.67286085117
n: 0.00623071009784
alpha: 6.42474667513
v: 0.0153200319082
---
header: 
  seq: 40
  stamp: 
    secs: 1611880657
    nsecs: 630070037
  frame_id: ''
s: 8.67291799572
n: 0.00614115735833
alpha: 6.42937826523
v: 0.0142238057923
---
header: 
  seq: 41
  stamp: 
    secs: 1611880657
    nsecs: 640065730
  frame_id: ''
s: 8.67295309428
n: 0.00606369198385
alpha: 6.43317775594
v: 0.0130400078173
---
header: 
  seq: 42
  stamp: 
    secs: 1611880657
    nsecs: 650073234
  frame_id: ''
s: 8.67297006752
n: 0.0059977885604
alpha: 6.43618123029
v: 0.011806998064
---
header: 
  seq: 43
  stamp: 
    secs: 1611880657
    nsecs: 660071551
  frame_id: ''
s: 8.67297335409
n: 0.00608231280617
alpha: 6.43112738825
v: 0.0101327998951
---
header: 
  seq: 44
  stamp: 
    secs: 1611880657
    nsecs: 670071849
  frame_id: ''
s: 8.67296424675
n: 0.00601980345831
alpha: 6.43414017512
v: 0.00891653464592
---
header: 
  seq: 45
  stamp: 
    secs: 1611880657
    nsecs: 680069535
  frame_id: ''
s: 8.67294741059
n: 0.0061063537488
alpha: 6.42921430467
v: 0.00738269728411
---
header: 
  seq: 46
  stamp: 
    secs: 1611880657
    nsecs: 690067894
  frame_id: ''
s: 8.67292337547
n: 0.00604474961754
alpha: 6.43242867406
v: 0.00630377590078
---
header: 
  seq: 47
  stamp: 
    secs: 1611880657
    nsecs: 700068660
  frame_id: ''
s: 8.67289518436
n: 0.00599171094507
alpha: 6.4350761973
v: 0.00538582655276
---
header: 
  seq: 48
  stamp: 
    secs: 1611880657
    nsecs: 710081617
  frame_id: ''
s: 8.67286543091
n: 0.00608641166648
alpha: 6.42984450142
v: 0.00403031372214
---
header: 
  seq: 49
  stamp: 
    secs: 1611880657
    nsecs: 720068822
  frame_id: ''
s: 8.67283363497
n: 0.00603170195571
alpha: 6.43281195691
v: 0.00331420181019
---
header: 
  seq: 50
  stamp: 
    secs: 1611880657
    nsecs: 730066427
  frame_id: ''
s: 8.6728027942
n: 0.00612398856327
alpha: 6.42793418101
v: 0.00231492192781
---
header: 
  seq: 51
  stamp: 
    secs: 1611880657
    nsecs: 740063721
  frame_id: ''
s: 8.67277278338
n: 0.00620595191674
alpha: 6.42392431374
v: 0.00199027368466
---
header: 
  seq: 52
  stamp: 
    secs: 1611880657
    nsecs: 750065834
  frame_id: ''
s: 8.67274337106
n: 0.00613800031811
alpha: 6.4280809369
v: 0.00107750542328
---
header: 
  seq: 53
  stamp: 
    secs: 1611880657
    nsecs: 760062718
  frame_id: ''
s: 8.67275711656
n: 0.00595151886748
alpha: 6.42429912359
v: 0.00249029630207
---
header: 
  seq: 54
  stamp: 
    secs: 1611880657
    nsecs: 770067748
  frame_id: ''
s: 8.67272788954
n: 0.00605365919095
alpha: 6.42125611809
v: 0.000899821446893
---
header: 
  seq: 55
  stamp: 
    secs: 1611880657
    nsecs: 780072140
  frame_id: ''
s: 8.67270033891
n: 0.00600564705791
alpha: 6.42623361891
v: 0.0012007732077
---
header: 
  seq: 56
  stamp: 
    secs: 1611880657
    nsecs: 790072979
  frame_id: ''
s: 8.67267563357
n: 0.00596427052647
alpha: 6.43045726401
v: 0.00156469779624
---
header: 
  seq: 57
  stamp: 
    secs: 1611880657
    nsecs: 800068157
  frame_id: ''
s: 8.67265383022
n: 0.00592920894416
alpha: 6.4339131905
v: 0.00184713010562
---
header: 
  seq: 58
  stamp: 
    secs: 1611880657
    nsecs: 810067351
  frame_id: ''
s: 8.67263489204
n: 0.00590003679151
alpha: 6.43663764475
v: 0.00203037648386
---
header: 
  seq: 59
  stamp: 
    secs: 1611880657
    nsecs: 820063178
  frame_id: ''
s: 8.67261959448
n: 0.00601586000669
alpha: 6.43136559241
v: 0.0007514484302
---
header: 
  seq: 60
  stamp: 
    secs: 1611880657
    nsecs: 830065148
  frame_id: ''
s: 8.67260589806
n: 0.00597954353678
alpha: 6.43421480059
v: 0.00103812451205
---
header: 
  seq: 61
  stamp: 
    secs: 1611880657
    nsecs: 840064812
  frame_id: ''
s: 8.67259548601
n: 0.00608759284581
alpha: 6.42917249698
v: 0.00112824898333
---
header: 
  seq: 62
  stamp: 
    secs: 1611880657
    nsecs: 850072243
  frame_id: ''
s: 8.67258626175
n: 0.00604322943501
alpha: 6.43230964662
v: 0.000844785452929
---
header: 
  seq: 63
  stamp: 
    secs: 1611880657
    nsecs: 860072428
  frame_id: ''
s: 8.67257987566
n: 0.00614324398051
alpha: 6.42757796939
v: 0.00158160998214
---
header: 
  seq: 64
  stamp: 
    secs: 1611880657
    nsecs: 870068817
  frame_id: ''
s: 8.67257510204
n: 0.00623068055204
alpha: 6.42368934354
v: 0.0024105520045
---
header: 
  seq: 65
  stamp: 
    secs: 1611880657
    nsecs: 880065707
  frame_id: ''
s: 8.67257083168
n: 0.00616629457308
alpha: 6.4279429678
v: 0.00139408857301
---
header: 
  seq: 66
  stamp: 
    secs: 1611880657
    nsecs: 890067908
  frame_id: ''
s: 8.67256872891
n: 0.00624730402017
alpha: 6.42423578147
v: 0.00216087092984
---
header: 
  seq: 67
  stamp: 
    secs: 1611880657
    nsecs: 900074406
  frame_id: ''
s: 8.67256759762
n: 0.00631705685882
alpha: 6.42124763967
v: 0.00273918143332
---
header: 
  seq: 68
  stamp: 
    secs: 1611880657
    nsecs: 910076502
  frame_id: ''
s: 8.67256636944
n: 0.00623650804478
alpha: 6.42626320563
v: 0.00143114044119
---
header: 
  seq: 69
  stamp: 
    secs: 1611880657
    nsecs: 920068255
  frame_id: ''
s: 8.67256675725
n: 0.0063029883321
alpha: 6.42317772125
v: 0.00204824806606
---
header: 
  seq: 70
  stamp: 
    secs: 1611880657
    nsecs: 930070984
  frame_id: ''
s: 8.67256761804
n: 0.00635988783474
alpha: 6.42067823444
v: 0.00249033326254
---
header: 
  seq: 71
  stamp: 
    secs: 1611880657
    nsecs: 940066700
  frame_id: ''
s: 8.67256793869
n: 0.00626814755482
alpha: 6.4260622589
v: 0.00105542772593
---
header: 
  seq: 72
  stamp: 
    secs: 1611880657
    nsecs: 950091281
  frame_id: ''
s: 8.67256860335
n: 0.00618543978126
alpha: 6.43057442128
v: 0.00033236606711
---
header: 
  seq: 73
  stamp: 
    secs: 1611880657
    nsecs: 960070716
  frame_id: ''
s: 8.67257040106
n: 0.00625166511168
alpha: 6.42688746227
v: 0.000725031370153
---
header: 
  seq: 74
  stamp: 
    secs: 1611880657
    nsecs: 970076193
  frame_id: ''
s: 8.6725722568
n: 0.0063097976474
alpha: 6.42375519376
v: 0.00134263458416
---
header: 
  seq: 75
  stamp: 
    secs: 1611880657
    nsecs: 980066384
  frame_id: ''
s: 8.67257322193
n: 0.00622041332743
alpha: 6.42852270165
v: 0.000149570673156
---
header: 
  seq: 76
  stamp: 
    secs: 1611880657
    nsecs: 990067807
  frame_id: ''
s: 8.67257512452
n: 0.00628047046415
alpha: 6.42513278531
v: 0.000796966726672
---
header: 
  seq: 77
  stamp: 
    secs: 1611880658
    nsecs:     63996
  frame_id: ''
s: 8.67257604611
n: 0.00619340093753
alpha: 6.42964183567
v: 0.000408805206516
---
header: 
  seq: 78
  stamp: 
    secs: 1611880658
    nsecs:  10071094
  frame_id: ''
s: 8.67257783608
n: 0.00625601179514
alpha: 6.42600830514
v: 0.000437029929134
---
header: 
  seq: 79
  stamp: 
    secs: 1611880658
    nsecs:  20069915
  frame_id: ''
s: 8.67257947845
n: 0.00631121187055
alpha: 6.42296499006
v: 0.00107304122035
---
header: 
  seq: 80
  stamp: 
    secs: 1611880658
    nsecs:  30070475
  frame_id: ''
s: 8.67258007622
n: 0.00621950731993
alpha: 6.42784047254
v: 0.000212808167955
---
header: 
  seq: 81
  stamp: 
    secs: 1611880658
    nsecs:  40064484
  frame_id: ''
s: 8.67258061793
n: 0.00613818384248
alpha: 6.43189854664
v: 0.00120650879199
---
header: 
  seq: 82
  stamp: 
    secs: 1611880658
    nsecs:  50071904
  frame_id: ''
s: 8.67258110093
n: 0.00606720247334
alpha: 6.43515525752
v: 0.00194588824159
---
header: 
  seq: 83
  stamp: 
    secs: 1611880658
    nsecs:  60063721
  frame_id: ''
s: 8.67258240879
n: 0.00614584575333
alpha: 6.43033590473
v: 0.000715048937575
---
header: 
  seq: 84
  stamp: 
    secs: 1611880658
    nsecs:  70075463
  frame_id: ''
s: 8.67258354868
n: 0.00621658777831
alpha: 6.42622295109
v: 0.000264745495824
---
header: 
  seq: 85
  stamp: 
    secs: 1611880658
    nsecs:  80068306
  frame_id: ''
s: 8.67258364212
n: 0.00613961025735
alpha: 6.43017205902
v: 0.000736868340136
---
header: 
  seq: 86
  stamp: 
    secs: 1611880658
    nsecs:  90086226
  frame_id: ''
s: 8.67258369212
n: 0.00607196927283
alpha: 6.43345702688
v: 0.00149297315364
---
header: 
  seq: 87
  stamp: 
    secs: 1611880658
    nsecs: 100096572
  frame_id: ''
s: 8.67258459095
n: 0.00615307767305
alpha: 6.42875819144
v: 0.000289593995648
---
header: 
  seq: 88
  stamp: 
    secs: 1611880658
    nsecs: 110067614
  frame_id: ''
s: 8.67258535185
n: 0.00622553531258
alpha: 6.4248217373
v: 0.000659062747503
---
header: 
  seq: 89
  stamp: 
    secs: 1611880658
    nsecs: 120065436
  frame_id: ''
s: 8.67255813793
n: 0.00630337345247
alpha: 6.42897515543
v: 0.00158216667808
---
header: 
  seq: 90
  stamp: 
    secs: 1611880658
    nsecs: 130074337
  frame_id: ''
s: 8.67256212295
n: 0.00635673967278
alpha: 6.42513787459
v: 0.00203879276913
---
header: 
  seq: 91
  stamp: 
    secs: 1611880658
    nsecs: 140072978
  frame_id: ''
s: 8.6725650268
n: 0.00626233909355
alpha: 6.42934035339
v: 0.000607944028108
---
header: 
  seq: 92
  stamp: 
    secs: 1611880658
    nsecs: 150072455
  frame_id: ''
s: 8.67256778181
n: 0.00617772420265
alpha: 6.43284832949
v: 0.000556811400382
---
header: 
  seq: 93
  stamp: 
    secs: 1611880658
    nsecs: 160069520
  frame_id: ''
s: 8.67257034424
n: 0.00610308013886
alpha: 6.43567185654
v: 0.00141678548575
---
header: 
  seq: 94
  stamp: 
    secs: 1611880658
    nsecs: 170065936
  frame_id: ''
s: 8.67257356941
n: 0.0061778740995
alpha: 6.43052516705
v: 0.00029950945794
---
header: 
  seq: 95
  stamp: 
    secs: 1611880658
    nsecs: 180076162
  frame_id: ''
s: 8.67257644705
n: 0.00624472900505
alpha: 6.42617684144
v: 0.000577899414672
---
header: 
  seq: 96
  stamp: 
    secs: 1611880658
    nsecs: 190072134
  frame_id: ''
s: 8.67257809011
n: 0.00616394337095
alpha: 6.42996755933
v: 0.00051114492658
---
header: 
  seq: 97
  stamp: 
    secs: 1611880658
    nsecs: 200066926
  frame_id: ''
s: 8.67257950021
n: 0.00609266192524
alpha: 6.43315627555
v: 0.00134099116771
---
header: 
  seq: 98
  stamp: 
    secs: 1611880658
    nsecs: 210067988
  frame_id: ''
s: 8.6725815738
n: 0.00617036178664
alpha: 6.428409463
v: 0.000210912611926
---
header: 
  seq: 99
  stamp: 
    secs: 1611880658
    nsecs: 220065929
  frame_id: ''
s: 8.67258244852
n: 0.00610008505575
alpha: 6.43179436547
v: 0.00105667307676
---
header: 
  seq: 100
  stamp: 
    secs: 1611880658
    nsecs: 230067226
  frame_id: ''
s: 8.67258313947
n: 0.00603875806249
alpha: 6.43459642571
v: 0.00169291849119
---
header: 
  seq: 101
  stamp: 
    secs: 1611880658
    nsecs: 240075383
  frame_id: ''
s: 8.67258366822
n: 0.00598610225072
alpha: 6.43683253541
v: 0.00214101934816
---
header: 
  seq: 102
  stamp: 
    secs: 1611880658
    nsecs: 250075330
  frame_id: ''
s: 8.67258405606
n: 0.00594165914028
alpha: 6.43854797531
v: 0.00242995078985
---
header: 
  seq: 103
  stamp: 
    secs: 1611880658
    nsecs: 260070105
  frame_id: ''
s: 8.67258520751
n: 0.00604444437105
alpha: 6.43247133747
v: 0.000837606291976
---
header: 
  seq: 104
  stamp: 
    secs: 1611880658
    nsecs: 270072897
  frame_id: ''
s: 8.67258526368
n: 0.00599719000585
alpha: 6.43470384669
v: 0.00132422369214
---
header: 
  seq: 105
  stamp: 
    secs: 1611880658
    nsecs: 280063163
  frame_id: ''
s: 8.67258612348
n: 0.00609624004362
alpha: 6.42921021233
v: 0.000110548791524
---
header: 
  seq: 106
  stamp: 
    secs: 1611880658
    nsecs: 290072129
  frame_id: ''
s: 8.67258592727
n: 0.00604463604092
alpha: 6.43203613138
v: 0.000574915341881
---
header: 
  seq: 107
  stamp: 
    secs: 1611880658
    nsecs: 300068516
  frame_id: ''
s: 8.67258568826
n: 0.00599937857474
alpha: 6.43444110504
v: 0.00106923801011
---
header: 
  seq: 108
  stamp: 
    secs: 1611880658
    nsecs: 310067594
  frame_id: ''
s: 8.67255846033
n: 0.00611405027312
alpha: 6.43641462019
v: 0.00058741000539
---
header: 
  seq: 109
  stamp: 
    secs: 1611880658
    nsecs: 320066353
  frame_id: ''
s: 8.67256242547
n: 0.00620134457297
alpha: 6.43064175726
v: 0.00155173270328
---
header: 
  seq: 110
  stamp: 
    secs: 1611880658
    nsecs: 330064767
  frame_id: ''
s: 8.67256618941
n: 0.00627726733977
alpha: 6.42585780375
v: 0.00230117343157
---
header: 
  seq: 111
  stamp: 
    secs: 1611880658
    nsecs: 340063489
  frame_id: ''
s: 8.6725688079
n: 0.00620262699046
alpha: 6.42936929495
v: 0.00107566714748
---
header: 
  seq: 112
  stamp: 
    secs: 1611880658
    nsecs: 350072511
  frame_id: ''
s: 8.67257211952
n: 0.00627464762059
alpha: 6.42506906622
v: 0.00184166229001
---
header: 
  seq: 113
  stamp: 
    secs: 1611880658
    nsecs: 360075183
  frame_id: ''
s: 8.67257510483
n: 0.00633664663081
alpha: 6.421625281
v: 0.00238830490121
---
header: 
  seq: 114
  stamp: 
    secs: 1611880658
    nsecs: 370068921
  frame_id: ''
s: 8.67257686908
n: 0.00624952076383
alpha: 6.42630641273
v: 0.000995565368004
---
header: 
  seq: 115
  stamp: 
    secs: 1611880658
    nsecs: 380090224
  frame_id: ''
s: 8.67257929148
n: 0.00631052270213
alpha: 6.42298939864
v: 0.00163674726741
---
header: 
  seq: 116
  stamp: 
    secs: 1611880658
    nsecs: 390066610
  frame_id: ''
s: 8.67258050116
n: 0.00622334989916
alpha: 6.42767605104
v: 0.000342378847031
---
header: 
  seq: 117
  stamp: 
    secs: 1611880658
    nsecs: 400068002
  frame_id: ''
s: 8.67258239094
n: 0.00628504519998
alpha: 6.42428121993
v: 0.00107147029103
---
header: 
  seq: 118
  stamp: 
    secs: 1611880658
    nsecs: 410074696
  frame_id: ''
s: 8.67258398393
n: 0.00633872348006
alpha: 6.42150421136
v: 0.00161056490973
---
header: 
  seq: 119
  stamp: 
    secs: 1611880658
    nsecs: 420071007
  frame_id: ''
s: 8.67258530164
n: 0.00638466933184
alpha: 6.41931560859
v: 0.00198513997219
---
header: 
  seq: 120
  stamp: 
    secs: 1611880658
    nsecs: 430068638
  frame_id: ''
s: 8.67258636851
n: 0.00642331974983
alpha: 6.41766021838
v: 0.00222116932483
---
header: 
  seq: 121
  stamp: 
    secs: 1611880658
    nsecs: 440066628
  frame_id: ''
s: 8.67258721052
n: 0.00645521807558
alpha: 6.41646848884
v: 0.00234282529143
---
header: 
  seq: 122
  stamp: 
    secs: 1611880658
    nsecs: 450066301
  frame_id: ''
s: 8.67258697016
n: 0.00634137393771
alpha: 6.42299860812
v: 0.000623538271768
---
header: 
  seq: 123
  stamp: 
    secs: 1611880658
    nsecs: 460065714
  frame_id: ''
s: 8.67258666773
n: 0.00623943221395
alpha: 6.42847791139
v: 0.000741392919836
---
header: 
  seq: 124
  stamp: 
    secs: 1611880658
    nsecs: 470077685
  frame_id: ''
s: 8.67258632545
n: 0.00614959086889
alpha: 6.43291138919
v: 0.00177406786195
---
header: 
  seq: 125
  stamp: 
    secs: 1611880658
    nsecs: 480069939
  frame_id: ''
s: 8.67260693897
n: 0.00607850657097
alpha: 6.42903133689
v: 0.00246179669974
---
header: 
  seq: 126
  stamp: 
    secs: 1611880658
    nsecs: 490067456
  frame_id: ''
s: 8.67260395452
n: 0.00601117151773
alpha: 6.43297258024
v: 0.00299008696182
---
header: 
  seq: 127
  stamp: 
    secs: 1611880658
    nsecs: 500067271
  frame_id: ''
s: 8.67260104415
n: 0.00595461215187
alpha: 6.43608532233
v: 0.0033209884813
---
header: 
  seq: 128
  stamp: 
    secs: 1611880658
    nsecs: 510069942
  frame_id: ''
s: 8.67259915656
n: 0.0060476124522
alpha: 6.43111199885
v: 0.0017376946759
---
header: 
  seq: 129
  stamp: 
    secs: 1611880658
    nsecs: 520063343
  frame_id: ''
s: 8.67259734403
n: 0.00613226055821
alpha: 6.4268474
v: 0.000461064887366
---
header: 
  seq: 130
  stamp: 
    secs: 1611880658
    nsecs: 530077518
  frame_id: ''
s: 8.67259564044
n: 0.00620805184293
alpha: 6.42332206259
v: 0.000556658415573
---
header: 
  seq: 131
  stamp: 
    secs: 1611880658
    nsecs: 540072115
  frame_id: ''
s: 8.67259406909
n: 0.00627484082548
alpha: 6.42051285063
v: 0.00132319991847
---
header: 
  seq: 132
  stamp: 
    secs: 1611880658
    nsecs: 550073977
  frame_id: ''
s: 8.67259264441
n: 0.00633276541624
alpha: 6.41836126177
v: 0.00188387971967
---
header: 
  seq: 133
  stamp: 
    secs: 1611880658
    nsecs: 560070119
  frame_id: ''
s: 8.67259048953
n: 0.00624257881964
alpha: 6.42412149336
v: 0.000516218850667
---
header: 
  seq: 134
  stamp: 
    secs: 1611880658
    nsecs: 570072829
  frame_id: ''
s: 8.6725894839
n: 0.00630139380773
alpha: 6.42167340442
v: 0.00118952304767
---
header: 
  seq: 135
  stamp: 
    secs: 1611880658
    nsecs: 580072205
  frame_id: ''
s: 8.67258862709
n: 0.00635237592065
alpha: 6.41969990226
v: 0.00168011014036
---
header: 
  seq: 136
  stamp: 
    secs: 1611880658
    nsecs: 590072072
  frame_id: ''
s: 8.67260800316
n: 0.00626308290655
alpha: 6.4181688768
v: 0.000405642735183
---
header: 
  seq: 137
  stamp: 
    secs: 1611880658
    nsecs: 600072722
  frame_id: ''
s: 8.67260491059
n: 0.00631603931902
alpha: 6.41703198467
v: 0.000979636401745
---
header: 
  seq: 138
  stamp: 
    secs: 1611880658
    nsecs: 610069384
  frame_id: ''
s: 8.67260111639
n: 0.00622245507729
alpha: 6.42356607558
v: 0.000335995530976
---
header: 
  seq: 139
  stamp: 
    secs: 1611880658
    nsecs: 620067143
  frame_id: ''
s: 8.67259765537
n: 0.00613958741945
alpha: 6.42901429086
v: 0.00132607928938
---
header: 
  seq: 140
  stamp: 
    secs: 1611880658
    nsecs: 630065766
  frame_id: ''
s: 8.672595434
n: 0.00620696715944
alpha: 6.42606110426
v: 0.000313949845479
---
header: 
  seq: 141
  stamp: 
    secs: 1611880658
    nsecs: 640072612
  frame_id: ''
s: 8.67259346569
n: 0.00626724412466
alpha: 6.42348041112
v: 0.000482920246719
---
header: 
  seq: 142
  stamp: 
    secs: 1611880658
    nsecs: 650077865
  frame_id: ''
s: 8.6725917491
n: 0.00632031570898
alpha: 6.42130847453
v: 0.00108856659689
---
header: 
  seq: 143
  stamp: 
    secs: 1611880658
    nsecs: 660073643
  frame_id: ''
s: 8.67258939215
n: 0.00622670178233
alpha: 6.42687919511
v: 0.000234997839912
---
header: 
  seq: 144
  stamp: 
    secs: 1611880658
    nsecs: 670074269
  frame_id: ''
s: 8.67258737595
n: 0.00614369260184
alpha: 6.43147050161
v: 0.00124055930607
---
header: 
  seq: 145
  stamp: 
    secs: 1611880658
    nsecs: 680065054
  frame_id: ''
s: 8.672585681
n: 0.00607124650808
alpha: 6.43511776739
v: 0.00199372895342
---
header: 
  seq: 146
  stamp: 
    secs: 1611880658
    nsecs: 690068257
  frame_id: ''
s: 8.67258428318
n: 0.00600903651011
alpha: 6.43790145072
v: 0.00252423562281
---
header: 
  seq: 147
  stamp: 
    secs: 1611880658
    nsecs: 700064485
  frame_id: ''
s: 8.67260413268
n: 0.00596336297262
alpha: 6.43259465545
v: 0.00278330752451
---
header: 
  seq: 148
  stamp: 
    secs: 1611880658
    nsecs: 710087561
  frame_id: ''
s: 8.67260151627
n: 0.00605860417252
alpha: 6.42801343026
v: 0.00123935550547
---
header: 
  seq: 149
  stamp: 
    secs: 1611880658
    nsecs: 720066566
  frame_id: ''
s: 8.67259818708
n: 0.00600508737142
alpha: 6.43153528855
v: 0.00175220794905
---
header: 
  seq: 150
  stamp: 
    secs: 1611880658
    nsecs: 730072543
  frame_id: ''
s: 8.67259516942
n: 0.00595944513931
alpha: 6.43444654412
v: 0.00210446895606
---
header: 
  seq: 151
  stamp: 
    secs: 1611880658
    nsecs: 740067049
  frame_id: ''
s: 8.67259247822
n: 0.00592120042655
alpha: 6.4367663388
v: 0.00232048185637
---
header: 
  seq: 152
  stamp: 
    secs: 1611880658
    nsecs: 750067454
  frame_id: ''
s: 8.67259011597
n: 0.00588977589084
alpha: 6.43854301362
v: 0.00242409260111
---
header: 
  seq: 153
  stamp: 
    secs: 1611880658
    nsecs: 760078743
  frame_id: ''
s: 8.67258895947
n: 0.00600413355991
alpha: 6.43250859315
v: 0.000687004426776
---
header: 
  seq: 154
  stamp: 
    secs: 1611880658
    nsecs: 770077600
  frame_id: ''
s: 8.67258799995
n: 0.00610660540279
alpha: 6.42743435866
v: 0.000690803188411
---
header: 
  seq: 155
  stamp: 
    secs: 1611880658
    nsecs: 780071865
  frame_id: ''
s: 8.6725872204
n: 0.00619697498435
alpha: 6.42331977175
v: 0.00173674990606
---
header: 
  seq: 156
  stamp: 
    secs: 1611880658
    nsecs: 790069666
  frame_id: ''
s: 8.67258660256
n: 0.00627541148208
alpha: 6.4201072926
v: 0.0025028809011
---
header: 
  seq: 157
  stamp: 
    secs: 1611880658
    nsecs: 800066776
  frame_id: ''
s: 8.67258612773
n: 0.00634237927425
alpha: 6.41770378585
v: 0.00302910050632
---
header: 
  seq: 158
  stamp: 
    secs: 1611880658
    nsecs: 810073756
  frame_id: ''
s: 8.67258577736
n: 0.00639855938729
alpha: 6.4159972958
v: 0.00335394799398
---
header: 
  seq: 159
  stamp: 
    secs: 1611880658
    nsecs: 820075319
  frame_id: ''
s: 8.67258553358
n: 0.00644478235776
alpha: 6.41486965197
v: 0.00351308827828
---
header: 
  seq: 160
  stamp: 
    secs: 1611880658
    nsecs: 830079111
  frame_id: ''
s: 8.67258449548
n: 0.00634237057094
alpha: 6.42153889575
v: 0.00178767730483
---
header: 
  seq: 161
  stamp: 
    secs: 1611880658
    nsecs: 840067884
  frame_id: ''
s: 8.67258364161
n: 0.00624929281999
alpha: 6.42720040716
v: 0.000399637531563
---
header: 
  seq: 162
  stamp: 
    secs: 1611880658
    nsecs: 850068153
  frame_id: ''
s: 8.67262405414
n: 0.00604016440458
alpha: 6.42450130685
v: 0.00232368679131
---
header: 
  seq: 163
  stamp: 
    secs: 1611880658
    nsecs: 860068235
  frame_id: ''
s: 8.67261839466
n: 0.00598261905423
alpha: 6.42952091439
v: 0.00273483965774
---
header: 
  seq: 164
  stamp: 
    secs: 1611880658
    nsecs: 870071108
  frame_id: ''
s: 8.67261388501
n: 0.00607407141049
alpha: 6.42624411821
v: 0.00124780097933
---
header: 
  seq: 165
  stamp: 
    secs: 1611880658
    nsecs: 880071213
  frame_id: ''
s: 8.67260873836
n: 0.00601717639208
alpha: 6.4307644034
v: 0.00179214968854
---
header: 
  seq: 166
  stamp: 
    secs: 1611880658
    nsecs: 890074487
  frame_id: ''
s: 8.67260489687
n: 0.00610817080377
alpha: 6.42707168709
v: 0.000426432927494
---
header: 
  seq: 167
  stamp: 
    secs: 1611880658
    nsecs: 900070556
  frame_id: ''
s: 8.67260052057
n: 0.00604996862531
alpha: 6.43125792832
v: 0.00109858680679
---
header: 
  seq: 168
  stamp: 
    secs: 1611880658
    nsecs: 910073309
  frame_id: ''
s: 8.67259662341
n: 0.00599943056176
alpha: 6.43464054814
v: 0.00159557748497
---
header: 
  seq: 169
  stamp: 
    secs: 1611880658
    nsecs: 920065420
  frame_id: ''
s: 8.67259320761
n: 0.00595626286994
alpha: 6.43727148373
v: 0.00193826509213
---
header: 
  seq: 170
  stamp: 
    secs: 1611880658
    nsecs: 930068413
  frame_id: ''
s: 8.67259026145
n: 0.00592003153535
alpha: 6.43923107333
v: 0.00215094039755
---
header: 
  seq: 171
  stamp: 
    secs: 1611880658
    nsecs: 940071134
  frame_id: ''
s: 8.67258864675
n: 0.00602980682203
alpha: 6.43328088609
v: 0.000514106478143
---
header: 
  seq: 172
  stamp: 
    secs: 1611880658
    nsecs: 950089179
  frame_id: ''
s: 8.67258645556
n: 0.00598839734996
alpha: 6.4355517351
v: 0.000966347783566
---
header: 
  seq: 173
  stamp: 
    secs: 1611880658
    nsecs: 960071575
  frame_id: ''
s: 8.67262574949
n: 0.00582673109963
alpha: 6.43003383525
v: 0.00289158527816
---
header: 
  seq: 174
  stamp: 
    secs: 1611880658
    nsecs: 970069257
  frame_id: ''
s: 8.67261917272
n: 0.00581205286301
alpha: 6.4327940745
v: 0.00270252052799
---
header: 
  seq: 175
  stamp: 
    secs: 1611880658
    nsecs: 980066263
  frame_id: ''
s: 8.67261392792
n: 0.00594160292613
alpha: 6.4277755023
v: 0.000743355235412
---
header: 
  seq: 176
  stamp: 
    secs: 1611880658
    nsecs: 990074989
  frame_id: ''
s: 8.67260820829
n: 0.00591803361074
alpha: 6.43101212486
v: 0.000933972689316
---
header: 
  seq: 177
  stamp: 
    secs: 1611880659
    nsecs:     69484
  frame_id: ''
s: 8.67260305194
n: 0.00589811151253
alpha: 6.43375927396
v: 0.00106501512262
---
header: 
  seq: 178
  stamp: 
    secs: 1611880659
    nsecs:  10067364
  frame_id: ''
s: 8.67259847749
n: 0.00588158171816
alpha: 6.43600766466
v: 0.00114069514852
---
header: 
  seq: 179
  stamp: 
    secs: 1611880659
    nsecs:  20066815
  frame_id: ''
s: 8.6725944832
n: 0.00586815135658
alpha: 6.43778065406
v: 0.00116941377574
---
header: 
  seq: 180
  stamp: 
    secs: 1611880659
    nsecs:  30092820
  frame_id: ''
s: 8.67259105153
n: 0.00585750620197
alpha: 6.43912255472
v: 0.00116006347568
---
header: 
  seq: 181
  stamp: 
    secs: 1611880659
    nsecs:  40069237
  frame_id: ''
s: 8.67258903718
n: 0.00598892545638
alpha: 6.43275595903
v: 0.000658276721714
---
header: 
  seq: 182
  stamp: 
    secs: 1611880659
    nsecs:  50076339
  frame_id: ''
s: 8.67258740827
n: 0.00610509146229
alpha: 6.42743957856
v: 0.00202462411461
---
header: 
  seq: 183
  stamp: 
    secs: 1611880659
    nsecs:  60073057
  frame_id: ''
s: 8.67258612459
n: 0.00620615420799
alpha: 6.42315890611
v: 0.00303758978728
---
header: 
  seq: 184
  stamp: 
    secs: 1611880659
    nsecs:  70068936
  frame_id: ''
s: 8.67258426121
n: 0.00615305028492
alpha: 6.42717573388
v: 0.00199260527358
---
header: 
  seq: 185
  stamp: 
    secs: 1611880659
    nsecs:  80065078
  frame_id: ''
s: 8.67258277199
n: 0.00610360270358
alpha: 6.43068556986
v: 0.0011270891626
---
header: 
  seq: 186
  stamp: 
    secs: 1611880659
    nsecs:  90064440
  frame_id: ''
s: 8.67258161531
n: 0.00605837794648
alpha: 6.43363921705
v: 0.000434545422431
---
header: 
  seq: 187
  stamp: 
    secs: 1611880659
    nsecs: 100071574
  frame_id: ''
s: 8.67258163353
n: 0.00615730011319
alpha: 6.42870270352
v: 0.00160442047666
---
header: 
  seq: 188
  stamp: 
    secs: 1611880659
    nsecs: 110073155
  frame_id: ''
s: 8.67258179199
n: 0.00624349505138
alpha: 6.42460683926
v: 0.00248276163604
---
header: 
  seq: 189
  stamp: 
    secs: 1611880659
    nsecs: 120072755
  frame_id: ''
s: 8.6725820551
n: 0.00631738724835
alpha: 6.42133050043
v: 0.00309776809345
---
header: 
  seq: 190
  stamp: 
    secs: 1611880659
    nsecs: 130069051
  frame_id: ''
s: 8.67258239227
n: 0.00637964996447
alpha: 6.4188104021
v: 0.00349001594969
---
header: 
  seq: 191
  stamp: 
    secs: 1611880659
    nsecs: 140065456
  frame_id: ''
s: 8.67258189363
n: 0.0062915298991
alpha: 6.42429159232
v: 0.00194680985526
---
header: 
  seq: 192
  stamp: 
    secs: 1611880659
    nsecs: 150071985
  frame_id: ''
s: 8.67258153189
n: 0.00621098572886
alpha: 6.42897576278
v: 0.000693893337353
---
header: 
  seq: 193
  stamp: 
    secs: 1611880659
    nsecs: 160067717
  frame_id: ''
s: 8.67258217072
n: 0.00627818141655
alpha: 6.42550180193
v: 0.0014480497424
---
header: 
  seq: 194
  stamp: 
    secs: 1611880659
    nsecs: 170074237
  frame_id: ''
s: 8.6725827969
n: 0.00633632916702
alpha: 6.42259790423
v: 0.00199559268511
---
header: 
  seq: 195
  stamp: 
    secs: 1611880659
    nsecs: 180096084
  frame_id: ''
s: 8.67258339576
n: 0.00638581802362
alpha: 6.42025727544
v: 0.00236604411632
---
header: 
  seq: 196
  stamp: 
    secs: 1611880659
    nsecs: 190072688
  frame_id: ''
s: 8.6726040499
n: 0.00629443094343
alpha: 6.41844170732
v: 0.000952106351382
---
header: 
  seq: 197
  stamp: 
    secs: 1611880659
    nsecs: 200068309
  frame_id: ''
s: 8.67260206163
n: 0.00634488439704
alpha: 6.41709376166
v: 0.00145107596853
---
header: 
  seq: 198
  stamp: 
    secs: 1611880659
    nsecs: 210069716
  frame_id: ''
s: 8.67260008978
n: 0.00638815024851
alpha: 6.41614625726
v: 0.00180691016575
---
header: 
  seq: 199
  stamp: 
    secs: 1611880659
    nsecs: 220066700
  frame_id: ''
s: 8.67259818569
n: 0.00642461915834
alpha: 6.41552934506
v: 0.002035589646
---
header: 
  seq: 200
  stamp: 
    secs: 1611880659
    nsecs: 230074742
  frame_id: ''
s: 8.67259638742
n: 0.00645478452853
alpha: 6.4151755109
v: 0.00215762104875
---
header: 
  seq: 201
  stamp: 
    secs: 1611880659
    nsecs: 240069297
  frame_id: ''
s: 8.67259383759
n: 0.00633960463662
alpha: 6.42235628771
v: 0.000441131103809
---
header: 
  seq: 202
  stamp: 
    secs: 1611880659
    nsecs: 250067127
  frame_id: ''
s: 8.67259154739
n: 0.00623667334346
alpha: 6.42831930134
v: 0.000906439665871
---
header: 
  seq: 203
  stamp: 
    secs: 1611880659
    nsecs: 260083271
  frame_id: ''
s: 8.672589523
n: 0.00614613927956
alpha: 6.43309337931
v: 0.00192910834287
---
header: 
  seq: 204
  stamp: 
    secs: 1611880659
    nsecs: 270067765
  frame_id: ''
s: 8.6725877618
n: 0.00606777230458
alpha: 6.43676908824
v: 0.00267072729576
---
header: 
  seq: 205
  stamp: 
    secs: 1611880659
    nsecs: 280074890
  frame_id: ''
s: 8.67258625443
n: 0.00600105409899
alpha: 6.43947386612
v: 0.00317305798525
---
header: 
  seq: 206
  stamp: 
    secs: 1611880659
    nsecs: 290073875
  frame_id: ''
s: 8.67258498651
n: 0.00594525666059
alpha: 6.44135280118
v: 0.00347526579232
---
header: 
  seq: 207
  stamp: 
    secs: 1611880659
    nsecs: 300072890
  frame_id: ''
s: 8.6725848242
n: 0.00603911047838
alpha: 6.43522099498
v: 0.00186180550151
---
header: 
  seq: 208
  stamp: 
    secs: 1611880659
    nsecs: 310068112
  frame_id: ''
s: 8.67258386926
n: 0.00598505826102
alpha: 6.43725192419
v: 0.0023065195662
---
header: 
  seq: 209
  stamp: 
    secs: 1611880659
    nsecs: 320065752
  frame_id: ''
s: 8.67258398153
n: 0.00607915945382
alpha: 6.4314684847
v: 0.000837325207295
---
header: 
  seq: 210
  stamp: 
    secs: 1611880659
    nsecs: 330069917
  frame_id: ''
s: 8.67258326364
n: 0.00602418272919
alpha: 6.4339614644
v: 0.00142164120419
---
header: 
  seq: 211
  stamp: 
    secs: 1611880659
    nsecs: 340075266
  frame_id: ''
s: 8.67258269318
n: 0.00597687246653
alpha: 6.4360238037
v: 0.00183680667644
---
header: 
  seq: 212
  stamp: 
    secs: 1611880659
    nsecs: 350074726
  frame_id: ''
s: 8.67258225328
n: 0.00593684438232
alpha: 6.43766845973
v: 0.00210856863067
---
header: 
  seq: 213
  stamp: 
    secs: 1611880659
    nsecs: 360068121
  frame_id: ''
s: 8.67258281121
n: 0.00604319777552
alpha: 6.43159576017
v: 0.000510462274734
---
header: 
  seq: 214
  stamp: 
    secs: 1611880659
    nsecs: 370070684
  frame_id: ''
s: 8.67258335659
n: 0.00613835466809
alpha: 6.42654970181
v: 0.000750109814378
---
header: 
  seq: 215
  stamp: 
    secs: 1611880659
    nsecs: 380069629
  frame_id: ''
s: 8.672583877
n: 0.00622214944128
alpha: 6.42250710806
v: 0.00170710756868
---
header: 
  seq: 216
  stamp: 
    secs: 1611880659
    nsecs: 390064938
  frame_id: ''
s: 8.67258436348
n: 0.00629477015465
alpha: 6.41939233046
v: 0.00240414804102
---
header: 
  seq: 217
  stamp: 
    secs: 1611880659
    nsecs: 400074977
  frame_id: ''
s: 8.672583926
n: 0.00621707343069
alpha: 6.42443173125
v: 0.0011274692356
---
header: 
  seq: 218
  stamp: 
    secs: 1611880659
    nsecs: 410077254
  frame_id: ''
s: 8.67258443915
n: 0.00628631400628
alpha: 6.42147167482
v: 0.00185482833839
---
header: 
  seq: 219
  stamp: 
    secs: 1611880659
    nsecs: 420069165
  frame_id: ''
s: 8.6725840203
n: 0.00620622413425
alpha: 6.42649312124
v: 0.00061706789134
---
header: 
  seq: 220
  stamp: 
    secs: 1611880659
    nsecs: 430070894
  frame_id: ''
s: 8.67258366132
n: 0.00613430468299
alpha: 6.43073139184
v: 0.000363346891954
---
header: 
  seq: 221
  stamp: 
    secs: 1611880659
    nsecs: 440068306
  frame_id: ''
s: 8.6725833589
n: 0.00607074569057
alpha: 6.43418099981
v: 0.00111524049003
---
header: 
  seq: 222
  stamp: 
    secs: 1611880659
    nsecs: 450074651
  frame_id: ''
s: 8.67258399292
n: 0.00615506307576
alpha: 6.42955174711
v: 8.32640305786e-05
---
header: 
  seq: 223
  stamp: 
    secs: 1611880659
    nsecs: 460070839
  frame_id: ''
s: 8.67258456453
n: 0.00622996120527
alpha: 6.42561565347
v: 0.00101250205291
---
header: 
  seq: 224
  stamp: 
    secs: 1611880659
    nsecs: 470069023
  frame_id: ''
s: 8.67258418765
n: 0.00615584322187
alpha: 6.42972202067
v: 4.48673378057e-05
---
header: 
  seq: 225
  stamp: 
    secs: 1611880659
    nsecs: 480068356
  frame_id: ''
s: 8.67258385664
n: 0.00608997359266
alpha: 6.43314146029
v: 0.000865766205194
---
header: 
  seq: 226
  stamp: 
    secs: 1611880659
    nsecs: 490066731
  frame_id: ''
s: 8.67289104712
n: 0.00608626650163
alpha: 6.43588691141
v: 0.00393160755115
---
header: 
  seq: 227
  stamp: 
    secs: 1611880659
    nsecs: 500066936
  frame_id: ''
s: 8.67315904962
n: 0.00594426489051
alpha: 6.43067395875
v: 0.00717306186214
---
header: 
  seq: 228
  stamp: 
    secs: 1611880659
    nsecs: 510071468
  frame_id: ''
s: 8.67339080996
n: 0.00596034550038
alpha: 6.43360483114
v: 0.00901120353921
---
header: 
  seq: 229
  stamp: 
    secs: 1611880659
    nsecs: 520068235
  frame_id: ''
s: 8.6735862073
n: 0.00583724597447
alpha: 6.42865477439
v: 0.0106553660485
---
header: 
  seq: 230
  stamp: 
    secs: 1611880659
    nsecs: 530075199
  frame_id: ''
s: 8.67454515157
n: 0.00585203487809
alpha: 6.42455249376
v: 0.0210734105763
---
header: 
  seq: 231
  stamp: 
    secs: 1611880659
    nsecs: 540070069
  frame_id: ''
s: 0.0
n: 0.0058681712108
alpha: -6.1450956073
v: 0.028769640988
---
header: 
  seq: 232
  stamp: 
    secs: 1611880659
    nsecs: 550069430
  frame_id: ''
s: 0.0
n: 0.00600552944618
alpha: -6.14761318992
v: 0.0439428361728
---
header: 
  seq: 233
  stamp: 
    secs: 1611880659
    nsecs: 560066811
  frame_id: ''
s: 0.0
n: 0.00612785384894
alpha: -6.14946054731
v: 0.0545981193793
---
header: 
  seq: 234
  stamp: 
    secs: 1611880659
    nsecs: 570077726
  frame_id: ''
s: 0.0
n: 0.0062350738982
alpha: -6.15073900785
v: 0.0613853428865
---
header: 
  seq: 235
  stamp: 
    secs: 1611880659
    nsecs: 580078345
  frame_id: ''
s: 0.0
n: 0.00634766343087
alpha: -6.15155183371
v: 0.0666384081049
---
header: 
  seq: 236
  stamp: 
    secs: 1611880659
    nsecs: 590070547
  frame_id: ''
s: 0.0
n: 0.0061983126205
alpha: -6.15199745905
v: 0.0709143248257
---
header: 
  seq: 237
  stamp: 
    secs: 1611880659
    nsecs: 600070836
  frame_id: ''
s: 0.0
n: 0.0060639939025
alpha: -6.15216514854
v: 0.0723208180368
---
header: 
  seq: 238
  stamp: 
    secs: 1611880659
    nsecs: 610071967
  frame_id: ''
s: 0.0
n: 0.00631909920172
alpha: -6.15213257138
v: 0.0911840927715
---
header: 
  seq: 239
  stamp: 
    secs: 1611880659
    nsecs: 620066402
  frame_id: ''
s: 0.0
n: 0.0062895575486
alpha: -6.15196483127
v: 0.0935205928865
---
header: 
  seq: 240
  stamp: 
    secs: 1611880659
    nsecs: 630074083
  frame_id: ''
s: 0.0
n: 0.00638163257849
alpha: -6.15171455098
v: 0.102760576432
---
header: 
  seq: 241
  stamp: 
    secs: 1611880659
    nsecs: 640079782
  frame_id: ''
s: 0.0
n: 0.00646025025576
alpha: -6.15142267369
v: 0.107084169562
---
header: 
  seq: 242
  stamp: 
    secs: 1611880659
    nsecs: 650072404
  frame_id: ''
s: 0.0
n: 0.00652620864038
alpha: -6.1511197075
v: 0.107462008675
---
header: 
  seq: 243
  stamp: 
    secs: 1611880659
    nsecs: 660073606
  frame_id: ''
s: 0.0
n: 0.00660058893824
alpha: -6.15082719907
v: 0.10643433255
---
header: 
  seq: 244
  stamp: 
    secs: 1611880659
    nsecs: 670072099
  frame_id: ''
s: 0.0
n: 0.00666186115578
alpha: -6.15055927633
v: 0.10266826096
---
header: 
  seq: 245
  stamp: 
    secs: 1611880659
    nsecs: 680065091
  frame_id: ''
s: 0.0
n: 0.00673132992299
alpha: -6.15032414665
v: 0.0985532739708
---
header: 
  seq: 246
  stamp: 
    secs: 1611880659
    nsecs: 690077025
  frame_id: ''
s: 0.0
n: 0.00677552823873
alpha: -6.15012547519
v: 0.102833001749
---
header: 
  seq: 247
  stamp: 
    secs: 1611880659
    nsecs: 700072799
  frame_id: ''
s: 0.0
n: 0.00693006361019
alpha: -6.14996359915
v: 0.113352693443
---
header: 
  seq: 248
  stamp: 
    secs: 1611880659
    nsecs: 710073444
  frame_id: ''
s: 0.0
n: 0.0071933805876
alpha: -6.14983655726
v: 0.11823615882
---
header: 
  seq: 249
  stamp: 
    secs: 1611880659
    nsecs: 720070617
  frame_id: ''
s: 0.0
n: 0.00741786751428
alpha: -6.14974093158
v: 0.118765261257
---
header: 
  seq: 250
  stamp: 
    secs: 1611880659
    nsecs: 730071783
  frame_id: ''
s: 0.0
n: 0.00735453691425
alpha: -6.14233908409
v: 0.115766865252
---
header: 
  seq: 251
  stamp: 
    secs: 1611880659
    nsecs: 740069411
  frame_id: ''
s: 0.0
n: 0.0074426587209
alpha: -6.13632452669
v: 0.110020111334
---
header: 
  seq: 252
  stamp: 
    secs: 1611880659
    nsecs: 750072104
  frame_id: ''
s: 0.0
n: 0.00818049943534
alpha: -6.18370495748
v: 0.105967532664
---
header: 
  seq: 253
  stamp: 
    secs: 1611880659
    nsecs: 760074516
  frame_id: ''
s: 0.0
n: 0.00802260855789
alpha: -6.17048213401
v: 0.0983854642314
---
header: 
  seq: 254
  stamp: 
    secs: 1611880659
    nsecs: 770070432
  frame_id: ''
s: 0.0
n: 0.00811702997794
alpha: -6.14863539564
v: 0.0918358205764
---
header: 
  seq: 255
  stamp: 
    secs: 1611880659
    nsecs: 780072502
  frame_id: ''
s: 0.0
n: 0.00796558803242
alpha: -6.14060604023
v: 0.0841045968533
---
header: 
  seq: 256
  stamp: 
    secs: 1611880659
    nsecs: 790070989
  frame_id: ''
s: 0.0
n: 0.00779421678289
alpha: -6.13426513368
v: 0.0738542931434
---
header: 
  seq: 257
  stamp: 
    secs: 1611880659
    nsecs: 800078510
  frame_id: ''
s: 0.0
n: 0.00788452306165
alpha: -6.1192874316
v: 0.0657563795034
---
header: 
  seq: 258
  stamp: 
    secs: 1611880659
    nsecs: 810076469
  frame_id: ''
s: 0.0
n: 0.00795823646564
alpha: -6.10753859164
v: 0.0576388196865
---
header: 
  seq: 259
  stamp: 
    secs: 1611880659
    nsecs: 820074832
  frame_id: ''
s: 0.0
n: 0.00801698862747
alpha: -6.09870018929
v: 0.0497308804026
---
header: 
  seq: 260
  stamp: 
    secs: 1611880659
    nsecs: 830072261
  frame_id: ''
s: 0.0
n: 0.00807769937456
alpha: -6.09154607205
v: 0.0497308804026
---
header: 
  seq: 261
  stamp: 
    secs: 1611880659
    nsecs: 840069119
  frame_id: ''
s: 0.0
n: 0.0084528895322
alpha: -6.15633909651
v: 0.0534731659574
---
header: 
  seq: 262
  stamp: 
    secs: 1611880659
    nsecs: 850071489
  frame_id: ''
s: 0.0
n: 0.008296504344
alpha: -6.15710747034
v: 0.0518824244454
---
header: 
  seq: 263
  stamp: 
    secs: 1611880659
    nsecs: 860072313
  frame_id: ''
s: 0.0
n: 0.00883449250909
alpha: -6.20194518157
v: 0.0510402621555
---
header: 
  seq: 264
  stamp: 
    secs: 1611880659
    nsecs: 870070430
  frame_id: ''
s: 0.0
n: 0.00930750382094
alpha: -6.23798185479
v: 0.0608976715444
---
header: 
  seq: 265
  stamp: 
    secs: 1611880659
    nsecs: 880067287
  frame_id: ''
s: 0.0
n: 0.00970980995434
alpha: -6.26584639318
v: 0.0669062407585
---
header: 
  seq: 266
  stamp: 
    secs: 1611880659
    nsecs: 890070404
  frame_id: ''
s: 0.0
n: 0.00990433552025
alpha: -6.28409183962
v: 0.0669062407585
---
header: 
  seq: 267
  stamp: 
    secs: 1611880659
    nsecs: 900067697
  frame_id: ''
s: 0.0
n: 0.0100949749253
alpha: -6.25019888483
v: 0.066325670807
---
header: 
  seq: 268
  stamp: 
    secs: 1611880659
    nsecs: 910067377
  frame_id: ''
s: 0.0
n: 0.0103465256339
alpha: -6.27046448153
v: 0.0656256259113
---
header: 
  seq: 269
  stamp: 
    secs: 1611880659
    nsecs: 920077440
  frame_id: ''
s: 0.0
n: 0.0105476089804
alpha: -6.28559688882
v: 0.0632607546708
---
header: 
  seq: 270
  stamp: 
    secs: 1611880659
    nsecs: 930075115
  frame_id: ''
s: 0.0
n: 0.0107038322764
alpha: -6.2963135681
v: 0.0596637671949
---
header: 
  seq: 271
  stamp: 
    secs: 1611880659
    nsecs: 940069759
  frame_id: ''
s: 0.0
n: 0.0108208078172
alpha: -6.30336876556
v: 0.0552069354704
---
header: 
  seq: 272
  stamp: 
    secs: 1611880659
    nsecs: 950071403
  frame_id: ''
s: 0.0
n: 0.0109039952551
alpha: -6.30749697617
v: 0.0502045075084
---
header: 
  seq: 273
  stamp: 
    secs: 1611880659
    nsecs: 960070125
  frame_id: ''
s: 0.0
n: 0.011077788596
alpha: -6.31756980405
v: 0.0502045075084
---
header: 
  seq: 274
  stamp: 
    secs: 1611880659
    nsecs: 970077948
  frame_id: ''
s: 0.0
n: 0.0106703185191
alpha: -6.25892907185
v: 0.0391362573636
---
header: 
  seq: 275
  stamp: 
    secs: 1611880659
    nsecs: 980073368
  frame_id: ''
s: 0.0
n: 0.01017925726
alpha: -6.2067032754
v: 0.0339759924813
---
header: 
  seq: 276
  stamp: 
    secs: 1611880659
    nsecs: 990074778
  frame_id: ''
s: 0.0
n: 0.00992106159252
alpha: -6.16424635359
v: 0.0294468641349
---
header: 
  seq: 277
  stamp: 
    secs: 1611880660
    nsecs:     71555
  frame_id: ''
s: 0.0
n: 0.00959511866222
alpha: -6.14117711935
v: 0.0256630446471
---
header: 
  seq: 278
  stamp: 
    secs: 1611880660
    nsecs:  10095976
  frame_id: ''
s: 0.0
n: 0.00978726916673
alpha: -6.17659272391
v: 0.0441816451727
---
header: 
  seq: 279
  stamp: 
    secs: 1611880660
    nsecs:  20069133
  frame_id: ''
s: 0.0
n: 0.00995975181896
alpha: -6.20768934565
v: 0.0576133392282
---
header: 
  seq: 280
  stamp: 
    secs: 1611880660
    nsecs:  30069669
  frame_id: ''
s: 0.0
n: 0.010112127063
alpha: -6.23397657848
v: 0.0665138413496
---
header: 
  seq: 281
  stamp: 
    secs: 1611880660
    nsecs:  40078151
  frame_id: ''
s: 0.0
n: 0.0102446137913
alpha: -6.25540520788
v: 0.0716039793513
---
header: 
  seq: 282
  stamp: 
    secs: 1611880660
    nsecs:  50070359
  frame_id: ''
s: 0.0
n: 0.0103579369146
alpha: -6.27223099365
v: 0.0735766947358
---
header: 
  seq: 283
  stamp: 
    secs: 1611880660
    nsecs:  60063722
  frame_id: ''
s: 0.0
n: 0.0104074851087
alpha: -6.28182344196
v: 0.0735766947358
---
header: 
  seq: 284
  stamp: 
    secs: 1611880660
    nsecs:  70069439
  frame_id: ''
s: 0.0
n: 0.00984814639311
alpha: -6.18104694378
v: 0.0720970205334
---
header: 
  seq: 285
  stamp: 
    secs: 1611880660
    nsecs:  80069207
  frame_id: ''
s: 0.0
n: 0.0100011671562
alpha: -6.20965113959
v: 0.0677405781154
---
header: 
  seq: 286
  stamp: 
    secs: 1611880660
    nsecs:  90076559
  frame_id: ''
s: 0.0
n: 0.00977273822546
alpha: -6.17185776759
v: 0.0635082280203
---
header: 
  seq: 287
  stamp: 
    secs: 1611880660
    nsecs: 100074570
  frame_id: ''
s: 0.0
n: 0.0099372786074
alpha: -6.20361469802
v: 0.0573792531731
---
header: 
  seq: 288
  stamp: 
    secs: 1611880660
    nsecs: 110072160
  frame_id: ''
s: 0.0
n: 0.0097275685836
alpha: -6.16833932897
v: 0.0639989322208
---
header: 
  seq: 289
  stamp: 
    secs: 1611880660
    nsecs: 120069466
  frame_id: ''
s: 0.0
n: 0.00991690637803
alpha: -6.20202971075
v: 0.0781989682859
---
header: 
  seq: 290
  stamp: 
    secs: 1611880660
    nsecs: 130066721
  frame_id: ''
s: 0.0
n: 0.0100094977154
alpha: -6.16817241981
v: 0.0825477534121
---
header: 
  seq: 291
  stamp: 
    secs: 1611880660
    nsecs: 140065652
  frame_id: ''
s: 0.0
n: 0.0101668921641
alpha: -6.14058616875
v: 0.0882377364389
---
header: 
  seq: 292
  stamp: 
    secs: 1611880660
    nsecs: 150079289
  frame_id: ''
s: 0.0
n: 0.0103037576537
alpha: -6.18119396634
v: 0.0902251234699
---
header: 
  seq: 293
  stamp: 
    secs: 1611880660
    nsecs: 160070059
  frame_id: ''
s: 0.0
n: 0.0104208393017
alpha: -6.21557107393
v: 0.0892673051173
---
header: 
  seq: 294
  stamp: 
    secs: 1611880660
    nsecs: 170073270
  frame_id: ''
s: 0.0
n: 0.0105192683832
alpha: -6.24363459099
v: 0.0860406790802
---
header: 
  seq: 295
  stamp: 
    secs: 1611880660
    nsecs: 180068655
  frame_id: ''
s: 0.0
n: 0.010600444966
alpha: -6.26570389686
v: 0.0811368448257
---
header: 
  seq: 296
  stamp: 
    secs: 1611880660
    nsecs: 190067599
  frame_id: ''
s: 0.0
n: 0.0106739166365
alpha: -6.2823547469
v: 0.0869508394718
---
header: 
  seq: 297
  stamp: 
    secs: 1611880660
    nsecs: 200072292
  frame_id: ''
s: 0.0
n: 0.01074034776
alpha: -6.2943041123
v: 0.100943252846
---
header: 
  seq: 298
  stamp: 
    secs: 1611880660
    nsecs: 210074611
  frame_id: ''
s: 0.0
n: 0.0107924739078
alpha: -6.30232292769
v: 0.10901572142
---
header: 
  seq: 299
  stamp: 
    secs: 1611880660
    nsecs: 220072268
  frame_id: ''
s: 0.0
n: 0.0108320203161
alpha: -6.30717314281
v: 0.112256182935
---
header: 
  seq: 300
  stamp: 
    secs: 1611880660
    nsecs: 230067848
  frame_id: ''
s: 0.0
n: 0.0108606796568
alpha: -6.30956516296
v: 0.111647069073
---
header: 
  seq: 301
  stamp: 
    secs: 1611880660
    nsecs: 240065879
  frame_id: ''
s: 0.0
n: 0.0108800720685
alpha: -6.31013178328
v: 0.108060377684
---
header: 
  seq: 302
  stamp: 
    secs: 1611880660
    nsecs: 250065037
  frame_id: ''
s: 0.0
n: 0.0108917160915
alpha: -6.30941496762
v: 0.102257588398
---
header: 
  seq: 303
  stamp: 
    secs: 1611880660
    nsecs: 260062977
  frame_id: ''
s: 0.0
n: 0.0109129639053
alpha: -6.30786220861
v: 0.118710051502
---
header: 
  seq: 304
  stamp: 
    secs: 1611880660
    nsecs: 270075613
  frame_id: ''
s: 0.0
n: 0.0109271359853
alpha: -6.3058296638
v: 0.128200552459
---
header: 
  seq: 305
  stamp: 
    secs: 1611880660
    nsecs: 280068089
  frame_id: ''
s: 0.0
n: 0.0109354095155
alpha: -6.30358974412
v: 0.132008960005
---
header: 
  seq: 306
  stamp: 
    secs: 1611880660
    nsecs: 290072641
  frame_id: ''
s: 0.0312898879588
n: 0.0109388645795
alpha: -6.30134129808
v: 0.131290744386
---
header: 
  seq: 307
  stamp: 
    secs: 1611880660
    nsecs: 300064458
  frame_id: ''
s: 0.0322668344798
n: 0.0109384756163
alpha: -6.29922096648
v: 0.127071388407
---
header: 
  seq: 308
  stamp: 
    secs: 1611880660
    nsecs: 310065834
  frame_id: ''
s: 0.0329939201849
n: 0.0109351077224
alpha: -6.29731466201
v: 0.120246357255
---
header: 
  seq: 309
  stamp: 
    secs: 1611880660
    nsecs: 320063689
  frame_id: ''
s: 0.033506393653
n: 0.0109295168242
alpha: -6.29566845025
v: 0.111584897965
---
header: 
  seq: 310
  stamp: 
    secs: 1611880660
    nsecs: 330073606
  frame_id: ''
s: 0.0357363222077
n: 0.0109383078656
alpha: -6.29429837291
v: 0.125564291545
---
header: 
  seq: 311
  stamp: 
    secs: 1611880660
    nsecs: 340071664
  frame_id: ''
s: 0.0375794579749
n: 0.0109440868874
alpha: -6.29319896147
v: 0.132935933933
---
header: 
  seq: 312
  stamp: 
    secs: 1611880660
    nsecs: 350073322
  frame_id: ''
s: 0.0390703545499
n: 0.0109473620745
alpha: -6.29235034717
v: 0.134962333004
---
header: 
  seq: 313
  stamp: 
    secs: 1611880660
    nsecs: 360084488
  frame_id: ''
s: 0.0402457102149
n: 0.0109485985079
alpha: -6.29172398644
v: 0.132774693638
---
header: 
  seq: 314
  stamp: 
    secs: 1611880660
    nsecs: 370066834
  frame_id: ''
s: 0.0411428678674
n: 0.0109482147725
alpha: -6.29128709738
v: 0.127370431422
---
header: 
  seq: 315
  stamp: 
    secs: 1611880660
    nsecs: 380066075
  frame_id: ''
s: 0.041798630329
n: 0.0109465816162
alpha: -6.2910059495
v: 0.119615047691
---
header: 
  seq: 316
  stamp: 
    secs: 1611880660
    nsecs: 390069144
  frame_id: ''
s: 0.0431976873477
n: 0.0109519997457
alpha: -6.29084817239
v: 0.12216141955
---
header: 
  seq: 317
  stamp: 
    secs: 1611880660
    nsecs: 400074237
  frame_id: ''
s: 0.0452549777979
n: 0.0109637522085
alpha: -6.29078425525
v: 0.132649167178
---
header: 
  seq: 318
  stamp: 
    secs: 1611880660
    nsecs: 410075321
  frame_id: ''
s: 0.0469366529299
n: 0.0109731272184
alpha: -6.29078840306
v: 0.137106863815
---
header: 
  seq: 319
  stamp: 
    secs: 1611880660
    nsecs: 420065633
  frame_id: ''
s: 0.0482792853038
n: 0.0109803916554
alpha: -6.29083890144
v: 0.136750228937
---
header: 
  seq: 320
  stamp: 
    secs: 1611880660
    nsecs: 430072597
  frame_id: ''
s: 0.0493207754671
n: 0.0109858119523
alpha: -6.29091812323
v: 0.132659083304
---
header: 
  seq: 321
  stamp: 
    secs: 1611880660
    nsecs: 440066479
  frame_id: ''
s: 0.0519976665685
n: 0.0110056017725
alpha: -6.29101228959
v: 0.14960566259
---
header: 
  seq: 322
  stamp: 
    secs: 1611880660
    nsecs: 450071959
  frame_id: ''
s: 0.0542114802806
n: 0.0110220631756
alpha: -6.29111107711
v: 0.158613958801
---
header: 
  seq: 323
  stamp: 
    secs: 1611880660
    nsecs: 460072309
  frame_id: ''
s: 0.0560033850616
n: 0.0110354767427
alpha: -6.291207143
v: 0.16119684759
---
header: 
  seq: 324
  stamp: 
    secs: 1611880660
    nsecs: 470070229
  frame_id: ''
s: 0.0574171670411
n: 0.0110461457016
alpha: -6.29129562252
v: 0.158710198042
---
header: 
  seq: 325
  stamp: 
    secs: 1611880660
    nsecs: 480067423
  frame_id: ''
s: 0.0584974271687
n: 0.0110543824381
alpha: -6.29137363716
v: 0.152349950188
---
header: 
  seq: 326
  stamp: 
    secs: 1611880660
    nsecs: 490075162
  frame_id: ''
s: 0.061186823003
n: 0.0110764527571
alpha: -6.29143983976
v: 0.166982551544
---
header: 
  seq: 327
  stamp: 
    secs: 1611880660
    nsecs: 500067204
  frame_id: ''
s: 0.0633923643359
n: 0.0110947142193
alpha: -6.29149401173
v: 0.173706485402
---
header: 
  seq: 328
  stamp: 
    secs: 1611880660
    nsecs: 510082416
  frame_id: ''
s: 0.0651600675776
n: 0.0111095039716
alpha: -6.29153672015
v: 0.174091752512
---
header: 
  seq: 329
  stamp: 
    secs: 1611880660
    nsecs: 520076198
  frame_id: ''
s: 0.0665379337025
n: 0.0111211810585
alpha: -6.29156903619
v: 0.169536233782
---
header: 
  seq: 330
  stamp: 
    secs: 1611880660
    nsecs: 530073418
  frame_id: ''
s: 0.0694728352673
n: 0.0111460665519
alpha: -6.29159231232
v: 0.185093215032
---
header: 
  seq: 331
  stamp: 
    secs: 1611880660
    nsecs: 540068722
  frame_id: ''
s: 0.0718765133751
n: 0.0111665784325
alpha: -6.29160801299
v: 0.192031023467
---
header: 
  seq: 332
  stamp: 
    secs: 1611880660
    nsecs: 550071480
  frame_id: ''
s: 0.0737999853721
n: 0.0111831165906
alpha: -6.29161759208
v: 0.192071590042
---
header: 
  seq: 333
  stamp: 
    secs: 1611880660
    nsecs: 560067874
  frame_id: ''
s: 0.0752963234066
n: 0.0111961028713
alpha: -6.29162240963
v: 0.186746540101
---
header: 
  seq: 334
  stamp: 
    secs: 1611880660
    nsecs: 570079361
  frame_id: ''
s: 0.0764187176886
n: 0.0112059644308
alpha: -6.29162368039
v: 0.177396769284
---
header: 
  seq: 335
  stamp: 
    secs: 1611880660
    nsecs: 580071616
  frame_id: ''
s: 0.0791176335761
n: 0.0112290756526
alpha: -6.29162244729
v: 0.189005697546
---
header: 
  seq: 336
  stamp: 
    secs: 1611880660
    nsecs: 590073545
  frame_id: ''
s: 0.0813070631126
n: 0.0112478948311
alpha: -6.29161957351
v: 0.19276370354
---
header: 
  seq: 337
  stamp: 
    secs: 1611880660
    nsecs: 600068184
  frame_id: ''
s: 0.0830391681468
n: 0.0112628509367
alpha: -6.2916157477
v: 0.190310672923
---
header: 
  seq: 338
  stamp: 
    secs: 1611880660
    nsecs: 610092161
  frame_id: ''
s: 0.0862659395755
n: 0.0112903403552
alpha: -6.29161149805
v: 0.206923545469
---
header: 
  seq: 339
  stamp: 
    secs: 1611880660
    nsecs: 620069201
  frame_id: ''
s: 0.0889048387893
n: 0.0113128584721
alpha: -6.29160721142
v: 0.214073777746
---
header: 
  seq: 340
  stamp: 
    secs: 1611880660
    nsecs: 630075835
  frame_id: ''
s: 0.0910129120693
n: 0.0113308820496
alpha: -6.29160315484
v: 0.21366481942
---
header: 
  seq: 341
  stamp: 
    secs: 1611880660
    nsecs: 640073580
  frame_id: ''
s: 0.0926493324176
n: 0.0113449072463
alpha: -6.29159949743
v: 0.207387936253
---
header: 
  seq: 342
  stamp: 
    secs: 1611880660
    nsecs: 650068189
  frame_id: ''
s: 0.0948226100516
n: 0.0113634089745
alpha: -6.29159633119
v: 0.208636328615
---
header: 
  seq: 343
  stamp: 
    secs: 1611880660
    nsecs: 660065015
  frame_id: ''
s: 0.0974719679908
n: 0.0113858775801
alpha: -6.29159368983
v: 0.215702856932
---
header: 
  seq: 344
  stamp: 
    secs: 1611880660
    nsecs: 670065878
  frame_id: ''
s: 0.0995875250147
n: 0.0114038285331
alpha: -6.29159156516
v: 0.215183363188
---
header: 
  seq: 345
  stamp: 
    secs: 1611880660
    nsecs: 680065448
  frame_id: ''
s: 0.101228906538
n: 0.0114177651539
alpha: -6.29158992081
v: 0.208778158544
---
header: 
  seq: 346
  stamp: 
    secs: 1611880660
    nsecs: 690067874
  frame_id: ''
s: 0.10245571164
n: 0.0114281908655
alpha: -6.29158870325
v: 0.197973842224
---
header: 
  seq: 347
  stamp: 
    secs: 1611880660
    nsecs: 700063442
  frame_id: ''
s: 0.105083756042
n: 0.012380775566
alpha: -6.24683435416
v: 0.206539939779
---
header: 
  seq: 348
  stamp: 
    secs: 1611880660
    nsecs: 710069796
  frame_id: ''
s: 0.107476677758
n: 0.0131204763471
alpha: -6.21040794728
v: 0.211316396404
---
header: 
  seq: 349
  stamp: 
    secs: 1611880660
    nsecs: 720068100
  frame_id: ''
s: 0.109370220661
n: 0.0137548980065
alpha: -6.18185300953
v: 0.209308114126
---
header: 
  seq: 350
  stamp: 
    secs: 1611880660
    nsecs: 730068790
  frame_id: ''
s: 0.112576371342
n: 0.0134690114258
alpha: -6.20514158858
v: 0.222672243381
---
header: 
  seq: 351
  stamp: 
    secs: 1611880660
    nsecs: 740065086
  frame_id: ''
s: 0.115172288166
n: 0.0141423742696
alpha: -6.18148167643
v: 0.227987147144
---
header: 
  seq: 352
  stamp: 
    secs: 1611880660
    nsecs: 750067844
  frame_id: ''
s: 0.117360919285
n: 0.0147329399185
alpha: -6.16339004477
v: 0.227538518443
---
header: 
  seq: 353
  stamp: 
    secs: 1611880660
    nsecs: 760066076
  frame_id: ''
s: 0.119852141443
n: 0.0153456841262
alpha: -6.15018830347
v: 0.231010241698
---
header: 
  seq: 354
  stamp: 
    secs: 1611880660
    nsecs: 770074125
  frame_id: ''
s: 0.122774216201
n: 0.0166776684193
alpha: -6.18587420264
v: 0.240993784692
---
header: 
  seq: 355
  stamp: 
    secs: 1611880660
    nsecs: 780070527
  frame_id: ''
s: 0.125249771287
n: 0.0168815920121
alpha: -6.17184942734
v: 0.241757004829
---
header: 
  seq: 356
  stamp: 
    secs: 1611880660
    nsecs: 790068346
  frame_id: ''
s: 0.1279945686
n: 0.0179522831372
alpha: -6.2056814065
v: 0.247803386971
---
header: 
  seq: 357
  stamp: 
    secs: 1611880660
    nsecs: 800065021
  frame_id: ''
s: 0.131114414895
n: 0.0188556447248
alpha: -6.2339609045
v: 0.257370329955
---
header: 
  seq: 358
  stamp: 
    secs: 1611880660
    nsecs: 810065110
  frame_id: ''
s: 0.133608759647
n: 0.019596692183
alpha: -6.25675438412
v: 0.257657100598
---
header: 
  seq: 359
  stamp: 
    secs: 1611880660
    nsecs: 820074625
  frame_id: ''
s: 0.135547042829
n: 0.0201908294304
alpha: -6.27443417691
v: 0.250708539088
---
header: 
  seq: 360
  stamp: 
    secs: 1611880660
    nsecs: 830073247
  frame_id: ''
s: 0.138897447423
n: 0.0206700893354
alpha: -6.28755983221
v: 0.261566798758
---
header: 
  seq: 361
  stamp: 
    secs: 1611880660
    nsecs: 840063273
  frame_id: ''
s: 0.141592330636
n: 0.0210326822094
alpha: -6.29678573451
v: 0.262755758199
---
header: 
  seq: 362
