header: 
  seq: 8960
  stamp: 
    secs: 1604188490
    nsecs: 439280064
  frame_id: ''
s: 0.227316649763
n: 0.00391609606024
alpha: -0.00789011950395
v: 0.22860420324
---
header: 
  seq: 8961
  stamp: 
    secs: 1604188490
    nsecs: 449282029
  frame_id: ''
s: 0.229173441543
n: 0.00393467752302
alpha: -0.00788010605045
v: 0.22321842613
---
header: 
  seq: 8962
  stamp: 
    secs: 1604188490
    nsecs: 459281687
  frame_id: ''
s: 0.231525045601
n: 0.00395714600297
alpha: -0.00790440660083
v: 0.224718413903
---
header: 
  seq: 8963
  stamp: 
    secs: 1604188490
    nsecs: 469279986
  frame_id: ''
s: 0.234315055246
n: 0.00398301222529
alpha: -0.00795075100939
v: 0.231532124889
---
header: 
  seq: 8964
  stamp: 
    secs: 1604188490
    nsecs: 479286443
  frame_id: ''
s: 0.236538039044
n: 0.00400382338278
alpha: -0.00800942579472
v: 0.230374544083
---
header: 
  seq: 8965
  stamp: 
    secs: 1604188490
    nsecs: 489284403
  frame_id: ''
s: 0.238258009925
n: 0.00402012245673
alpha: -0.00807304646554
v: 0.223049394378
---
header: 
  seq: 8966
  stamp: 
    secs: 1604188490
    nsecs: 499282868
  frame_id: ''
s: 0.239538783694
n: 0.00403245759859
alpha: -0.00813626290357
v: 0.211131566961
---
header: 
  seq: 8967
  stamp: 
    secs: 1604188490
    nsecs: 509279148
  frame_id: ''
s: 0.241391576465
n: 0.00404934319838
alpha: -0.00819543646863
v: 0.207888183735
---
header: 
  seq: 8968
  stamp: 
    secs: 1604188490
    nsecs: 519281038
  frame_id: ''
s: 0.243756735222
n: 0.00407029824501
alpha: -0.0082483169813
v: 0.211481996742
---
header: 
  seq: 8969
  stamp: 
    secs: 1604188490
    nsecs: 529283944
  frame_id: ''
s: 0.245624240974
n: 0.00408685762572
alpha: -0.00829373886548
v: 0.20837923453
---
header: 
  seq: 8970
  stamp: 
    secs: 1604188490
    nsecs: 539284435
  frame_id: ''
s: 0.247892824425
n: 0.00492453779633
alpha: 0.0308894880094
v: 0.211039401041
---
header: 
  seq: 8971
  stamp: 
    secs: 1604188490
    nsecs: 549283022
  frame_id: ''
s: 0.250733757055
n: 0.00484698753022
alpha: 0.0235613319003
v: 0.220113332827
---
header: 
  seq: 8972
  stamp: 
    secs: 1604188490
    nsecs: 559282548
  frame_id: ''
s: 0.253007024166
n: 0.0057166070825
alpha: 0.0166401469615
v: 0.22167883887
---
header: 
  seq: 8973
  stamp: 
    secs: 1604188490
    nsecs: 569281693
  frame_id: ''
s: 0.254790332378
n: 0.00551912715787
alpha: 0.0104099079501
v: 0.215982755369
---
header: 
  seq: 8974
  stamp: 
    secs: 1604188490
    nsecs: 579280476
  frame_id: ''
s: 0.256135853782
n: 0.00532739035269
alpha: 0.00502386240201
v: 0.205595443137
---
header: 
  seq: 8975
  stamp: 
    secs: 1604188490
    nsecs: 589286149
  frame_id: ''
s: 0.2570953745
n: 0.00609480101391
alpha: 0.000536631474455
v: 0.19251051706
---
header: 
  seq: 8976
  stamp: 
    secs: 1604188490
    nsecs: 599287343
  frame_id: ''
s: 0.259633557949
n: 0.00677256691245
alpha: -0.00306793794066
v: 0.200948427364
---
header: 
  seq: 8977
  stamp: 
    secs: 1604188490
    nsecs: 609285783
  frame_id: ''
s: 0.261668402951
n: 0.00734775493637
alpha: -0.00585348910445
v: 0.202001023285
---
header: 
  seq: 8978
  stamp: 
    secs: 1604188490
    nsecs: 619279818
  frame_id: ''
s: 0.263262993769
n: 0.00687778618382
alpha: -0.00791238575492
v: 0.195807907496
---
header: 
  seq: 8979
  stamp: 
    secs: 1604188490
    nsecs: 629278867
  frame_id: ''
s: 0.264463719795
n: 0.00643822630253
alpha: -0.00935115124783
v: 0.185816292813
---
header: 
  seq: 8980
  stamp: 
    secs: 1604188490
    nsecs: 639276302
  frame_id: ''
s: 0.266265977965
n: 0.00699188716569
alpha: -0.0102796565448
v: 0.18558102262
---
header: 
  seq: 8981
  stamp: 
    secs: 1604188490
    nsecs: 649282998
  frame_id: ''
s: 0.268611942328
n: 0.0074734118315
alpha: -0.0108035188119
v: 0.192189296321
---
header: 
  seq: 8982
  stamp: 
    secs: 1604188490
    nsecs: 659282904
  frame_id: ''
s: 0.270485164541
n: 0.00787842555308
alpha: -0.0110191508768
v: 0.1920072269
---
header: 
  seq: 8983
  stamp: 
    secs: 1604188490
    nsecs: 669265271
  frame_id: ''
s: 0.27193845945
n: 0.00821263591704
alpha: -0.0110109204078
v: 0.186533728909
---
header: 
  seq: 8984
  stamp: 
    secs: 1604188490
    nsecs: 679278283
  frame_id: ''
s: 0.273024616156
n: 0.00848245673146
alpha: -0.0108499226649
v: 0.177089479087
---
header: 
  seq: 8985
  stamp: 
    secs: 1604188490
    nsecs: 689280858
  frame_id: ''
s: 0.274744264892
n: 0.00870264971657
alpha: -0.0105939310235
v: 0.176620807018
---
header: 
  seq: 8986
  stamp: 
    secs: 1604188490
    nsecs: 699278819
  frame_id: ''
s: 0.277027804834
n: 0.00887910381755
alpha: -0.010288156758
v: 0.18315177363
---
header: 
  seq: 8987
  stamp: 
    secs: 1604188490
    nsecs: 709284029
  frame_id: ''
s: 0.278856042902
n: 0.00900964160415
alpha: -0.00996651758284
v: 0.183134947797
---
header: 
  seq: 8988
  stamp: 
    secs: 1604188490
    nsecs: 719282992
  frame_id: ''
s: 0.280279172773
n: 0.0091008264347
alpha: -0.00965317891989
v: 0.178021336623
---
header: 
  seq: 8989
  stamp: 
    secs: 1604188490
    nsecs: 729283233
  frame_id: ''
s: 0.282296864957
n: 0.00916683811071
alpha: -0.00936419005427
v: 0.180938960466
---
header: 
  seq: 8990
  stamp: 
    secs: 1604188490
    nsecs: 739278851
  frame_id: ''
s: 0.284831880378
n: 0.0101617643317
alpha: -0.00910908777644
v: 0.191391603237
---
header: 
  seq: 8991
  stamp: 
    secs: 1604188490
    nsecs: 749285241
  frame_id: ''
s: 0.286875337711
n: 0.011014255001
alpha: -0.00889238222849
v: 0.194457731959
---
header: 
  seq: 8992
  stamp: 
    secs: 1604188490
    nsecs: 759284085
  frame_id: ''
s: 0.288487463112
n: 0.0107828551163
alpha: -0.00871487358678
v: 0.189511010563
---
header: 
  seq: 8993
  stamp: 
    secs: 1604188490
    nsecs: 769285723
  frame_id: ''
s: 0.289704196683
n: 0.0114944180543
alpha: -0.00857477449268
v: 0.182288464932
---
header: 
  seq: 8994
  stamp: 
    secs: 1604188490
    nsecs: 779284559
  frame_id: ''
s: 0.290594426294
n: 0.0111400174034
alpha: -0.00846863262816
v: 0.169682037966
---
header: 
  seq: 8995
  stamp: 
    secs: 1604188490
    nsecs: 789282414
  frame_id: ''
s: 0.292140262387
n: 0.0117539304944
alpha: -0.00839206150681
v: 0.168784421272
---
header: 
  seq: 8996
  stamp: 
    secs: 1604188490
    nsecs: 799278820
  frame_id: ''
s: 0.294279013448
n: 0.0122746550596
alpha: -0.00834029643091
v: 0.175183394265
---
header: 
  seq: 8997
  stamp: 
    secs: 1604188490
    nsecs: 809284115
  frame_id: ''
s: 0.29598907447
n: 0.0127014015307
alpha: -0.00830859763494
v: 0.175285454393
---
header: 
  seq: 8998
  stamp: 
    secs: 1604188490
    nsecs: 819282361
  frame_id: ''
s: 0.297318021038
n: 0.013043153081
alpha: -0.00829252479465
v: 0.170482799044
---
header: 
  seq: 8999
  stamp: 
    secs: 1604188490
    nsecs: 829281945
  frame_id: ''
s: 0.299270795732
n: 0.0123679111061
alpha: -0.00828810711833
v: 0.171925895848
---
header: 
  seq: 9000
  stamp: 
    secs: 1604188490
    nsecs: 839285979
  frame_id: ''
s: 0.301758489898
n: 0.0127010418821
alpha: -0.00829193181976
v: 0.181846872855
---
header: 
  seq: 9001
  stamp: 
    secs: 1604188490
    nsecs: 849293841
  frame_id: ''
s: 0.303757487016
n: 0.0121554070629
alpha: 0.0364523300452
v: 0.183330585832
---
header: 
  seq: 9002
  stamp: 
    secs: 1604188490
    nsecs: 859283361
  frame_id: ''
s: 0.305343404879
n: 0.012472205479
alpha: 0.0281122911033
v: 0.180475852872
---
header: 
  seq: 9003
  stamp: 
    secs: 1604188490
    nsecs: 869286318
  frame_id: ''
s: 0.306553191639
n: 0.0127368366965
alpha: 0.020227240864
v: 0.173248347184
---
header: 
  seq: 9004
  stamp: 
    secs: 1604188490
    nsecs: 879279897
  frame_id: ''
s: 0.308386028129
n: 0.0129614910228
alpha: 0.0131234321184
v: 0.17467349318
---
header: 
  seq: 9005
  stamp: 
    secs: 1604188490
    nsecs: 889279154
  frame_id: ''
s: 0.310566263564
n: 0.01271134774
alpha: 0.0517311730544
v: 0.179758479918
---
header: 
  seq: 9006
  stamp: 
    secs: 1604188490
    nsecs: 899287692
  frame_id: ''
s: 0.312510370767
n: 0.0129137784785
alpha: 0.0382797997477
v: 0.18171524576
---
header: 
  seq: 9007
  stamp: 
    secs: 1604188490
    nsecs: 909287357
  frame_id: ''
s: 0.314037145111
n: 0.0130791451114
alpha: 0.0262897684689
v: 0.178172369314
---
header: 
  seq: 9008
  stamp: 
    secs: 1604188490
    nsecs: 919283009
  frame_id: ''
s: 0.317095416628
n: 0.0132270274745
alpha: 0.0160144892063
v: 0.194225302144
---
header: 
  seq: 9009
  stamp: 
    secs: 1604188490
    nsecs: 929281739
  frame_id: ''
s: 0.319626094357
n: 0.0131895102624
alpha: 0.0596122139015
v: 0.201515391986
---
header: 
  seq: 9010
  stamp: 
    secs: 1604188490
    nsecs: 939279319
  frame_id: ''
s: 0.321663398868
n: 0.0131147259634
alpha: 0.105416693375
v: 0.201712056408
---
header: 
  seq: 9011
  stamp: 
    secs: 1604188490
    nsecs: 949286555
  frame_id: ''
s: 0.323212404325
n: 0.0132202770872
alpha: 0.0794963541146
v: 0.19587798476
---
header: 
  seq: 9012
  stamp: 
    secs: 1604188490
    nsecs: 959288311
  frame_id: ''
s: 0.325962879603
n: 0.0132657999669
alpha: 0.108601433134
v: 0.205804279006
---
header: 
  seq: 9013
  stamp: 
    secs: 1604188490
    nsecs: 969288989
  frame_id: ''
s: 0.328206577377
n: 0.0131428197644
alpha: 0.131395140613
v: 0.208061423274
---
header: 
  seq: 9014
  stamp: 
    secs: 1604188490
    nsecs: 979283444
  frame_id: ''
s: 0.330250479489
n: 0.0132342843326
alpha: 0.0964231833622
v: 0.207623681063
---
header: 
  seq: 9015
  stamp: 
    secs: 1604188490
    nsecs: 989283782
  frame_id: ''
s: 0.332786007217
n: 0.013316373671
alpha: 0.12849353045
v: 0.213404230573
---
header: 
  seq: 9016
  stamp: 
    secs: 1604188490
    nsecs: 999280636
  frame_id: ''
s: 0.335349782103
n: 0.0134960686004
alpha: 0.154053317054
v: 0.218855597515
---
header: 
  seq: 9017
  stamp: 
    secs: 1604188491
    nsecs:   9293938
  frame_id: ''
s: 0.337788442115
n: 0.0135406765238
alpha: 0.173633205942
v: 0.221994774947
---
header: 
  seq: 9018
  stamp: 
    secs: 1604188491
    nsecs:  19284008
  frame_id: ''
s: 0.339682760763
n: 0.0137255464376
alpha: 0.177782267253
v: 0.217979240398
---
header: 
  seq: 9019
  stamp: 
    secs: 1604188491
    nsecs:  29286265
  frame_id: ''
s: 0.341151387793
n: 0.0137261831219
alpha: 0.179369475392
v: 0.209040378821
---
header: 
  seq: 9020
  stamp: 
    secs: 1604188491
    nsecs:  39279943
  frame_id: ''
s: 0.343240304084
n: 0.0138050293253
alpha: 0.18941061872
v: 0.209040378821
---
header: 
  seq: 9021
  stamp: 
    secs: 1604188491
    nsecs:  49283507
  frame_id: ''
s: 0.346520543636
n: 0.0137329804255
alpha: 0.13520248793
v: 0.222535613914
---
header: 
  seq: 9022
  stamp: 
    secs: 1604188491
    nsecs:  59283002
  frame_id: ''
s: 0.348431490898
n: 0.0135716099323
alpha: 0.142086783775
v: 0.218541822076
---
header: 
  seq: 9023
  stamp: 
    secs: 1604188491
    nsecs:  69294529
  frame_id: ''
s: 0.350067808729
n: 0.013297609136
alpha: 0.14767311561
v: 0.211629603423
---
header: 
  seq: 9024
  stamp: 
    secs: 1604188491
    nsecs:  79284824
  frame_id: ''
s: 0.352977982006
n: 0.013350991118
alpha: 0.0999511240509
v: 0.221591888837
---
header: 
  seq: 9025
  stamp: 
    secs: 1604188491
    nsecs:  89286367
  frame_id: ''
s: 0.355318923198
n: 0.0133982499144
alpha: 0.0608251438264
v: 0.22316209612
---
header: 
  seq: 9026
  stamp: 
    secs: 1604188491
    nsecs:  99281788
  frame_id: ''
s: 0.358101179219
n: 0.01344740579
alpha: 0.0299149821073
v: 0.23007476666
---
header: 
  seq: 9027
  stamp: 
    secs: 1604188491
    nsecs: 109280092
  frame_id: ''
s: 0.361268221719
n: 0.0134976674157
alpha: 0.00647089750418
v: 0.240949631844
---
header: 
  seq: 9028
  stamp: 
    secs: 1604188491
    nsecs: 119280531
  frame_id: ''
s: 0.363816019999
n: 0.0135404109752
alpha: -0.0104651804842
v: 0.242688508338
---
header: 
  seq: 9029
  stamp: 
    secs: 1604188491
    nsecs: 129312748
  frame_id: ''
s: 0.36581113274
n: 0.0135761151332
alpha: -0.0219368684383
v: 0.237272984968
---
header: 
  seq: 9030
  stamp: 
    secs: 1604188491
    nsecs: 139287406
  frame_id: ''
s: 0.367320741059
n: 0.0136053485009
alpha: -0.0289841746057
v: 0.226443904328
---
header: 
  seq: 9031
  stamp: 
    secs: 1604188491
    nsecs: 149281341
  frame_id: ''
s: 0.370309303323
n: 0.0136446887984
alpha: -0.0325826782348
v: 0.235534453031
---
header: 
  seq: 9032
  stamp: 
    secs: 1604188491
    nsecs: 159277618
  frame_id: ''
s: 0.372704415976
n: 0.0136768401161
alpha: -0.0336057297595
v: 0.236036142615
---
header: 
  seq: 9033
  stamp: 
    secs: 1604188491
    nsecs: 169282104
  frame_id: ''
s: 0.374571163608
n: 0.0137025033894
alpha: -0.0328046631284
v: 0.229843650426
---
header: 
  seq: 9034
  stamp: 
    secs: 1604188491
    nsecs: 179282946
  frame_id: ''
s: 0.375974902568
n: 0.0137224047284
alpha: -0.0308025182064
v: 0.218617301528
---
header: 
  seq: 9035
  stamp: 
    secs: 1604188491
    nsecs: 189284203
  frame_id: ''
s: 0.378878044592
n: 0.0137532245829
alpha: -0.0280973862415
v: 0.227616981507
---
header: 
  seq: 9036
  stamp: 
    secs: 1604188491
    nsecs: 199281184
  frame_id: ''
s: 0.381206024014
n: 0.0137777243097
alpha: -0.0250721440322
v: 0.228268775734
---
header: 
  seq: 9037
  stamp: 
    secs: 1604188491
    nsecs: 209281141
  frame_id: ''
s: 0.383021733799
n: 0.013796625153
alpha: -0.0220079819206
v: 0.222409635386
---
header: 
  seq: 9038
  stamp: 
    secs: 1604188491
    nsecs: 219280693
  frame_id: ''
s: 0.384388376827
n: 0.0138106442216
alpha: -0.0190997231284
v: 0.211649871877
---
header: 
  seq: 9039
  stamp: 
    secs: 1604188491
    nsecs: 229281402
  frame_id: ''
s: 0.385367634389
n: 0.0138204754085
alpha: -0.0164714568042
v: 0.197378612762
---
header: 
  seq: 9040
  stamp: 
    secs: 1604188491
    nsecs: 239290591
  frame_id: ''
s: 0.38696761748
n: 0.0138347527033
alpha: -0.0141914544973
v: 0.192688307803
---
header: 
  seq: 9041
  stamp: 
    secs: 1604188491
    nsecs: 249290927
  frame_id: ''
s: 0.389124899651
n: 0.0138530910263
alpha: -0.0122857074077
v: 0.195580626818
---
header: 
  seq: 9042
  stamp: 
    secs: 1604188491
    nsecs: 259281088
  frame_id: ''
s: 0.39082527392
n: 0.0138671001122
alpha: -0.0107497129295
v: 0.19237574272
---
header: 
  seq: 9043
  stamp: 
    secs: 1604188491
    nsecs: 269281996
  frame_id: ''
s: 0.393072190169
n: 0.013885328848
alpha: -0.00955836046099
v: 0.196432113296
---
header: 
  seq: 9044
  stamp: 
    secs: 1604188491
    nsecs: 279278025
  frame_id: ''
s: 0.394851332176
n: 0.0138993547745
alpha: -0.00867392701537
v: 0.194108848238
---
header: 
  seq: 9045
  stamp: 
    secs: 1604188491
    nsecs: 289281115
  frame_id: ''
s: 0.397166367903
n: 0.0139176982134
alpha: -0.00805230244781
v: 0.198802591378
---
header: 
  seq: 9046
  stamp: 
    secs: 1604188491
    nsecs: 299286645
  frame_id: ''
s: 0.399003447708
n: 0.0139319117588
alpha: -0.00764763179884
v: 0.196908944322
---
header: 
  seq: 9047
  stamp: 
    secs: 1604188491
    nsecs: 309330079
  frame_id: ''
s: 0.400417553041
n: 0.0139425167915
alpha: -0.0074155974177
v: 0.189944614319
---
header: 
  seq: 9048
  stamp: 
    secs: 1604188491
    nsecs: 319284802
  frame_id: ''
s: 0.401463243111
n: 0.0139500194632
alpha: -0.00731557433772
v: 0.179230670228
---
header: 
  seq: 9049
  stamp: 
    secs: 1604188491
    nsecs: 329287702
  frame_id: ''
s: 0.404091893864
n: 0.0139708549744
alpha: -0.00731188586651
v: 0.189727438102
---
header: 
  seq: 9050
  stamp: 
    secs: 1604188491
    nsecs: 339280484
  frame_id: ''
s: 0.406218025997
n: 0.0139875266016
alpha: -0.00737436837592
v: 0.192600311335
---
header: 
  seq: 9051
  stamp: 
    secs: 1604188491
    nsecs: 349283897
  frame_id: ''
s: 0.407894018212
n: 0.0140004947266
alpha: -0.0074784295186
v: 0.189463407493
---
header: 
  seq: 9052
  stamp: 
    secs: 1604188491
    nsecs: 359285693
  frame_id: ''
s: 0.409173162977
n: 0.0140102207074
alpha: -0.00760475617306
v: 0.181739747665
---
header: 
  seq: 9053
  stamp: 
    secs: 1604188491
    nsecs: 369284296
  frame_id: ''
s: 0.412006643936
n: 0.014033108803
alpha: -0.00773879999024
v: 0.194492301732
---
header: 
  seq: 9054
  stamp: 
    secs: 1604188491
    nsecs: 379279114
  frame_id: ''
s: 0.414309630515
n: 0.0140516429861
alpha: -0.00787014133329
v: 0.198986774766
---
header: 
  seq: 9055
  stamp: 
    secs: 1604188491
    nsecs: 389284376
  frame_id: ''
s: 0.416135786183
n: 0.0140662739242
alpha: -0.00799180785805
v: 0.196932995321
---
header: 
  seq: 9056
  stamp: 
    secs: 1604188491
    nsecs: 399281101
  frame_id: ''
s: 0.417540147037
n: 0.0140774609899
alpha: -0.00809960263614
v: 0.189843442459
---
header: 
  seq: 9057
  stamp: 
    secs: 1604188491
    nsecs: 409287917
  frame_id: ''
s: 0.418577281896
n: 0.0140856575153
alpha: -0.008191478838
v: 0.179034921293
---
header: 
  seq: 9058
  stamp: 
    secs: 1604188491
    nsecs: 419288058
  frame_id: ''
s: 0.419299874287
n: 0.0140912994916
alpha: -0.00826698354466
v: 0.165635323283
---
header: 
  seq: 9059
  stamp: 
    secs: 1604188491
    nsecs: 429284252
  frame_id: ''
s: 0.42070700551
n: 0.0141027747678
alpha: -0.00832678202046
v: 0.162508284965
---
header: 
  seq: 9060
  stamp: 
    secs: 1604188491
    nsecs: 439277481
  frame_id: ''
s: 0.422726446402
n: 0.0141194681362
alpha: -0.00837226541136
v: 0.167458168974
---
header: 
  seq: 9061
  stamp: 
    secs: 1604188491
    nsecs: 449282569
  frame_id: ''
s: 0.424335609309
n: 0.0141327780755
alpha: -0.00840523892828
v: 0.166637883094
---
header: 
  seq: 9062
  stamp: 
    secs: 1604188491
    nsecs: 459279561
  frame_id: ''
s: 0.425580792055
n: 0.0141430852817
alpha: -0.00842768370765
v: 0.161352594739
---
header: 
  seq: 9063
  stamp: 
    secs: 1604188491
    nsecs: 469293256
  frame_id: ''
s: 0.426508154696
n: 0.0141507695915
alpha: -0.00844158329891
v: 0.15274194969
---
header: 
  seq: 9064
  stamp: 
    secs: 1604188491
    nsecs: 479282728
  frame_id: ''
s: 0.427162462801
n: 0.0141561995806
alpha: -0.00844880473305
v: 0.141785072469
---
header: 
  seq: 9065
  stamp: 
    secs: 1604188491
    nsecs: 489283243
  frame_id: ''
s: 0.429484815618
n: 0.0141756797954
alpha: -0.00845102404311
v: 0.153137196808
---
header: 
  seq: 9066
  stamp: 
    secs: 1604188491
    nsecs: 499280296
  frame_id: ''
s: 0.431379368039
n: 0.0141915918868
alpha: -0.00844968665376
v: 0.157695788498
---
header: 
  seq: 9067
  stamp: 
    secs: 1604188491
    nsecs: 509360319
  frame_id: ''
s: 0.432888352744
n: 0.0142042850248
alpha: -0.00844599400236
v: 0.156843425123
---
header: 
  seq: 9068
  stamp: 
    secs: 1604188491
    nsecs: 519286648
  frame_id: ''
s: 0.434055370079
n: 0.0142141205559
alpha: -0.00844090891522
v: 0.151806341245
---
header: 
  seq: 9069
  stamp: 
    secs: 1604188491
    nsecs: 529293571
  frame_id: ''
s: 0.434923868175
n: 0.0142214592203
alpha: -0.00843517350353
v: 0.143654974188
---
header: 
  seq: 9070
  stamp: 
    secs: 1604188491
    nsecs: 539280407
  frame_id: ''
s: 0.437434631784
n: 0.0142426062347
alpha: -0.00842933456423
v: 0.157136998321
---
header: 
  seq: 9071
  stamp: 
    secs: 1604188491
    nsecs: 549281203
  frame_id: ''
s: 0.439492290141
n: 0.0142599505169
alpha: -0.00842377260537
v: 0.163240618565
---
header: 
  seq: 9072
  stamp: 
    secs: 1604188491
    nsecs: 559279127
  frame_id: ''
s: 0.441140150569
n: 0.0142738534314
alpha: -0.00841873162383
v: 0.163435298393
---
header: 
  seq: 9073
  stamp: 
    secs: 1604188491
    nsecs: 569279695
  frame_id: ''
s: 0.442423324992
n: 0.0142846920126
alpha: -0.00841434762399
v: 0.159028737909
---
header: 
  seq: 9074
  stamp: 
    secs: 1604188491
    nsecs: 579284526
  frame_id: ''
s: 0.44433640415
n: 0.0143008224718
alpha: -0.0084106745754
v: 0.163080484655
---
header: 
  seq: 9075
  stamp: 
    secs: 1604188491
    nsecs: 589288705
  frame_id: ''
s: 0.446805189919
n: 0.0143216200938
alpha: -0.00840770707087
v: 0.173597872164
---
header: 
  seq: 9076
  stamp: 
    secs: 1604188491
    nsecs: 599279462
  frame_id: ''
s: 0.448807141819
n: 0.0143384913271
alpha: -0.00840539937566
v: 0.176936609471
---
header: 
  seq: 9077
  stamp: 
    secs: 1604188491
    nsecs: 609282932
  frame_id: ''
s: 0.450390171624
n: 0.0143518382089
alpha: -0.00840368087124
v: 0.174598877926
---
header: 
  seq: 9078
  stamp: 
    secs: 1604188491
    nsecs: 619282403
  frame_id: ''
s: 0.451603226931
n: 0.0143620717219
alpha: -0.00840246811055
v: 0.167911341384
---
header: 
  seq: 9079
  stamp: 
    secs: 1604188491
    nsecs: 629351592
  frame_id: ''
s: 0.454393362615
n: 0.0143855533534
alpha: -0.00840167383547
v: 0.181855417131
---
header: 
  seq: 9080
  stamp: 
    secs: 1604188491
    nsecs: 639293673
  frame_id: ''
s: 0.456671902554
n: 0.0144047314107
alpha: -0.00840121337721
v: 0.187629046942
---
header: 
  seq: 9081
  stamp: 
    secs: 1604188491
    nsecs: 649287450
  frame_id: ''
s: 0.458488992201
n: 0.0144200274181
alpha: -0.0084010088838
v: 0.186886910849
---
header: 
  seq: 9082
  stamp: 
    secs: 1604188491
    nsecs: 659281022
  frame_id: ''
s: 0.459896502495
n: 0.0144318774903
alpha: -0.00840099180817
v: 0.181097688769
---
header: 
  seq: 9083
  stamp: 
    secs: 1604188491
    nsecs: 669281849
  frame_id: ''
s: 0.46284486653
n: 0.0144566719364
alpha: -0.00840110405714
v: 0.19537270034
---
header: 
  seq: 9084
  stamp: 
    secs: 1604188491
    nsecs: 679281835
  frame_id: ''
s: 0.465249045978
n: 0.0144768899519
alpha: -0.00840129815523
v: 0.201026745185
---
header: 
  seq: 9085
  stamp: 
    secs: 1604188491
    nsecs: 689288695
  frame_id: ''
s: 0.467162924524
n: 0.014492984694
alpha: -0.00840153672428
v: 0.199817956527
---
header: 
  seq: 9086
  stamp: 
    secs: 1604188491
    nsecs: 699280847
  frame_id: ''
s: 0.468642085206
n: 0.0145054236086
alpha: -0.0084017915256
v: 0.193305156549
---
header: 
  seq: 9087
  stamp: 
    secs: 1604188491
    nsecs: 709282733
  frame_id: ''
s: 0.469741882637
n: 0.0145146722176
alpha: -0.00840204225979
v: 0.182848675472
---
header: 
  seq: 9088
  stamp: 
    secs: 1604188491
    nsecs: 719281808
  frame_id: ''
s: 0.472414616731
n: 0.0145371365734
alpha: -0.00840227527206
v: 0.193444789137
---
header: 
  seq: 9089
  stamp: 
    secs: 1604188491
    nsecs: 729283230
  frame_id: ''
s: 0.474575806378
n: 0.0145553005477
alpha: -0.00840248227004
v: 0.196291255298
---
header: 
  seq: 9090
  stamp: 
    secs: 1604188491
    nsecs: 739289090
  frame_id: ''
s: 0.476278858361
n: 0.0145696132365
alpha: -0.00840265912653
v: 0.193030875388
---
header: 
  seq: 9091
  stamp: 
    secs: 1604188491
    nsecs: 749290348
  frame_id: ''
s: 0.478527421173
n: 0.0145885088457
alpha: -0.00840280481172
v: 0.19702581872
---
header: 
  seq: 9092
  stamp: 
    secs: 1604188491
    nsecs: 759283196
  frame_id: ''
s: 0.481256695181
n: 0.0146114430938
alpha: -0.00840292047763
v: 0.206552339198
---
header: 
  seq: 9093
  stamp: 
    secs: 1604188491
    nsecs: 769281606
  frame_id: ''
s: 0.483453541307
n: 0.0146299025173
alpha: -0.00840300870134
v: 0.208201354409
---
header: 
  seq: 9094
  stamp: 
    secs: 1604188491
    nsecs: 779282144
  frame_id: ''
s: 0.485175012803
n: 0.0146443667387
alpha: -0.00840307288201
v: 0.203677474502
---
header: 
  seq: 9095
  stamp: 
    secs: 1604188491
    nsecs: 789280425
  frame_id: ''
s: 0.488377408355
n: 0.0146712752246
alpha: -0.0084031167791
v: 0.218306916351
---
header: 
  seq: 9096
  stamp: 
    secs: 1604188491
    nsecs: 799288184
  frame_id: ''
s: 0.49098192309
n: 0.0146931593507
alpha: -0.00840314417476
v: 0.223597024759
---
header: 
  seq: 9097
  stamp: 
    secs: 1604188491
    nsecs: 809290689
  frame_id: ''
s: 0.49304878641
n: 0.0147105253514
alpha: -0.00840315864133
v: 0.221475723505
---
header: 
  seq: 9098
  stamp: 
    secs: 1604188491
    nsecs: 819283869
  frame_id: ''
s: 0.495589170774
n: 0.0147318704701
alpha: -0.00840316339472
v: 0.225563324619
---
header: 
  seq: 9099
  stamp: 
    secs: 1604188491
    nsecs: 829284239
  frame_id: ''
s: 0.498546136179
n: 0.0147567162937
alpha: -0.00840316121524
v: 0.234366041475
---
header: 
  seq: 9100
  stamp: 
    secs: 1604188491
    nsecs: 839282940
  frame_id: ''
s: 0.500914445047
n: 0.0147766155913
alpha: -0.00840315441931
v: 0.23467641774
---
header: 
  seq: 9101
  stamp: 
    secs: 1604188491
    nsecs: 849285593
  frame_id: ''
s: 0.502758864336
n: 0.0147921126544
alpha: -0.00840314486779
v: 0.228373029651
---
header: 
  seq: 9102
  stamp: 
    secs: 1604188491
    nsecs: 859288300
  frame_id: ''
s: 0.504144378533
n: 0.0148037535898
alpha: -0.00840313399883
v: 0.217101430463
---
header: 
  seq: 9103
  stamp: 
    secs: 1604188491
    nsecs: 869282963
  frame_id: ''
s: 0.507032995708
n: 0.0148280256955
alpha: -0.00840312287545
v: 0.226108307306
---
header: 
  seq: 9104
  stamp: 
    secs: 1604188491
    nsecs: 879284508
  frame_id: ''
s: 0.50934973305
n: 0.0148474923365
alpha: -0.00840311224058
v: 0.226807769996
---
header: 
  seq: 9105
  stamp: 
    secs: 1604188491
    nsecs: 889285522
  frame_id: ''
s: 0.511157067526
n: 0.0148626785227
alpha: -0.00840310257371
v: 0.221026447952
---
header: 
  seq: 9106
  stamp: 
    secs: 1604188491
    nsecs: 899306746
  frame_id: ''
s: 0.512517798518
n: 0.0148741119681
alpha: -0.00840309414546
v: 0.210365783015
---
header: 
  seq: 9107
  stamp: 
    secs: 1604188491
    nsecs: 909289675
  frame_id: ''
s: 0.515391891508
n: 0.0148982627817
alpha: -0.00840308706727
v: 0.220035675266
---
header: 
  seq: 9108
  stamp: 
    secs: 1604188491
    nsecs: 919286443
  frame_id: ''
s: 0.517702488908
n: 0.0149176785558
alpha: -0.00840308133504
v: 0.221420170099
---
header: 
  seq: 9109
  stamp: 
    secs: 1604188491
    nsecs: 929286890
  frame_id: ''
s: 0.519510375708
n: 0.0149328700684
alpha: -0.00840307686576
v: 0.21632189964
---
header: 
  seq: 9110
  stamp: 
    secs: 1604188491
    nsecs: 939279891
  frame_id: ''
s: 0.521826182042
n: 0.0149523299018
alpha: -0.00840307352735
v: 0.218237828961
---
header: 
  seq: 9111
  stamp: 
    secs: 1604188491
    nsecs: 949283453
  frame_id: ''
s: 0.524591586773
n: 0.0149755679519
alpha: -0.00840307116204
v: 0.225555776976
---
header: 
  seq: 9112
  stamp: 
    secs: 1604188491
    nsecs: 959291621
  frame_id: ''
s: 0.526799357312
n: 0.0149941201556
alpha: -0.00840306960383
v: 0.224957046665
---
header: 
  seq: 9113
  stamp: 
    secs: 1604188491
    nsecs: 969291640
  frame_id: ''
s: 0.52851184378
n: 0.0150085104426
alpha: -0.00840306869099
v: 0.218217639923
---
header: 
  seq: 9114
  stamp: 
    secs: 1604188491
    nsecs: 979283935
  frame_id: ''
s: 0.529814571443
n: 0.0157351584375
alpha: 0.0308177682453
v: 0.207451509624
---
header: 
  seq: 9115
  stamp: 
    secs: 1604188491
    nsecs: 989285578
  frame_id: ''
s: 0.532609435212
n: 0.0166188536983
alpha: 0.0235196329256
v: 0.21721545959
---
header: 
  seq: 9116
  stamp: 
    secs: 1604188491
    nsecs: 999283765
  frame_id: ''
s: 0.534861762433
n: 0.0164326229472
alpha: 0.0166214846208
v: 0.217932759551
---
header: 
  seq: 9117
  stamp: 
    secs: 1604188492
    nsecs:   9284270
  frame_id: ''
s: 0.536622329129
n: 0.0162496231912
alpha: 0.0104081284375
v: 0.212492328482
---
header: 
  seq: 9118
  stamp: 
    secs: 1604188492
    nsecs:  19290466
  frame_id: ''
s: 0.537951318356
n: 0.016074240016
alpha: 0.00503374698745
v: 0.202386417729
---
header: 
  seq: 9119
  stamp: 
    secs: 1604188492
    nsecs:  29289884
  frame_id: ''
s: 0.540798264128
n: 0.0168749603634
alpha: 0.000553912493682
v: 0.213248674445
---
header: 
  seq: 9120
  stamp: 
    secs: 1604188492
    nsecs:  39283508
  frame_id: ''
s: 0.543100998786
n: 0.0166190538457
alpha: -0.00304662279983
v: 0.215112714818
---
header: 
  seq: 9121
  stamp: 
    secs: 1604188492
    nsecs:  49286380
  frame_id: ''
s: 0.544909264697
n: 0.0163786651903
alpha: -0.00583068203434
v: 0.210659350581
---
header: 
  seq: 9122
  stamp: 
    secs: 1604188492
    nsecs:  59282349
  frame_id: ''
s: 0.546282516494
n: 0.0161570499968
alpha: -0.00788991603733
v: 0.201382159742
---
header: 
  seq: 9123
  stamp: 
    secs: 1604188492
    nsecs:  69285672
  frame_id: ''
s: 0.548228461632
n: 0.0159641943203
alpha: -0.009330251122
v: 0.200506700915
---
header: 
  seq: 9124
  stamp: 
    secs: 1604188492
    nsecs:  79292635
  frame_id: ''
s: 0.550684699353
n: 0.0158000866142
alpha: -0.0102610761001
v: 0.206174498034
---
header: 
  seq: 9125
  stamp: 
    secs: 1604188492
    nsecs:  89292022
  frame_id: ''
s: 0.55263913137
n: 0.0156559386532
alpha: -0.0107876333686
v: 0.204847595078
---
header: 
  seq: 9126
  stamp: 
    secs: 1604188492
    nsecs:  99284950
  frame_id: ''
s: 0.554148766426
n: 0.0155313349126
alpha: -0.0110060568259
v: 0.19811169184
---
header: 
  seq: 9127
  stamp: 
    secs: 1604188492
    nsecs: 109281909
  frame_id: ''
s: 0.555270349102
n: 0.0154254071483
alpha: -0.0110005174415
v: 0.187353652462
---
header: 
  seq: 9128
  stamp: 
    secs: 1604188492
    nsecs: 119279870
  frame_id: ''
s: 0.557008169355
n: 0.0153449367222
alpha: -0.0108419817898
v: 0.185670470056
---
header: 
  seq: 9129
  stamp: 
    secs: 1604188492
    nsecs: 129284681
  frame_id: ''
s: 0.559295954
n: 0.0152875116584
alpha: -0.0105881487899
v: 0.191089109224
---
header: 
  seq: 9130
  stamp: 
    secs: 1604188492
    nsecs: 139292197
  frame_id: ''
s: 0.561117486499
n: 0.0152426357822
alpha: -0.0102841968209
v: 0.189974437505
---
header: 
  seq: 9131
  stamp: 
    secs: 1604188492
    nsecs: 149288106
  frame_id: ''
s: 0.562525580992
n: 0.0152087718421
alpha: -0.0099640411146
v: 0.183809398973
---
header: 
  seq: 9132
  stamp: 
    secs: 1604188492
    nsecs: 159280335
  frame_id: ''
s: 0.563572845056
n: 0.0151844170994
alpha: -0.00965186557933
v: 0.173888245674
---
header: 
  seq: 9133
  stamp: 
    secs: 1604188492
    nsecs: 169282320
  frame_id: ''
s: 0.56525959182
n: 0.0151761150718
alpha: -0.00936375124029
v: 0.173229389295
---
header: 
  seq: 9134
  stamp: 
    secs: 1604188492
    nsecs: 179279502
  frame_id: ''
s: 0.56751580676
n: 0.0151815310765
alpha: -0.00910927381095
v: 0.179795529366
---
header: 
  seq: 9135
  stamp: 
    secs: 1604188492
    nsecs: 189284159
  frame_id: ''
s: 0.569321819492
n: 0.0151904891808
alpha: -0.00889298495489
v: 0.179890435734
---
header: 
  seq: 9136
  stamp: 
    secs: 1604188492
    nsecs: 199282472
  frame_id: ''
s: 0.570727310241
n: 0.0152019524037
alpha: -0.00871572567534
v: 0.17494867221
---
header: 
  seq: 9137
  stamp: 
    secs: 1604188492
    nsecs: 209280727
  frame_id: ''
s: 0.572731422264
n: 0.0152230218505
alpha: -0.00857574653269
v: 0.178138557246
---
header: 
  seq: 9138
  stamp: 
    secs: 1604188492
    nsecs: 219280704
  frame_id: ''
s: 0.575264370707
n: 0.015251976298
alpha: -0.00846962887814
v: 0.187565619614
---
header: 
  seq: 9139
  stamp: 
    secs: 1604188492
    nsecs: 229280419
  frame_id: ''
s: 0.577307796981
n: 0.0152792796202
alpha: -0.00839301497928
v: 0.189668563679
---
header: 
  seq: 9140
  stamp: 
    secs: 1604188492
    nsecs: 239286253
  frame_id: ''
s: 0.578913498166
n: 0.0153045372922
alpha: -0.00834116381431
v: 0.186015616809
---
header: 
  seq: 9141
  stamp: 
    secs: 1604188492
    nsecs: 249291858
  frame_id: ''
s: 0.58013396813
n: 0.0153274995133
alpha: -0.0083093544067
v: 0.177987399946
---
header: 
  seq: 9142
  stamp: 
    secs: 1604188492
    nsecs: 259279091
  frame_id: ''
s: 0.581970112066
n: 0.015356013517
alpha: -0.0082931607562
v: 0.178693738419
---
header: 
  seq: 9143
  stamp: 
    secs: 1604188492
    nsecs: 269280010
  frame_id: ''
s: 0.584345062426
n: 0.0163383848313
alpha: -0.00828862248496
v: 0.186496486794
---
header: 
  seq: 9144
  stamp: 
    secs: 1604188492
    nsecs: 279280980
  frame_id: ''
s: 0.58625760522
n: 0.0162487371671
alpha: -0.00829233392331
v: 0.18698332985
---
header: 
  seq: 9145
  stamp: 
    secs: 1604188492
    nsecs: 289280872
  frame_id: ''
s: 0.587750185705
n: 0.0161579990818
alpha: -0.00830147205159
v: 0.182175245553
---
header: 
  seq: 9146
  stamp: 
    secs: 1604188492
    nsecs: 299285113
  frame_id: ''
s: 0.588874505146
n: 0.0160689434527
alpha: -0.00831378091774
v: 0.173373236412
---
header: 
  seq: 9147
  stamp: 
    secs: 1604188492
    nsecs: 309288780
  frame_id: ''
s: 0.591571734852
n: 0.0169489683957
alpha: -0.00832752718631
v: 0.186061657729
---
header: 
  seq: 9148
  stamp: 
    secs: 1604188492
    nsecs: 319282899
  frame_id: ''
s: 0.593763692793
n: 0.0177140258849
alpha: -0.00834143857215
v: 0.191072345762
---
header: 
  seq: 9149
  stamp: 
    secs: 1604188492
    nsecs: 329284264
  frame_id: ''
s: 0.595509511212
n: 0.0174189951363
alpha: -0.00835463422445
v: 0.188491456045
---
header: 
  seq: 9150
  stamp: 
    secs: 1604188492
    nsecs: 339305255
  frame_id: ''
s: 0.596844692359
n: 0.0180872145694
alpha: -0.00836655374756
v: 0.182401295341
---
header: 
  seq: 9151
  stamp: 
    secs: 1604188492
    nsecs: 349283473
  frame_id: ''
s: 0.597830231224
n: 0.0186557915114
alpha: -0.00837688951698
v: 0.172769449488
---
header: 
  seq: 9152
  stamp: 
    secs: 1604188492
    nsecs: 359287813
  frame_id: ''
s: 0.60041500941
n: 0.0191469674807
alpha: -0.00838552528365
v: 0.184094432484
---
header: 
  seq: 9153
  stamp: 
    secs: 1604188492
    nsecs: 369288852
  frame_id: ''
s: 0.602511153595
n: 0.0195502921844
alpha: -0.0083924827408
v: 0.187771709989
---
header: 
  seq: 9154
  stamp: 
    secs: 1604188492
    nsecs: 379281676
  frame_id: ''
s: 0.604168793256
n: 0.0198740404454
alpha: -0.0083978767254
v: 0.185396885233
---
header: 
  seq: 9155
  stamp: 
    secs: 1604188492
    nsecs: 389282213
  frame_id: ''
s: 0.606388480344
n: 0.0201348449708
alpha: -0.00840187899972
v: 0.190143844924
---
header: 
  seq: 9156
  stamp: 
    secs: 1604188492
    nsecs: 399277362
  frame_id: ''
s: 0.609110523147
n: 0.0193910879087
alpha: -0.00840469006465
v: 0.199027054053
---
header: 
  seq: 9157
  stamp: 
    secs: 1604188492
    nsecs: 409289048
  frame_id: ''
s: 0.611310197883
n: 0.0187099727386
alpha: -0.00840651815084
v: 0.20109030908
---
header: 
  seq: 9158
  stamp: 
    secs: 1604188492
    nsecs: 419288248
  frame_id: ''
s: 0.613034265844
n: 0.0190459073955
alpha: -0.00840756437539
v: 0.197651985795
---
header: 
  seq: 9159
  stamp: 
    secs: 1604188492
    nsecs: 429289273
  frame_id: ''
s: 0.616245981258
n: 0.0193492653991
alpha: -0.00840801300381
v: 0.213302774134
---
header: 
  seq: 9160
  stamp: 
    secs: 1604188492
    nsecs: 439282808
  frame_id: ''
s: 0.618864785209
n: 0.0196048732321
alpha: -0.00840802578727
v: 0.219535354509
---
header: 
  seq: 9161
  stamp: 
    secs: 1604188492
    nsecs: 449305876
  frame_id: ''
s: 0.620949404266
n: 0.0198162137612
alpha: -0.00840773942714
v: 0.218265033432
---
header: 
  seq: 9162
  stamp: 
    secs: 1604188492
    nsecs: 459282321
  frame_id: ''
s: 0.622568389494
n: 0.0190378970553
alpha: -0.00840726533152
v: 0.210758132029
---
header: 
  seq: 9163
  stamp: 
    secs: 1604188492
    nsecs: 469285738
  frame_id: ''
s: 0.625663779233
n: 0.019307042988
alpha: -0.00840669095541
v: 0.223222254957
---
header: 
  seq: 9164
  stamp: 
    secs: 1604188492
    nsecs: 479285715
  frame_id: ''
s: 0.628167733579
n: 0.0195392214209
alpha: -0.00840608214529
v: 0.226712282477
---
header: 
  seq: 9165
  stamp: 
    secs: 1604188492
    nsecs: 489286675
  frame_id: ''
s: 0.630149831573
n: 0.0187868390657
alpha: -0.00840548603142
v: 0.223002879191
---
header: 
  seq: 9166
  stamp: 
    secs: 1604188492
    nsecs: 499281207
  frame_id: ''
s: 0.633554479054
n: 0.019085159953
alpha: -0.0084049341231
v: 0.237744905382
---
header: 
  seq: 9167
  stamp: 
    secs: 1604188492
    nsecs: 509285793
  frame_id: ''
s: 0.636317179431
n: 0.019348220145
alpha: -0.00840444535821
v: 0.242625141067
---
header: 
  seq: 9168
  stamp: 
    secs: 1604188492
    nsecs: 519284246
  frame_id: ''
s: 0.638503543279
n: 0.0195765191671
alpha: -0.00840402893996
v: 0.239679519633
---
header: 
  seq: 9169
  stamp: 
    secs: 1604188492
    nsecs: 529323583
  frame_id: ''
s: 0.640180673896
n: 0.0197714149757
alpha: -0.00840368685885
v: 0.230719843971
---
header: 
  seq: 9170
  stamp: 
    secs: 1604188492
    nsecs: 539282676
  frame_id: ''
s: 0.643313630888
n: 0.019950850329
alpha: -0.00840341604893
v: 0.241141279931
---
header: 
  seq: 9171
  stamp: 
    secs: 1604188492
    nsecs: 549294716
  frame_id: ''
s: 0.64583112332
n: 0.0200993040442
alpha: -0.00840321016526
v: 0.242523190331
---
header: 
  seq: 9172
  stamp: 
    secs: 1604188492
    nsecs: 559283487
  frame_id: ''
s: 0.649698381834
n: 0.0202354759423
alpha: -0.00840306099603
v: 0.260648643889
---
header: 
  seq: 9173
  stamp: 
    secs: 1604188492
    nsecs: 569285883
  frame_id: ''
s: 0.652847206396
n: 0.0203443450155
alpha: -0.00840295954064
v: 0.267477403795
---
header: 
  seq: 9174
  stamp: 
    secs: 1604188492
    nsecs: 579291086
  frame_id: ''
s: 0.655349436614
n: 0.0204289425012
alpha: -0.00840289679464
v: 0.265329283479
---
header: 
  seq: 9175
  stamp: 
    secs: 1604188492
    nsecs: 589288530
  frame_id: ''
s: 0.657286957452
n: 0.0195429695514
alpha: -0.00840286428743
v: 0.256166307287
---
header: 
  seq: 9176
  stamp: 
    secs: 1604188492
    nsecs: 599286365
  frame_id: ''
s: 0.660614941066
n: 0.0197223068056
alpha: -0.0084028544185
v: 0.265778528516
---
header: 
  seq: 9177
  stamp: 
    secs: 1604188492
    nsecs: 609287989
  frame_id: ''
s: 0.663278159464
n: 0.01988106254
alpha: -0.0084028606358
v: 0.265858455747
---
header: 
  seq: 9178
  stamp: 
    secs: 1604188492
    nsecs: 619279692
  frame_id: ''
s: 0.665358045947
n: 0.0190700497043
alpha: -0.00840287749545
v: 0.258706570148
---
header: 
  seq: 9179
  stamp: 
    secs: 1604188492
    nsecs: 629280003
  frame_id: ''
s: 0.666919251522
n: 0.018357591841
alpha: -0.00840290063648
v: 0.246238357475
---
header: 
  seq: 9180
  stamp: 
    secs: 1604188492
    nsecs: 639287006
  frame_id: ''
s: 0.669924190807
n: 0.0187069451206
alpha: -0.00840292669916
v: 0.252777810205
---
header: 
  seq: 9181
  stamp: 
    secs: 1604188492
    nsecs: 649284758
  frame_id: ''
s: 0.672314806783
n: 0.0190282539031
alpha: -0.00840295320932
v: 0.25093681874
---
header: 
  seq: 9182
  stamp: 
    secs: 1604188492
    nsecs: 659278484
  frame_id: ''
s: 0.674168925665
n: 0.0183694562449
alpha: -0.00840297844649
v: 0.242978601536
---
header: 
  seq: 9183
  stamp: 
    secs: 1604188492
    nsecs: 669281097
  frame_id: ''
s: 0.67648844266
n: 0.0187542388497
alpha: -0.00840300130864
v: 0.241401888268
---
header: 
  seq: 9184
  stamp: 
    secs: 1604188492
    nsecs: 679280555
  frame_id: ''
s: 0.679231358942
n: 0.019110763276
alpha: -0.00840302118283
v: 0.245471677044
---
header: 
  seq: 9185
  stamp: 
    secs: 1604188492
    nsecs: 689283816
  frame_id: ''
s: 0.681396891258
n: 0.0194283899496
alpha: -0.00840303782743
v: 0.241868385808
---
header: 
  seq: 9186
  stamp: 
    secs: 1604188492
    nsecs: 699283847
  frame_id: ''
s: 0.683052956636
n: 0.0197069048691
alpha: -0.00840305126944
v: 0.23236898849
---
header: 
  seq: 9187
  stamp: 
    secs: 1604188492
    nsecs: 709283731
  frame_id: ''
s: 0.686165254098
n: 0.0199631873702
alpha: -0.00840306171811
v: 0.24235049415
---
header: 
  seq: 9188
  stamp: 
    secs: 1604188492
    nsecs: 719282146
  frame_id: ''
s: 0.688662978713
n: 0.0201810780296
alpha: -0.00840306949505
v: 0.243366888768
---
header: 
  seq: 9189
  stamp: 
    secs: 1604188492
    nsecs: 729288353
  frame_id: ''
s: 0.690613047536
n: 0.0203630319138
alpha: -0.0084030749796
v: 0.237377282747
---
header: 
  seq: 9190
  stamp: 
    secs: 1604188492
    nsecs: 739292947
  frame_id: ''
s: 0.692082780148
n: 0.0205119607307
alpha: -0.00840307856801
v: 0.226103173986
---
header: 
  seq: 9191
  stamp: 
    secs: 1604188492
    nsecs: 749288025
  frame_id: ''
s: 0.695036598472
n: 0.0206470051577
alpha: -0.00840308064454
v: 0.234835225568
---
header: 
  seq: 9192
  stamp: 
    secs: 1604188492
    nsecs: 759285518
  frame_id: ''
s: 0.697401927491
n: 0.0207535317664
alpha: -0.00840308156232
v: 0.235077760024
---
header: 
  seq: 9193
  stamp: 
    secs: 1604188492
    nsecs: 769281992
  frame_id: ''
s: 0.699243580103
n: 0.0208349071273
alpha: -0.00840308163213
v: 0.228710535921
---
header: 
  seq: 9194
  stamp: 
    secs: 1604188492
    nsecs: 779281539
  frame_id: ''
s: 0.701575903941
n: 0.0209024286028
alpha: -0.00840308111725
v: 0.229284455333
---
header: 
  seq: 9195
  stamp: 
    secs: 1604188492
    nsecs: 789282962
  frame_id: ''
s: 0.704343950268
n: 0.020958292972
alpha: -0.00840308023278
v: 0.235244002543
---
header: 
  seq: 9196
  stamp: 
    secs: 1604188492
    nsecs: 799313169
  frame_id: ''
s: 0.706543496434
n: 0.0209965564247
alpha: -0.00840307914797
v: 0.233321126331
---
header: 
  seq: 9197
  stamp: 
    secs: 1604188492
    nsecs: 809284363
  frame_id: ''
s: 0.708231559139
n: 0.0219693966173
alpha: -0.00840307799063
v: 0.225985708962
---
header: 
  seq: 9198
  stamp: 
    secs: 1604188492
    nsecs: 819283160
  frame_id: ''
s: 0.709481702814
n: 0.0228117974681
alpha: -0.00840307685258
v: 0.214400292374
---
header: 
  seq: 9199
  stamp: 
    secs: 1604188492
    nsecs: 829282751
  frame_id: ''
s: 0.711313691283
n: 0.0225878969818
alpha: -0.00840307579555
v: 0.209989362052
---
header: 
  seq: 9200
  stamp: 
    secs: 1604188492
    nsecs: 839283121
  frame_id: ''
s: 0.713659291804
n: 0.022372098359
alpha: -0.00840307485695
v: 0.212703760334
---
header: 
  seq: 9201
  stamp: 
    secs: 1604188492
    nsecs: 849284075
  frame_id: ''
s: 0.715500776425
n: 0.0231109764555
alpha: -0.00840307405535
v: 0.209905264546
---
header: 
  seq: 9202
  stamp: 
    secs: 1604188492
    nsecs: 859288249
  frame_id: ''
s: 0.716913771086
n: 0.022792239928
alpha: -0.00840307339529
v: 0.200817150641
---
header: 
  seq: 9203
  stamp: 
    secs: 1604188492
    nsecs: 869289012
  frame_id: ''
s: 0.71983780452
n: 0.0234552936204
alpha: -0.00840307287146
v: 0.212942405821
---
header: 
  seq: 9204
  stamp: 
    secs: 1604188492
    nsecs: 879282075
  frame_id: ''
s: 0.722202119016
n: 0.0240193160911
alpha: -0.0084030724721
v: 0.216515270991
---
header: 
  seq: 9205
  stamp: 
    secs: 1604188492
    nsecs: 889284892
  frame_id: ''
s: 0.724073139702
n: 0.0235412516656
alpha: -0.00840307218174
v: 0.212071039069
---
header: 
  seq: 9206
  stamp: 
    secs: 1604188492
    nsecs: 899281243
  frame_id: ''
s: 0.725501333602
n: 0.0230962095562
alpha: -0.0084030719833
v: 0.202971654407
---
header: 
  seq: 9207
  stamp: 
    secs: 1604188492
    nsecs: 909298069
  frame_id: ''
s: 0.727494612108
n: 0.0226972403875
alpha: -0.00840307185961
v: 0.202334056455
---
header: 
  seq: 9208
  stamp: 
    secs: 1604188492
    nsecs: 919285071
  frame_id: ''
s: 0.72999094527
n: 0.0223462333037
alpha: -0.00840307179447
v: 0.20824327917
---
header: 
  seq: 9209
  stamp: 
    secs: 1604188492
    nsecs: 929286114
  frame_id: ''
s: 0.731978725064
n: 0.0220353425307
alpha: -0.0084030717733
v: 0.207110886768
---
header: 
  seq: 9210
  stamp: 
    secs: 1604188492
    nsecs: 939282378
  frame_id: ''
s: 0.733515529729
n: 0.021764323418
alpha: -0.00840307178347
v: 0.200502448767
---
header: 
  seq: 9211
  stamp: 
    secs: 1604188492
    nsecs: 949281446
  frame_id: ''
s: 0.734658719082
n: 0.0215318737196
alpha: -0.00840307181451
v: 0.189802937164
---
header: 
  seq: 9212
  stamp: 
    secs: 1604188492
    nsecs: 959287437
  frame_id: ''
s: 0.7373625501
n: 0.0213518599476
alpha: -0.00840307185799
v: 0.199987063803
---
header: 
  seq: 9213
  stamp: 
    secs: 1604188492
    nsecs: 969285006
  frame_id: ''
s: 0.739544406711
n: 0.0212036969945
alpha: -0.00840307190738
v: 0.202331544193
---
header: 
  seq: 9214
  stamp: 
    secs: 1604188492
    nsecs: 979281356
  frame_id: ''
s: 0.741259437151
n: 0.0210844387834
alpha: -0.00840307195788
v: 0.198512799729
---
header: 
  seq: 9215
  stamp: 
    secs: 1604188492
    nsecs: 989281405
  frame_id: ''
s: 0.742563553315
n: 0.020990987825
alpha: -0.00840307200614
v: 0.190006778865
---
header: 
  seq: 9216
  stamp: 
    secs: 1604188492
    nsecs: 999283012
  frame_id: ''
s: 0.744461035105
n: 0.0209281927547
alpha: -0.00840307204999
v: 0.189980774665
---
header: 
  seq: 9217
  stamp: 
    secs: 1604188493
    nsecs:   9280355
  frame_id: ''
s: 0.745936906023
n: 0.0208840158908
alpha: -0.00840307208819
v: 0.184663579341
---
header: 
  seq: 9218
  stamp: 
    secs: 1604188493
    nsecs:  19289872
  frame_id: ''
s: 0.747993033053
n: 0.0208635292887
alpha: -0.00840307212027
v: 0.187273707611
---
header: 
  seq: 9219
  stamp: 
    secs: 1604188493
    nsecs:  29283725
  frame_id: ''
s: 0.749612928604
n: 0.0208550632981
alpha: -0.00840307214624
v: 0.184085396775
---
header: 
  seq: 9220
  stamp: 
    secs: 1604188493
    nsecs:  39282293
  frame_id: ''
s: 0.75084835876
n: 0.0208561827122
alpha: -0.00840307216647
v: 0.176474522599
---
header: 
  seq: 9221
  stamp: 
    secs: 1604188493
    nsecs:  49281983
  frame_id: ''
s: 0.75269964131
n: 0.0208727036754
alpha: -0.00840307218158
v: 0.177538910798
---
header: 
  seq: 9222
  stamp: 
    secs: 1604188493
    nsecs:  59284694
  frame_id: ''
s: 0.755097424365
n: 0.0209017439342
alpha: -0.00840307219228
v: 0.185327199271
---
header: 
  seq: 9223
  stamp: 
    secs: 1604188493
    nsecs:  69289618
  frame_id: ''
s: 0.757023193459
n: 0.0209327351016
alpha: -0.00840307219932
v: 0.18622241043
---
header: 
  seq: 9224
  stamp: 
    secs: 1604188493
    nsecs:  79287366
  frame_id: ''
s: 0.758528136156
n: 0.0209643793324
alpha: -0.00840307220344
v: 0.181728871491
---
header: 
  seq: 9225
  stamp: 
    secs: 1604188493
    nsecs:  89282810
  frame_id: ''
s: 0.75966380098
n: 0.0209956489856
alpha: -0.00840307220531
v: 0.173168136467
---
header: 
  seq: 9226
  stamp: 
    secs: 1604188493
    nsecs:  99281715
  frame_id: ''
s: 0.760472602079
n: 0.0219750885974
alpha: -0.00840307220553
v: 0.161916079469
---
header: 
  seq: 9227
  stamp: 
    secs: 1604188493
    nsecs: 109282663
  frame_id: ''
s: 0.762918241864
n: 0.0219010988981
alpha: -0.00840307220461
v: 0.172188018653
---
header: 
  seq: 9228
  stamp: 
    secs: 1604188493
    nsecs: 119284290
  frame_id: ''
s: 0.764901395408
n: 0.021826087904
alpha: -0.00840307220296
v: 0.175406188208
---
header: 
  seq: 9229
  stamp: 
    secs: 1604188493
    nsecs: 129290577
  frame_id: ''
s: 0.766461555076
n: 0.0227017078853
alpha: -0.00840307220091
v: 0.173657792749
---
header: 
  seq: 9230
  stamp: 
    secs: 1604188493
    nsecs: 139289266
  frame_id: ''
s: 0.767664165012
n: 0.0225127530387
alpha: -0.00840307219871
v: 0.16670687824
---
header: 
  seq: 9231
  stamp: 
    secs: 1604188493
    nsecs: 149287607
  frame_id: ''
s: 0.769497500545
n: 0.0223392446662
alpha: -0.00840307219654
v: 0.168619801363
---
header: 
  seq: 9232
  stamp: 
    secs: 1604188493
    nsecs: 159287253
  frame_id: ''
s: 0.771889405069
n: 0.0221835901777
alpha: -0.00840307219452
v: 0.177375914658
---
header: 
  seq: 9233
  stamp: 
    secs: 1604188493
    nsecs: 169284303
  frame_id: ''
s: 0.773818846112
n: 0.0220391865661
alpha: -0.00840307219272
v: 0.179282047823
---
header: 
  seq: 9234
  stamp: 
    secs: 1604188493
    nsecs: 179286770
  frame_id: ''
s: 0.775334786451
n: 0.0219075607871
alpha: -0.00840307219117
v: 0.1757893998
---
header: 
  seq: 9235
  stamp: 
    secs: 1604188493
    nsecs: 189291530
  frame_id: ''
s: 0.776486839932
n: 0.0217895441089
alpha: -0.0084030721899
v: 0.168186178605
---
header: 
  seq: 9236
  stamp: 
    secs: 1604188493
    nsecs: 199280923
  frame_id: ''
s: 0.778265098974
n: 0.0226427143961
alpha: -0.00840307218889
v: 0.169693146727
---
header: 
  seq: 9237
  stamp: 
    secs: 1604188493
    nsecs: 209334617
  frame_id: ''
s: 0.780606923815
n: 0.0233982583298
alpha: -0.00840307218811
v: 0.178463980918
---
header: 
  seq: 9238
  stamp: 
    secs: 1604188493
    nsecs: 219281657
  frame_id: ''
s: 0.78249954571
n: 0.0231004904118
alpha: -0.00840307218755
v: 0.179416797412
---
header: 
  seq: 9239
  stamp: 
    secs: 1604188493
    nsecs: 229281699
  frame_id: ''
s: 0.784932364412
n: 0.0228299636414
alpha: -0.00840307218716
v: 0.187208494439
---
header: 
  seq: 9240
  stamp: 
    secs: 1604188493
    nsecs: 239287845
  frame_id: ''
s: 0.787836622577
n: 0.0225891700314
alpha: -0.00840307218692
v: 0.200065190922
---
header: 
  seq: 9241
  stamp: 
    secs: 1604188493
    nsecs: 249289755
  frame_id: ''
s: 0.790196361504
n: 0.0223712410807
alpha: -0.00840307218678
v: 0.204546749442
---
header: 
  seq: 9242
  stamp: 
    secs: 1604188493
    nsecs: 259280755
  frame_id: ''
s: 0.792058801125
n: 0.0231265067196
alpha: -0.00840307218674
v: 0.202480765299
---
header: 
  seq: 9243
  stamp: 
    secs: 1604188493
    nsecs: 269281828
  frame_id: ''
s: 0.794438823997
n: 0.0237954142638
alpha: -0.00840307218675
v: 0.207422129015
---
header: 
  seq: 9244
  stamp: 
    secs: 1604188493
    nsecs: 279281398
  frame_id: ''
s: 0.797282148036
n: 0.0234301677671
alpha: -0.00840307218681
v: 0.21671239665
---
header: 
  seq: 9245
  stamp: 
    secs: 1604188493
    nsecs: 289279747
  frame_id: ''
s: 0.799569346098
n: 0.0230939908486
alpha: -0.00840307218689
v: 0.218060980202
---
header: 
  seq: 9246
  stamp: 
    secs: 1604188493
    nsecs: 299283791
  frame_id: ''
s: 0.802309551379
n: 0.0227977764455
alpha: -0.00840307218699
v: 0.225040398518
---
header: 
  seq: 9247
  stamp: 
    secs: 1604188493
    nsecs: 309289322
  frame_id: ''
s: 0.805444809892
n: 0.0225419059233
alpha: -0.00840307218708
v: 0.236162469038
---
header: 
  seq: 9248
  stamp: 
    secs: 1604188493
    nsecs: 319283727
  frame_id: ''
s: 0.807969695792
n: 0.0223175732599
alpha: -0.00840307218717
v: 0.238255843962
---
header: 
  seq: 9249
  stamp: 
    secs: 1604188493
    nsecs: 329281097
  frame_id: ''
s: 0.810898768599
n: 0.0221320036957
alpha: -0.00840307218726
v: 0.245161987439
---
header: 
  seq: 9250
  stamp: 
    secs: 1604188493
    nsecs: 339284832
  frame_id: ''
s: 0.814179656299
n: 0.0219827594132
alpha: -0.00840307218733
v: 0.255606587641
---
header: 
  seq: 9251
  stamp: 
    secs: 1604188493
    nsecs: 349287091
  frame_id: ''
s: 0.816812480409
n: 0.02185895378
alpha: -0.00840307218739
v: 0.256602836785
---
header: 
  seq: 9252
  stamp: 
    secs: 1604188493
    nsecs: 359285121
  frame_id: ''
s: 0.818867832818
n: 0.0217583863895
alpha: -0.00840307218744
v: 0.25022213408
---
header: 
  seq: 9253
  stamp: 
    secs: 1604188493
    nsecs: 369313894
  frame_id: ''
s: 0.82042470032
n: 0.0207293643836
alpha: -0.00840307218748
v: 0.239110127676
---
header: 
  seq: 9254
  stamp: 
    secs: 1604188493
    nsecs: 379287335
  frame_id: ''
s: 0.823434154043
n: 0.0208023985396
alpha: -0.00840307218751
v: 0.24668662998
---
header: 
  seq: 9255
  stamp: 
    secs: 1604188493
    nsecs: 389281556
  frame_id: ''
s: 0.825836043796
n: 0.0208863958104
alpha: -0.00840307218753
v: 0.245746145506
---
header: 
  seq: 9256
  stamp: 
    secs: 1604188493
    nsecs: 399280815
  frame_id: ''
s: 0.827698401768
n: 0.0209765773258
alpha: -0.00840307218755
v: 0.238189364598
---
header: 
  seq: 9257
  stamp: 
    secs: 1604188493
    nsecs: 409279454
  frame_id: ''
s: 0.830987855009
n: 0.0210850087515
alpha: -0.00840307218756
v: 0.249493396806
---
header: 
  seq: 9258
  stamp: 
    secs: 1604188493
    nsecs: 419288031
  frame_id: ''
s: 0.833635132972
n: 0.0211906577304
alpha: -0.00840307218756
v: 0.251354896322
---
header: 
  seq: 9259
  stamp: 
    secs: 1604188493
    nsecs: 429302303
  frame_id: ''
s: 0.835709115902
n: 0.0212911961998
alpha: -0.00840307218756
v: 0.245808938414
---
header: 
  seq: 9260
  stamp: 
    secs: 1604188493
    nsecs: 439280291
  frame_id: ''
s: 0.8382286987
n: 0.0213929334858
alpha: -0.00840307218756
v: 0.246562889705
---
header: 
  seq: 9261
  stamp: 
    secs: 1604188493
    nsecs: 449279844
  frame_id: ''
s: 0.841143726342
n: 0.0214937670122
alpha: -0.00840307218755
v: 0.252195330838
---
header: 
  seq: 9262
  stamp: 
    secs: 1604188493
    nsecs: 459277573
  frame_id: ''
s: 0.84345482788
n: 0.021584109153
alpha: -0.00840307218755
v: 0.249549382281
---
header: 
  seq: 9263
  stamp: 
    secs: 1604188493
    nsecs: 469282598
  frame_id: ''
s: 0.845231759023
n: 0.02166377187
alpha: -0.00840307218755
v: 0.240535991272
---
header: 
  seq: 9264
  stamp: 
    secs: 1604188493
    nsecs: 479288076
  frame_id: ''
s: 0.848442337806
n: 0.0217488617551
alpha: -0.00840307218754
v: 0.250648442465
---
header: 
  seq: 9265
  stamp: 
    secs: 1604188493
    nsecs: 489289025
  frame_id: ''
s: 0.851018037259
n: 0.0218218469804
alpha: -0.00840307218754
v: 0.251525105729
---
header: 
  seq: 9266
  stamp: 
    secs: 1604188493
    nsecs: 499282638
  frame_id: ''
s: 0.853028112491
n: 0.0218833820812
alpha: -0.00840307218754
v: 0.245193285812
---
header: 
  seq: 9267
  stamp: 
    secs: 1604188493
    nsecs: 509328305
  frame_id: ''
s: 0.85644086939
n: 0.0219502504737
alpha: -0.00840307218753
v: 0.257258851023
---
header: 
  seq: 9268
  stamp: 
    secs: 1604188493
    nsecs: 519279753
  frame_id: ''
s: 0.85918902402
n: 0.0220054493632
alpha: -0.00840307218753
v: 0.259468679456
---
header: 
  seq: 9269
  stamp: 
    secs: 1604188493
    nsecs: 529280279
  frame_id: ''
s: 0.861335649712
n: 0.0229993659775
alpha: -0.00840307218753
v: 0.254322419336
---
header: 
  seq: 9270
  stamp: 
    secs: 1604188493
    nsecs: 539284512
  frame_id: ''
s: 0.862961532817
n: 0.0238654762026
alpha: -0.00840307218753
v: 0.24364161215
---
header: 
  seq: 9271
  stamp: 
    secs: 1604188493
    nsecs: 549281715
  frame_id: ''
s: 0.866035719857
n: 0.0246239825731
alpha: -0.00840307218753
v: 0.252476032137
---
header: 
  seq: 9272
  stamp: 
    secs: 1604188493
    nsecs: 559299543
  frame_id: ''
s: 0.868498208103
n: 0.024314357885
alpha: -0.00840307218752
v: 0.251093055672
---
header: 
  seq: 9273
  stamp: 
    secs: 1604188493
    nsecs: 569286242
  frame_id: ''
s: 0.870401304742
n: 0.0249621348988
alpha: -0.00840307218752
v: 0.244190370339
---
header: 
  seq: 9274
  stamp: 
    secs: 1604188493
    nsecs: 579282443
  frame_id: ''
s: 0.873721890447
n: 0.0255222457539
alpha: -0.00840307218752
v: 0.255762824189
---
header: 
  seq: 9275
  stamp: 
    secs: 1604188493
    nsecs: 589280847
  frame_id: ''
s: 0.876391961191
n: 0.0259845988691
alpha: -0.00840307218752
v: 0.25764174522
---
header: 
  seq: 9276
  stamp: 
    secs: 1604188493
    nsecs: 599282782
  frame_id: ''
s: 0.878481614872
n: 0.0263580243411
alpha: -0.00840307218752
v: 0.251924334284
---
header: 
  seq: 9277
  stamp: 
    secs: 1604188493
    nsecs: 609279776
  frame_id: ''
s: 0.880061558704
n: 0.0266518700403
alpha: -0.00840307218752
v: 0.24045584689
---
header: 
  seq: 9278
  stamp: 
    secs: 1604188493
    nsecs: 619302653
  frame_id: ''
s: 0.882150335249
n: 0.0268836033537
alpha: -0.00840307218752
v: 0.236643189644
---
header: 
  seq: 9279
  stamp: 
    secs: 1604188493
    nsecs: 629288125
  frame_id: ''
s: 0.884695751975
n: 0.0270615657958
alpha: -0.00840307218752
v: 0.23890444228
---
header: 
  seq: 9280
  stamp: 
    secs: 1604188493
    nsecs: 639287002
  frame_id: ''
s: 0.886695146565
n: 0.0271857672549
alpha: -0.00840307218752
v: 0.234013862027
---
header: 
  seq: 9281
  stamp: 
    secs: 1604188493
    nsecs: 649289534
  frame_id: ''
s: 0.888222077433
n: 0.0263153577414
alpha: -0.00840307218752
v: 0.222738196574
---
header: 
  seq: 9282
  stamp: 
    secs: 1604188493
    nsecs: 659281209
  frame_id: ''
s: 0.89028131212
n: 0.0255338154576
alpha: -0.00840307218752
v: 0.220265955442
---
header: 
  seq: 9283
  stamp: 
    secs: 1604188493
    nsecs: 669284506
  frame_id: ''
s: 0.892816266045
n: 0.024844188895
alpha: -0.00840307218752
v: 0.22452566159
---
header: 
  seq: 9284
  stamp: 
    secs: 1604188493
    nsecs: 679294295
  frame_id: ''
s: 0.894820328792
n: 0.0242383081834
alpha: -0.00840307218752
v: 0.221819915247
---
header: 
  seq: 9285
  stamp: 
    secs: 1604188493
    nsecs: 689311931
  frame_id: ''
s: 0.897304921928
n: 0.0237224373385
alpha: -0.00840307218752
v: 0.225544575144
---
header: 
  seq: 9286
  stamp: 
    secs: 1604188493
    nsecs: 699287129
  frame_id: ''
s: 0.900213103717
n: 0.0232919617292
alpha: -0.00840307218752
v: 0.234066090588
---
header: 
  seq: 9287
  stamp: 
    secs: 1604188493
    nsecs: 709282846
  frame_id: ''
s: 0.902539439802
n: 0.022932933167
alpha: -0.00840307218752
v: 0.234182704529
---
header: 
  seq: 9288
  stamp: 
    secs: 1604188493
    nsecs: 719284016
  frame_id: ''
s: 0.904348354148
n: 0.0226394869424
alpha: -0.00840307218752
v: 0.227752316569
---
header: 
  seq: 9289
  stamp: 
    secs: 1604188493
    nsecs: 729286273
  frame_id: ''
s: 0.906653717451
n: 0.0224132101528
alpha: -0.00840307218752
v: 0.228240007101
---
header: 
  seq: 9290
  stamp: 
    secs: 1604188493
    nsecs: 739287847
  frame_id: ''
s: 0.909400048895
n: 0.0222464875759
alpha: -0.00840307218753
v: 0.234097399178
---
header: 
  seq: 9291
  stamp: 
    secs: 1604188493
    nsecs: 749291640
  frame_id: ''
s: 0.911582565697
n: 0.0221237579155
alpha: -0.00840307218753
v: 0.232130998635
---
header: 
  seq: 9292
  stamp: 
    secs: 1604188493
    nsecs: 759286425
  frame_id: ''
s: 0.913265695737
n: 0.0220386674877
alpha: -0.00840307218753
v: 0.224131803006
---
header: 
  seq: 9293
  stamp: 
    secs: 1604188493
    nsecs: 769280136
  frame_id: ''
s: 0.916412143147
n: 0.022001179877
alpha: -0.00840307218753
v: 0.235395945182
---
header: 
  seq: 9294
  stamp: 
    secs: 1604188493
    nsecs: 779280286
  frame_id: ''
s: 0.918948576057
n: 0.0219878091748
alpha: -0.00840307218753
v: 0.237617249597
---
header: 
  seq: 9295
  stamp: 
    secs: 1604188493
    nsecs: 789281919
  frame_id: ''
s: 0.920939819015
n: 0.0219935688291
alpha: -0.00840307218753
v: 0.232732806183
---
header: 
  seq: 9296
  stamp: 
    secs: 1604188493
    nsecs: 799284440
  frame_id: ''
s: 0.922459472837
n: 0.0210647135579
alpha: -0.00840307218753
v: 0.223499778644
---
header: 
  seq: 9297
  stamp: 
    secs: 1604188493
    nsecs: 809286661
  frame_id: ''
s: 0.924504336149
n: 0.0212223521174
alpha: -0.00840307218753
v: 0.22080921372
---
header: 
  seq: 9298
  stamp: 
    secs: 1604188493
    nsecs: 819280542
  frame_id: ''
s: 0.92703475559
n: 0.0204421108506
alpha: -0.00840307218753
v: 0.225681132296
---
header: 
  seq: 9299
  stamp: 
    secs: 1604188493
    nsecs: 829280292
  frame_id: ''
s: 0.929027107309
n: 0.0207267255647
alpha: -0.00840307218753
v: 0.221872926701
---
header: 
  seq: 9300
  stamp: 
    secs: 1604188493
    nsecs: 839281522
  frame_id: ''
s: 0.930552377305
n: 0.0210014221649
alpha: -0.00840307218753
v: 0.212858556516
---
header: 
  seq: 9301
  stamp: 
    secs: 1604188493
    nsecs: 849285259
  frame_id: ''
s: 0.93167182641
n: 0.0212607438338
alpha: -0.00840307218753
v: 0.200003424448
---
header: 
  seq: 9302
  stamp: 
    secs: 1604188493
    nsecs: 859285196
  frame_id: ''
s: 0.934343086098
n: 0.0215168302028
alpha: -0.00840307218753
v: 0.208311596838
---
header: 
  seq: 9303
  stamp: 
    secs: 1604188493
    nsecs: 869279712
  frame_id: ''
s: 0.936494388679
n: 0.0207999722747
alpha: -0.00840307218753
v: 0.209514558415
---
header: 
  seq: 9304
  stamp: 
    secs: 1604188493
    nsecs: 879278325
  frame_id: ''
s: 0.939123643197
n: 0.0201845345731
alpha: -0.00712786580844
v: 0.216699876083
---
header: 
  seq: 9305
  stamp: 
    secs: 1604188493
    nsecs: 889280461
  frame_id: ''
s: 0.941221113158
n: 0.0196581272197
alpha: -0.00548051676011
v: 0.216344176845
---
header: 
  seq: 9306
  stamp: 
    secs: 1604188493
    nsecs: 899280506
  frame_id: ''
s: 0.94379581367
n: 0.0192235778374
alpha: -0.00345835171571
v: 0.221911130174
---
header: 
  seq: 9307
  stamp: 
    secs: 1604188493
    nsecs: 909290696
  frame_id: ''
s: 0.945839689984
n: 0.0188656577725
alpha: -0.00185309501921
v: 0.220063936146
---
header: 
  seq: 9308
  stamp: 
    secs: 1604188493
    nsecs: 919283359
  frame_id: ''
s: 0.947413705079
n: 0.0185773407504
alpha: -0.000616866459895
v: 0.212497217976
---
header: 
  seq: 9309
  stamp: 
    secs: 1604188493
    nsecs: 929280861
  frame_id: ''
s: 0.948578378036
n: 0.0183512135554
alpha: 0.000297865538032
v: 0.20069063687
---
header: 
  seq: 9310
  stamp: 
