header: 
  seq: 4571
  stamp: 
    secs: 1604188490
    nsecs: 439280064
  frame_id: ''
D: 0.465352547746
delta: -0.0114650368866
dD: -0.0750343024128
ddelta: 0.00267316246828
---
header: 
  seq: 4572
  stamp: 
    secs: 1604188490
    nsecs: 459281687
  frame_id: ''
D: 0.465037367502
delta: -0.0115034184881
dD: -0.0157590121561
ddelta: -0.00191908010998
---
header: 
  seq: 4573
  stamp: 
    secs: 1604188490
    nsecs: 479286443
  frame_id: ''
D: 0.463717650438
delta: -0.0115410213248
dD: -0.0659858532231
ddelta: -0.00188014183372
---
header: 
  seq: 4574
  stamp: 
    secs: 1604188490
    nsecs: 499282868
  frame_id: ''
D: 0.466624845588
delta: -0.011654083219
dD: 0.1453597579
ddelta: -0.00565309514279
---
header: 
  seq: 4575
  stamp: 
    secs: 1604188490
    nsecs: 519281038
  frame_id: ''
D: 0.468629418435
delta: -0.0117142283426
dD: 0.10022864235
ddelta: -0.00300725617971
---
header: 
  seq: 4576
  stamp: 
    secs: 1604188490
    nsecs: 539284435
  frame_id: ''
D: 0.470100339007
delta: -0.0178241474389
dD: 0.0735460286063
ddelta: -0.305495954816
---
header: 
  seq: 4577
  stamp: 
    secs: 1604188490
    nsecs: 559282548
  frame_id: ''
D: 0.4689600062
delta: -0.0213361370274
dD: -0.0570166403453
ddelta: -0.175599479427
---
header: 
  seq: 4578
  stamp: 
    secs: 1604188490
    nsecs: 579280476
  frame_id: ''
D: 0.471314647211
delta: -0.0222339487114
dD: 0.117732050542
ddelta: -0.044890584197
---
header: 
  seq: 4579
  stamp: 
    secs: 1604188490
    nsecs: 599287343
  frame_id: ''
D: 0.473926689336
delta: -0.0231543175736
dD: 0.130602106287
ddelta: -0.0460184431133
---
header: 
  seq: 4580
  stamp: 
    secs: 1604188490
    nsecs: 619279818
  frame_id: ''
D: 0.476739627516
delta: -0.0233315425171
dD: 0.140646908963
ddelta: -0.00886124717359
---
header: 
  seq: 4581
  stamp: 
    secs: 1604188490
    nsecs: 639276302
  frame_id: ''
D: 0.480691390125
delta: -0.0232968399521
dD: 0.197588130456
ddelta: 0.00173512825007
---
header: 
  seq: 4582
  stamp: 
    secs: 1604188490
    nsecs: 659282904
  frame_id: ''
D: 0.482166241713
delta: -0.0239165247819
dD: 0.0737425794034
ddelta: -0.0309842414878
---
header: 
  seq: 4583
  stamp: 
    secs: 1604188490
    nsecs: 679278283
  frame_id: ''
D: 0.486070255517
delta: -0.0250969611669
dD: 0.195200690222
ddelta: -0.0590218192543
---
header: 
  seq: 4584
  stamp: 
    secs: 1604188490
    nsecs: 699278819
  frame_id: ''
D: 0.487608569817
delta: -0.0263370543186
dD: 0.07691571499
ddelta: -0.0620046575817
---
header: 
  seq: 4585
  stamp: 
    secs: 1604188490
    nsecs: 719282992
  frame_id: ''
D: 0.48961743305
delta: -0.0276697286868
dD: 0.100443161625
ddelta: -0.06663371841
---
header: 
  seq: 4586
  stamp: 
    secs: 1604188490
    nsecs: 739278851
  frame_id: ''
D: 0.488391287286
delta: -0.0296489788137
dD: -0.0613072881776
ddelta: -0.0989625063479
---
header: 
  seq: 4587
  stamp: 
    secs: 1604188490
    nsecs: 759284085
  frame_id: ''
D: 0.48784836335
delta: -0.0319355575468
dD: -0.0271461968208
ddelta: -0.114328936655
---
header: 
  seq: 4588
  stamp: 
    secs: 1604188490
    nsecs: 779284559
  frame_id: ''
D: 0.491400955001
delta: -0.0342033925003
dD: 0.177629582585
ddelta: -0.113391747671
---
header: 
  seq: 4589
  stamp: 
    secs: 1604188490
    nsecs: 799278820
  frame_id: ''
D: 0.492849173613
delta: -0.036822730323
dD: 0.0724109305801
ddelta: -0.130966891137
---
header: 
  seq: 4590
  stamp: 
    secs: 1604188490
    nsecs: 819282361
  frame_id: ''
D: 0.494728496433
delta: -0.0396717604119
dD: 0.0939661410151
ddelta: -0.142451504442
---
header: 
  seq: 4591
  stamp: 
    secs: 1604188490
    nsecs: 849293841
  frame_id: ''
D: 0.493581087159
delta: -0.0467990708787
dD: -0.0573704637014
ddelta: -0.356365523342
---
header: 
  seq: 4592
  stamp: 
    secs: 1604188490
    nsecs: 869286318
  frame_id: ''
D: 0.494599665838
delta: -0.0509932691115
dD: 0.0509289339298
ddelta: -0.20970991164
---
header: 
  seq: 4593
  stamp: 
    secs: 1604188490
    nsecs: 889279154
  frame_id: ''
D: 0.494162445501
delta: -0.0582223931282
dD: -0.0218610168505
ddelta: -0.361456200836
---
header: 
  seq: 4594
  stamp: 
    secs: 1604188490
    nsecs: 909287357
  frame_id: ''
D: 0.494027395877
delta: -0.0609509969794
dD: -0.00675248118441
ddelta: -0.136430192557
---
header: 
  seq: 4595
  stamp: 
    secs: 1604188490
    nsecs: 929281739
  frame_id: ''
D: 0.489475930503
delta: -0.0673610449992
dD: -0.227573268723
ddelta: -0.320502400991
---
header: 
  seq: 4596
  stamp: 
    secs: 1604188490
    nsecs: 949286555
  frame_id: ''
D: 0.48733986238
delta: -0.0754418142268
dD: -0.106803406128
ddelta: -0.404038461383
---
header: 
  seq: 4597
  stamp: 
    secs: 1604188490
    nsecs: 969288989
  frame_id: ''
D: 0.483613808488
delta: -0.0883534681387
dD: -0.186302694615
ddelta: -0.645582695594
---
header: 
  seq: 4598
  stamp: 
    secs: 1604188490
    nsecs: 989283782
  frame_id: ''
D: 0.479847355911
delta: -0.0983095735075
dD: -0.188322628849
ddelta: -0.497805268438
---
header: 
  seq: 4599
  stamp: 
    secs: 1604188491
    nsecs:   9293938
  frame_id: ''
D: 0.475700235196
delta: -0.112342307366
dD: -0.207356035731
ddelta: -0.701636692948
---
header: 
  seq: 4600
  stamp: 
    secs: 1604188491
    nsecs:  29286265
  frame_id: ''
D: 0.475363931494
delta: -0.124443202511
dD: -0.0168151850947
ddelta: -0.605044757242
---
header: 
  seq: 4601
  stamp: 
    secs: 1604188491
    nsecs:  49283507
  frame_id: ''
D: 0.472357375534
delta: -0.127463506813
dD: -0.150327798032
ddelta: -0.151015215069
---
header: 
  seq: 4602
  stamp: 
    secs: 1604188491
    nsecs:  69294529
  frame_id: ''
D: 0.472544852876
delta: -0.131523341763
dD: 0.00937386714073
ddelta: -0.202991747524
---
header: 
  seq: 4603
  stamp: 
    secs: 1604188491
    nsecs:  89286367
  frame_id: ''
D: 0.47008134274
delta: -0.122747040673
dD: -0.12317550684
ddelta: 0.438815054518
---
header: 
  seq: 4604
  stamp: 
    secs: 1604188491
    nsecs:  99281788
  frame_id: ''
D: 0.467035881761
delta: -0.111880943848
dD: -0.152273048934
ddelta: 0.543304841283
---
header: 
  seq: 4605
  stamp: 
    secs: 1604188491
    nsecs: 119280531
  frame_id: ''
D: 0.462327470322
delta: -0.0980011987871
dD: -0.235420571967
ddelta: 0.693987253037
---
header: 
  seq: 4606
  stamp: 
    secs: 1604188491
    nsecs: 139287406
  frame_id: ''
D: 0.462356855613
delta: -0.0852394684826
dD: 0.00146926458611
ddelta: 0.638086515224
---
header: 
  seq: 4607
  stamp: 
    secs: 1604188491
    nsecs: 159277618
  frame_id: ''
D: 0.460566175514
delta: -0.074656594728
dD: -0.0895340049736
ddelta: 0.529143687732
---
header: 
  seq: 4608
  stamp: 
    secs: 1604188491
    nsecs: 179282946
  frame_id: ''
D: 0.46282378369
delta: -0.0672708211507
dD: 0.112880408778
ddelta: 0.369288678864
---
header: 
  seq: 4609
  stamp: 
    secs: 1604188491
    nsecs: 199281184
  frame_id: ''
D: 0.462529266936
delta: -0.0621641512194
dD: -0.0147258376997
ddelta: 0.255333496568
---
header: 
  seq: 4610
  stamp: 
    secs: 1604188491
    nsecs: 219280693
  frame_id: ''
D: 0.46561478212
delta: -0.0593752085559
dD: 0.154275759196
ddelta: 0.139447133175
---
header: 
  seq: 4611
  stamp: 
    secs: 1604188491
    nsecs: 239290591
  frame_id: ''
D: 0.471573321777
delta: -0.0579752784051
dD: 0.297926982895
ddelta: 0.0699965075381
---
header: 
  seq: 4612
  stamp: 
    secs: 1604188491
    nsecs: 259281088
  frame_id: ''
D: 0.475764728261
delta: -0.0572050677156
dD: 0.209570324196
ddelta: 0.0385105344737
---
header: 
  seq: 4613
  stamp: 
    secs: 1604188491
    nsecs: 279278025
  frame_id: ''
D: 0.478263673814
delta: -0.0569172617195
dD: 0.12494727761
ddelta: 0.0143902998078
---
header: 
  seq: 4614
  stamp: 
    secs: 1604188491
    nsecs: 299286645
  frame_id: ''
D: 0.479394727421
delta: -0.0568787140534
dD: 0.0565526803824
ddelta: 0.00192738330539
---
header: 
  seq: 4615
  stamp: 
    secs: 1604188491
    nsecs: 319284802
  frame_id: ''
D: 0.483650909469
delta: -0.0571500725041
dD: 0.2128091024
ddelta: -0.0135679225345
---
header: 
  seq: 4616
  stamp: 
    secs: 1604188491
    nsecs: 339280484
  frame_id: ''
D: 0.483987258874
delta: -0.0570854368039
dD: 0.0168174702465
ddelta: 0.00323178501317
---
header: 
  seq: 4617
  stamp: 
    secs: 1604188491
    nsecs: 359285693
  frame_id: ''
D: 0.486289724766
delta: -0.0573115389951
dD: 0.115123294603
ddelta: -0.0113051095602
---
header: 
  seq: 4618
  stamp: 
    secs: 1604188491
    nsecs: 379279114
  frame_id: ''
D: 0.484508503347
delta: -0.0572212467708
dD: -0.0890610709583
ddelta: 0.00451461122171
---
header: 
  seq: 4619
  stamp: 
    secs: 1604188491
    nsecs: 399281101
  frame_id: ''
D: 0.485018114381
delta: -0.0574550378805
dD: 0.0254805517002
ddelta: -0.011689555484
---
header: 
  seq: 4620
  stamp: 
    secs: 1604188491
    nsecs: 419288058
  frame_id: ''
D: 0.490197439723
delta: -0.0578050479859
dD: 0.258966267087
ddelta: -0.0175005052689
---
header: 
  seq: 4621
  stamp: 
    secs: 1604188491
    nsecs: 439277481
  frame_id: ''
D: 0.493458525724
delta: -0.0578187467113
dD: 0.163054300079
ddelta: -0.000684936264459
---
header: 
  seq: 4622
  stamp: 
    secs: 1604188491
    nsecs: 459279561
  frame_id: ''
D: 0.496858871019
delta: -0.0579502268143
dD: 0.170017264745
ddelta: -0.00657400514616
---
header: 
  seq: 4623
  stamp: 
    secs: 1604188491
    nsecs: 479282728
  frame_id: ''
D: 0.503022625604
delta: -0.0582144969117
dD: 0.308187729238
ddelta: -0.0132135048713
---
header: 
  seq: 4624
  stamp: 
    secs: 1604188491
    nsecs: 499280296
  frame_id: ''
D: 0.504200248808
delta: -0.058084260252
dD: 0.0588811602055
ddelta: 0.00651183299539
---
header: 
  seq: 4625
  stamp: 
    secs: 1604188491
    nsecs: 519286648
  frame_id: ''
D: 0.506063651137
delta: -0.0582640634672
dD: 0.0931701164315
ddelta: -0.00899016075389
---
header: 
  seq: 4626
  stamp: 
    secs: 1604188491
    nsecs: 539280407
  frame_id: ''
D: 0.506323332451
delta: -0.0583243490817
dD: 0.0129840656987
ddelta: -0.00301428071676
---
header: 
  seq: 4627
  stamp: 
    secs: 1604188491
    nsecs: 559279127
  frame_id: ''
D: 0.505248290038
delta: -0.0584113391963
dD: -0.0537521206738
ddelta: -0.00434950571639
---
header: 
  seq: 4628
  stamp: 
    secs: 1604188491
    nsecs: 579284526
  frame_id: ''
D: 0.504562829413
delta: -0.0585940316264
dD: -0.0342730312669
ddelta: -0.00913462149527
---
header: 
  seq: 4629
  stamp: 
    secs: 1604188491
    nsecs: 599279462
  frame_id: ''
D: 0.501397122933
delta: -0.0586306603043
dD: -0.158285324012
ddelta: -0.00183143386789
---
header: 
  seq: 4630
  stamp: 
    secs: 1604188491
    nsecs: 619282403
  frame_id: ''
D: 0.500955693876
delta: -0.0589503296231
dD: -0.0220714528194
ddelta: -0.0159834659325
---
header: 
  seq: 4631
  stamp: 
    secs: 1604188491
    nsecs: 639293673
  frame_id: ''
D: 0.49684260856
delta: -0.0589249259489
dD: -0.205654265862
ddelta: 0.00127018375988
---
header: 
  seq: 4632
  stamp: 
    secs: 1604188491
    nsecs: 659281022
  frame_id: ''
D: 0.495238230181
delta: -0.0592384361117
dD: -0.0802189189471
ddelta: -0.0156755081216
---
header: 
  seq: 4633
  stamp: 
    secs: 1604188491
    nsecs: 689288695
  frame_id: ''
D: 0.490495966379
delta: -0.0592579570397
dD: -0.237113190139
ddelta: -0.000976046313114
---
header: 
  seq: 4634
  stamp: 
    secs: 1604188491
    nsecs: 709282733
  frame_id: ''
D: 0.490557540749
delta: -0.0597096675114
dD: 0.00307871850638
ddelta: -0.0225855235657
---
header: 
  seq: 4635
  stamp: 
    secs: 1604188491
    nsecs: 729283230
  frame_id: ''
D: 0.488032747747
delta: -0.0597367376113
dD: -0.126239650159
ddelta: -0.00135350491469
---
header: 
  seq: 4636
  stamp: 
    secs: 1604188491
    nsecs: 739289090
  frame_id: ''
D: 0.486908510742
delta: -0.0599653173521
dD: -0.0562118502652
ddelta: -0.0114289870076
---
header: 
  seq: 4637
  stamp: 
    secs: 1604188491
    nsecs: 759283196
  frame_id: ''
D: 0.483483524528
delta: -0.05997446849
dD: -0.171249310777
ddelta: -0.000457556796627
---
header: 
  seq: 4638
  stamp: 
    secs: 1604188491
    nsecs: 779282144
  frame_id: ''
D: 0.481667027301
delta: -0.0601980062307
dD: -0.0908248613573
ddelta: -0.0111768869723
---
header: 
  seq: 4639
  stamp: 
    secs: 1604188491
    nsecs: 809290689
  frame_id: ''
D: 0.476912805089
delta: -0.0601545731762
dD: -0.237711110581
ddelta: 0.00217165272455
---
header: 
  seq: 4640
  stamp: 
    secs: 1604188491
    nsecs: 829284239
  frame_id: ''
D: 0.471036253725
delta: -0.0601762874113
dD: -0.293827568312
ddelta: -0.00108571161676
---
header: 
  seq: 4641
  stamp: 
    secs: 1604188491
    nsecs: 849285593
  frame_id: ''
D: 0.468191369464
delta: -0.0604330126764
dD: -0.142244213045
ddelta: -0.0128362631554
---
header: 
  seq: 4642
  stamp: 
    secs: 1604188491
    nsecs: 869282963
  frame_id: ''
D: 0.466752652804
delta: -0.060592895133
dD: -0.0719358330906
ddelta: -0.00799412270323
---
header: 
  seq: 4643
  stamp: 
    secs: 1604188491
    nsecs: 889285522
  frame_id: ''
D: 0.466812209927
delta: -0.0607555322725
dD: 0.00297785611235
ddelta: -0.00813185685196
---
header: 
  seq: 4644
  stamp: 
    secs: 1604188491
    nsecs: 909289675
  frame_id: ''
D: 0.467082850421
delta: -0.0608258778498
dD: 0.0135320246375
ddelta: -0.00351727872226
---
header: 
  seq: 4645
  stamp: 
    secs: 1604188491
    nsecs: 929286890
  frame_id: ''
D: 0.468019991698
delta: -0.0609076837101
dD: 0.0468570637994
ddelta: -0.00409029287153
---
header: 
  seq: 4646
  stamp: 
    secs: 1604188491
    nsecs: 949283453
  frame_id: ''
D: 0.466835101106
delta: -0.060781871291
dD: -0.0592445295928
ddelta: 0.00629062095707
---
header: 
  seq: 4647
  stamp: 
    secs: 1604188491
    nsecs: 969291640
  frame_id: ''
D: 0.467460070298
delta: -0.0608793953624
dD: 0.0312484594987
ddelta: -0.00487620343083
---
header: 
  seq: 4648
  stamp: 
    secs: 1604188491
    nsecs: 989285578
  frame_id: ''
D: 0.468256082708
delta: -0.0666328702417
dD: 0.0398006204488
ddelta: -0.287673743936
---
header: 
  seq: 4649
  stamp: 
    secs: 1604188492
    nsecs:   9284270
  frame_id: ''
D: 0.469647497349
delta: -0.0689380643217
dD: 0.0695707320924
ddelta: -0.115259703997
---
header: 
  seq: 4650
  stamp: 
    secs: 1604188492
    nsecs:  19290466
  frame_id: ''
D: 0.472650391746
delta: -0.0698963148364
dD: 0.150144719828
ddelta: -0.047912525734
---
header: 
  seq: 4651
  stamp: 
    secs: 1604188492
    nsecs:  39283508
  frame_id: ''
D: 0.472185416072
delta: -0.0696603601448
dD: -0.0232487836741
ddelta: 0.0117977345802
---
header: 
  seq: 4652
  stamp: 
    secs: 1604188492
    nsecs:  59282349
  frame_id: ''
D: 0.474544584582
delta: -0.0687188707813
dD: 0.117958425492
ddelta: 0.0470744681717
---
header: 
  seq: 4653
  stamp: 
    secs: 1604188492
    nsecs:  79292635
  frame_id: ''
D: 0.475246687314
delta: -0.0670061199309
dD: 0.0351051366027
ddelta: 0.0856375425216
---
header: 
  seq: 4654
  stamp: 
    secs: 1604188492
    nsecs:  99284950
  frame_id: ''
D: 0.477302974424
delta: -0.0654438524694
dD: 0.102814355504
ddelta: 0.0781133730745
---
header: 
  seq: 4655
  stamp: 
    secs: 1604188492
    nsecs: 119279870
  frame_id: ''
D: 0.481207440003
delta: -0.0641008810601
dD: 0.195223278926
ddelta: 0.0671485704646
---
header: 
  seq: 4656
  stamp: 
    secs: 1604188492
    nsecs: 139292197
  frame_id: ''
D: 0.483057357775
delta: -0.0627238109383
dD: 0.0924958886206
ddelta: 0.0688535060905
---
header: 
  seq: 4657
  stamp: 
    secs: 1604188492
    nsecs: 159280335
  frame_id: ''
D: 0.487479396138
delta: -0.0619099579577
dD: 0.221101918075
ddelta: 0.0406926491485
---
header: 
  seq: 4658
  stamp: 
    secs: 1604188492
    nsecs: 179279502
  frame_id: ''
D: 0.489383891625
delta: -0.0609585728986
dD: 0.0952247743603
ddelta: 0.0475692529536
---
header: 
  seq: 4659
  stamp: 
    secs: 1604188492
    nsecs: 199282472
  frame_id: ''
D: 0.491604314172
delta: -0.0603513707975
dD: 0.111021127347
ddelta: 0.0303601050536
---
header: 
  seq: 4660
  stamp: 
    secs: 1604188492
    nsecs: 219280704
  frame_id: ''
D: 0.49064980841
delta: -0.0596008416578
dD: -0.0477252880928
ddelta: 0.0375264569848
---
header: 
  seq: 4661
  stamp: 
    secs: 1604188492
    nsecs: 239286253
  frame_id: ''
D: 0.490247378418
delta: -0.0591661474756
dD: -0.0201214996068
ddelta: 0.0217347091101
---
header: 
  seq: 4662
  stamp: 
    secs: 1604188492
    nsecs: 259279091
  frame_id: ''
D: 0.491434859837
delta: -0.0588786738848
dD: 0.0593740709485
ddelta: 0.0143736795413
---
header: 
  seq: 4663
  stamp: 
    secs: 1604188492
    nsecs: 279280980
  frame_id: ''
D: 0.490660050221
delta: -0.0591349296904
dD: -0.0387404808052
ddelta: -0.012812790279
---
header: 
  seq: 4664
  stamp: 
    secs: 1604188492
    nsecs: 299285113
  frame_id: ''
D: 0.4927898668
delta: -0.0593916346378
dD: 0.106490828935
ddelta: -0.0128352473699
---
header: 
  seq: 4665
  stamp: 
    secs: 1604188492
    nsecs: 319282899
  frame_id: ''
D: 0.49084740423
delta: -0.0604950737519
dD: -0.0971231284857
ddelta: -0.055171955705
---
header: 
  seq: 4666
  stamp: 
    secs: 1604188492
    nsecs: 339305255
  frame_id: ''
D: 0.491178044021
delta: -0.0619742389004
dD: 0.0165319895701
ddelta: -0.0739582574285
---
header: 
  seq: 4667
  stamp: 
    secs: 1604188492
    nsecs: 359287813
  frame_id: ''
D: 0.491141882111
delta: -0.0638145992003
dD: -0.00180809553645
ddelta: -0.0920180149928
---
header: 
  seq: 4668
  stamp: 
    secs: 1604188492
    nsecs: 379281676
  frame_id: ''
D: 0.490880664121
delta: -0.0657851368489
dD: -0.0130608994641
ddelta: -0.0985268824282
---
header: 
  seq: 4669
  stamp: 
    secs: 1604188492
    nsecs: 399277362
  frame_id: ''
D: 0.487989017631
delta: -0.0664904442819
dD: -0.144582324508
ddelta: -0.0352653716501
---
header: 
  seq: 4670
  stamp: 
    secs: 1604188492
    nsecs: 419288248
  frame_id: ''
D: 0.486219573833
delta: -0.0668165792068
dD: -0.0884721899306
ddelta: -0.0163067462451
---
header: 
  seq: 4671
  stamp: 
    secs: 1604188492
    nsecs: 439282808
  frame_id: ''
D: 0.480689076546
delta: -0.0669790496621
dD: -0.276524864353
ddelta: -0.00812352276879
---
header: 
  seq: 4672
  stamp: 
    secs: 1604188492
    nsecs: 459282321
  frame_id: ''
D: 0.47856765838
delta: -0.0669167379634
dD: -0.106070908266
ddelta: 0.00311558493907
---
header: 
  seq: 4673
  stamp: 
    secs: 1604188492
    nsecs: 479285715
  frame_id: ''
D: 0.473991898758
delta: -0.0667059271743
dD: -0.228787981109
ddelta: 0.0105405394516
---
header: 
  seq: 4674
  stamp: 
    secs: 1604188492
    nsecs: 499281207
  frame_id: ''
D: 0.468581016117
delta: -0.0659405997102
dD: -0.270544132036
ddelta: 0.0382663732067
---
header: 
  seq: 4675
  stamp: 
    secs: 1604188492
    nsecs: 519284246
  frame_id: ''
D: 0.464480680721
delta: -0.0657418944896
dD: -0.205016769804
ddelta: 0.0099352610313
---
header: 
  seq: 4676
  stamp: 
    secs: 1604188492
    nsecs: 539282676
  frame_id: ''
D: 0.461412566549
delta: -0.0657406964548
dD: -0.153405708615
ddelta: 5.99017388254e-05
---
header: 
  seq: 4677
  stamp: 
    secs: 1604188492
    nsecs: 559283487
  frame_id: ''
D: 0.455396038622
delta: -0.0654022464581
dD: -0.300826396363
ddelta: 0.0169224998332
---
header: 
  seq: 4678
  stamp: 
    secs: 1604188492
    nsecs: 579291086
  frame_id: ''
D: 0.450274461187
delta: -0.0652867517096
dD: -0.256078871758
ddelta: 0.00577473742802
---
header: 
  seq: 4679
  stamp: 
    secs: 1604188492
    nsecs: 599286365
  frame_id: ''
D: 0.446664853418
delta: -0.0643460890418
dD: -0.180480388415
ddelta: 0.0470331333865
---
header: 
  seq: 4680
  stamp: 
    secs: 1604188492
    nsecs: 619279692
  frame_id: ''
D: 0.445627848817
delta: -0.0629212384235
dD: -0.0518502300837
ddelta: 0.0712425309188
---
header: 
  seq: 4681
  stamp: 
    secs: 1604188492
    nsecs: 639287006
  frame_id: ''
D: 0.446147002165
delta: -0.0612798104078
dD: 0.0259576674355
ddelta: 0.0820714007815
---
header: 
  seq: 4682
  stamp: 
    secs: 1604188492
    nsecs: 659278484
  frame_id: ''
D: 0.448501263747
delta: -0.0595909679981
dD: 0.117713079062
ddelta: 0.0844421204871
---
header: 
  seq: 4683
  stamp: 
    secs: 1604188492
    nsecs: 679280555
  frame_id: ''
D: 0.4496604787
delta: -0.0585935205068
dD: 0.0579607476855
ddelta: 0.0498723745649
---
header: 
  seq: 4684
  stamp: 
    secs: 1604188492
    nsecs: 699283847
  frame_id: ''
D: 0.453114828873
delta: -0.0584685557468
dD: 0.172717508645
ddelta: 0.00624823799872
---
header: 
  seq: 4685
  stamp: 
    secs: 1604188492
    nsecs: 719282146
  frame_id: ''
D: 0.453310551924
delta: -0.0581999766737
dD: 0.00978615254476
ddelta: 0.0134289536543
---
header: 
  seq: 4686
  stamp: 
    secs: 1604188492
    nsecs: 739292947
  frame_id: ''
D: 0.456902081096
delta: -0.0585999540643
dD: 0.179576458575
ddelta: -0.0199988695269
---
header: 
  seq: 4687
  stamp: 
    secs: 1604188492
    nsecs: 759285518
  frame_id: ''
D: 0.457607156579
delta: -0.0585050157317
dD: 0.0352537741896
ddelta: 0.00474691663075
---
header: 
  seq: 4688
  stamp: 
    secs: 1604188492
    nsecs: 779281539
  frame_id: ''
D: 0.459221697554
delta: -0.0586226265533
dD: 0.0807270487367
ddelta: -0.00588054108277
---
header: 
  seq: 4689
  stamp: 
    secs: 1604188492
    nsecs: 799313169
  frame_id: ''
D: 0.459530897461
delta: -0.0584489487907
dD: 0.0154599953541
ddelta: 0.00868388813165
---
header: 
  seq: 4690
  stamp: 
    secs: 1604188492
    nsecs: 819283160
  frame_id: ''
D: 0.46361892776
delta: -0.0602828091115
dD: 0.204401514947
ddelta: -0.091693016042
---
header: 
  seq: 4691
  stamp: 
    secs: 1604188492
    nsecs: 839283121
  frame_id: ''
D: 0.466789859991
delta: -0.0608546537786
dD: 0.158546611563
ddelta: -0.0285922333553
---
header: 
  seq: 4692
  stamp: 
    secs: 1604188492
    nsecs: 869289012
  frame_id: ''
D: 0.468925930771
delta: -0.0620549901073
dD: 0.106803538967
ddelta: -0.0600168164338
---
header: 
  seq: 4693
  stamp: 
    secs: 1604188492
    nsecs: 889284892
  frame_id: ''
D: 0.470572448762
delta: -0.0629362988426
dD: 0.0823258995465
ddelta: -0.0440654367672
---
header: 
  seq: 4694
  stamp: 
    secs: 1604188492
    nsecs: 909298069
  frame_id: ''
D: 0.473607602766
delta: -0.062866048659
dD: 0.151757700224
ddelta: 0.00351250918064
---
header: 
  seq: 4695
  stamp: 
    secs: 1604188492
    nsecs: 929286114
  frame_id: ''
D: 0.474714653436
delta: -0.0618431876673
dD: 0.0553525334811
ddelta: 0.0511430495886
---
header: 
  seq: 4696
  stamp: 
    secs: 1604188492
    nsecs: 939282378
  frame_id: ''
D: 0.476774008797
delta: -0.0609313010104
dD: 0.102967768042
ddelta: 0.045594332843
---
header: 
  seq: 4697
  stamp: 
    secs: 1604188492
    nsecs: 959287437
  frame_id: ''
D: 0.478263656006
delta: -0.0596576255679
dD: 0.0744823604904
ddelta: 0.0636837721269
---
header: 
  seq: 4698
  stamp: 
    secs: 1604188492
    nsecs: 979281356
  frame_id: ''
D: 0.479557000887
delta: -0.0583469729473
dD: 0.0646672440456
ddelta: 0.0655326310265
---
header: 
  seq: 4699
  stamp: 
    secs: 1604188492
    nsecs: 999283012
  frame_id: ''
D: 0.482136834562
delta: -0.0572238048009
dD: 0.128991683728
ddelta: 0.056158407322
---
header: 
  seq: 4700
  stamp: 
    secs: 1604188493
    nsecs:  19289872
  frame_id: ''
D: 0.484455085244
delta: -0.0561617557033
dD: 0.115912534093
ddelta: 0.0531024548804
---
header: 
  seq: 4701
  stamp: 
    secs: 1604188493
    nsecs:  39282293
  frame_id: ''
D: 0.488182931093
delta: -0.0553974247536
dD: 0.186392292448
ddelta: 0.0382165474827
---
header: 
  seq: 4702
  stamp: 
    secs: 1604188493
    nsecs:  59284694
  frame_id: ''
D: 0.489001058609
delta: -0.0545518224715
dD: 0.0409063758318
ddelta: 0.0422801141064
---
header: 
  seq: 4703
  stamp: 
    secs: 1604188493
    nsecs:  79287366
  frame_id: ''
D: 0.490232149082
delta: -0.0540762091319
dD: 0.0615545236143
ddelta: 0.0237806669784
---
header: 
  seq: 4704
  stamp: 
    secs: 1604188493
    nsecs:  99281715
  frame_id: ''
D: 0.495056102656
delta: -0.0548284925985
dD: 0.241197678715
ddelta: -0.0376141733269
---
header: 
  seq: 4705
  stamp: 
    secs: 1604188493
    nsecs: 129290577
  frame_id: ''
D: 0.496103231302
delta: -0.0556722577266
dD: 0.0523564322847
ddelta: -0.0421882564067
---
header: 
  seq: 4706
  stamp: 
    secs: 1604188493
    nsecs: 149287607
  frame_id: ''
D: 0.497750086835
delta: -0.0562335731527
dD: 0.0823427766591
ddelta: -0.0280657713049
---
header: 
  seq: 4707
  stamp: 
    secs: 1604188493
    nsecs: 159287253
  frame_id: ''
D: 0.497166043932
delta: -0.0563938430701
dD: -0.0292021451198
ddelta: -0.00801349586807
---
header: 
  seq: 4708
  stamp: 
    secs: 1604188493
    nsecs: 179286770
  frame_id: ''
D: 0.49701551808
delta: -0.0564244354069
dD: -0.00752629264087
ddelta: -0.00152961684002
---
header: 
  seq: 4709
  stamp: 
    secs: 1604188493
    nsecs: 199280923
  frame_id: ''
D: 0.498162358345
delta: -0.0572263558565
dD: 0.0573420132855
ddelta: -0.0400960224823
---
header: 
  seq: 4710
  stamp: 
    secs: 1604188493
    nsecs: 219281657
  frame_id: ''
D: 0.497066975199
delta: -0.0581761899712
dD: -0.0547691572932
ddelta: -0.0474917057355
---
header: 
  seq: 4711
  stamp: 
    secs: 1604188493
    nsecs: 239287845
  frame_id: ''
D: 0.492164560254
delta: -0.0584779989279
dD: -0.245120747279
ddelta: -0.0150904478326
---
header: 
  seq: 4712
  stamp: 
    secs: 1604188493
    nsecs: 259280755
  frame_id: ''
D: 0.488282549928
delta: -0.0595792107137
dD: -0.194100516281
ddelta: -0.0550605892892
---
header: 
  seq: 4713
  stamp: 
    secs: 1604188493
    nsecs: 279281398
  frame_id: ''
D: 0.48281397202
delta: -0.0608136318632
dD: -0.273428895403
ddelta: -0.0617210574793
---
header: 
  seq: 4714
  stamp: 
    secs: 1604188493
    nsecs: 299283791
  frame_id: ''
D: 0.477331868423
delta: -0.0615005069076
dD: -0.274105179842
ddelta: -0.0343437522161
---
header: 
  seq: 4715
  stamp: 
    secs: 1604188493
    nsecs: 319283727
  frame_id: ''
D: 0.470894810065
delta: -0.0618727681791
dD: -0.321852917929
ddelta: -0.0186130635783
---
header: 
  seq: 4716
  stamp: 
    secs: 1604188493
    nsecs: 339284832
  frame_id: ''
D: 0.46294829636
delta: -0.062241389009
dD: -0.397325685258
ddelta: -0.0184310414935
---
header: 
  seq: 4717
  stamp: 
    secs: 1604188493
    nsecs: 359285121
  frame_id: ''
D: 0.458547443474
delta: -0.0628756840757
dD: -0.220042644279
ddelta: -0.0317147533357
---
header: 
  seq: 4718
  stamp: 
    secs: 1604188493
    nsecs: 379287335
  frame_id: ''
D: 0.456254161933
delta: -0.0628107550884
dD: -0.114664077052
ddelta: 0.00324644936408
---
header: 
  seq: 4719
  stamp: 
    secs: 1604188493
    nsecs: 399280815
  frame_id: ''
D: 0.456443972401
delta: -0.063337124785
dD: 0.00949052341367
ddelta: -0.026318484828
---
header: 
  seq: 4720
  stamp: 
    secs: 1604188493
    nsecs: 419288031
  frame_id: ''
D: 0.453962583848
delta: -0.0643627577976
dD: -0.124069427683
ddelta: -0.0512816506318
---
header: 
  seq: 4721
  stamp: 
    secs: 1604188493
    nsecs: 439280291
  frame_id: ''
D: 0.453188541868
delta: -0.0659415389621
dD: -0.0387020989571
ddelta: -0.0789390582228
---
header: 
  seq: 4722
  stamp: 
    secs: 1604188493
    nsecs: 459277573
  frame_id: ''
D: 0.452088804731
delta: -0.0678642444084
dD: -0.0549868568806
ddelta: -0.0961352723133
---
header: 
  seq: 4723
  stamp: 
    secs: 1604188493
    nsecs: 479288076
  frame_id: ''
D: 0.451111118224
delta: -0.0701158246
dD: -0.0488843253222
ddelta: -0.112579009582
---
header: 
  seq: 4724
  stamp: 
    secs: 1604188493
    nsecs: 499282638
  frame_id: ''
D: 0.451549308414
delta: -0.0726003308018
dD: 0.0219095094633
ddelta: -0.124225310093
---
header: 
  seq: 4725
  stamp: 
    secs: 1604188493
    nsecs: 519279753
  frame_id: ''
D: 0.448994106215
delta: -0.075408817251
dD: -0.127760109907
ddelta: -0.140424322459
---
header: 
  seq: 4726
  stamp: 
    secs: 1604188493
    nsecs: 539284512
  frame_id: ''
D: 0.450476213601
delta: -0.0800824683954
dD: 0.0741053692782
ddelta: -0.233682557217
---
header: 
  seq: 4727
  stamp: 
    secs: 1604188493
    nsecs: 559299543
  frame_id: ''
D: 0.450073121926
delta: -0.0848669907909
dD: -0.0201545837683
ddelta: -0.239226119776
---
header: 
  seq: 4728
  stamp: 
    secs: 1604188493
    nsecs: 579282443
  frame_id: ''
D: 0.448874307066
delta: -0.0907231943551
dD: -0.0599407430053
ddelta: -0.292810178213
---
header: 
  seq: 4729
  stamp: 
    secs: 1604188493
    nsecs: 599282782
  frame_id: ''
D: 0.448853598998
delta: -0.0970574296162
dD: -0.00103540337367
ddelta: -0.316711763055
---
header: 
  seq: 4730
  stamp: 
    secs: 1604188493
    nsecs: 619302653
  frame_id: ''
D: 0.451978015403
delta: -0.103280957325
dD: 0.156220820243
ddelta: -0.311176385433
---
header: 
  seq: 4731
  stamp: 
    secs: 1604188493
    nsecs: 639287002
  frame_id: ''
D: 0.454727870489
delta: -0.109316077431
dD: 0.137492754318
ddelta: -0.301756005317
---
header: 
  seq: 4732
  stamp: 
    secs: 1604188493
    nsecs: 659281209
  frame_id: ''
D: 0.459287208426
delta: -0.113463497775
dD: 0.227966896823
ddelta: -0.207371017195
---
header: 
  seq: 4733
  stamp: 
    secs: 1604188493
    nsecs: 679294295
  frame_id: ''
D: 0.462085813232
delta: -0.116670519818
dD: 0.139930240305
ddelta: -0.160351102132
---
header: 
  seq: 4734
  stamp: 
    secs: 1604188493
    nsecs: 699287129
  frame_id: ''
D: 0.461493498313
delta: -0.119983981734
dD: -0.029615745921
ddelta: -0.165673095808
---
header: 
  seq: 4735
  stamp: 
    secs: 1604188493
    nsecs: 719284016
  frame_id: ''
D: 0.462265034709
delta: -0.123506777668
dD: 0.0385768197987
ddelta: -0.176139796709
---
header: 
  seq: 4736
  stamp: 
    secs: 1604188493
    nsecs: 739287847
  frame_id: ''
D: 0.461553897232
delta: -0.127644108146
dD: -0.0355568738822
ddelta: -0.206866523897
---
header: 
  seq: 4737
  stamp: 
    secs: 1604188493
    nsecs: 759286425
  frame_id: ''
D: 0.46303322027
delta: -0.132195556753
dD: 0.0739661519145
ddelta: -0.227572430341
---
header: 
  seq: 4738
  stamp: 
    secs: 1604188493
    nsecs: 779280286
  frame_id: ''
D: 0.461421418565
delta: -0.137827074975
dD: -0.0805900852619
ddelta: -0.281575911128
---
header: 
  seq: 4739
  stamp: 
    secs: 1604188493
    nsecs: 799284440
  frame_id: ''
D: 0.463045744224
delta: -0.142924179002
dD: 0.0812162829334
ddelta: -0.254855201326
---
header: 
  seq: 4740
  stamp: 
    secs: 1604188493
    nsecs: 819280542
  frame_id: ''
D: 0.46379137513
delta: -0.148116178693
dD: 0.0372815453241
ddelta: -0.259599984555
---
header: 
  seq: 4741
  stamp: 
    secs: 1604188493
    nsecs: 839281522
  frame_id: ''
D: 0.46688002533
delta: -0.154091415882
dD: 0.154432509977
ddelta: -0.298761859444
---
header: 
  seq: 4742
  stamp: 
    secs: 1604188493
    nsecs: 859285196
  frame_id: ''
D: 0.46999515702
delta: -0.160612256164
dD: 0.155756584537
ddelta: -0.326042014106
---
header: 
  seq: 4743
  stamp: 
    secs: 1604188493
    nsecs: 879278325
  frame_id: ''
D: 0.470453098907
delta: -0.166622090718
dD: 0.0228970943619
ddelta: -0.300491727677
---
header: 
  seq: 4744
  stamp: 
    secs: 1604188493
    nsecs: 899280506
  frame_id: ''
D: 0.469670496673
delta: -0.172905402645
dD: -0.0391301117251
ddelta: -0.314165596347
---
header: 
  seq: 4745
  stamp: 
    secs: 1604188493
    nsecs: 919283359
  frame_id: ''
D: 0.470980139124
delta: -0.178982293863
dD: 0.0654821225627
ddelta: -0.303844560932
---
header: 
  seq: 4746
  stamp: 
    secs: 1604188493
    nsecs: 939281088
  frame_id: ''
D: 0.474868333138
delta: -0.184587933438
dD: 0.194409700681
ddelta: -0.280281978722
---
header: 
  seq: 4747
  stamp: 
    secs: 1604188493
    nsecs: 959293152
  frame_id: ''
D: 0.477324253629
delta: -0.19048955871
dD: 0.122796024559
ddelta: -0.295081263632
---
header: 
  seq: 4748
  stamp: 
    secs: 1604188493
    nsecs: 979278913
  frame_id: ''
D: 0.482681150065
delta: -0.195977558827
dD: 0.267844821789
ddelta: -0.274400005859
---
header: 
  seq: 4749
  stamp: 
    secs: 1604188493
    nsecs: 999280662
  frame_id: ''
D: 0.483998425036
delta: -0.202019881141
dD: 0.0658637485666
ddelta: -0.302116115667
---
header: 
  seq: 4750
  stamp: 
    secs: 1604188494
    nsecs:  19290428
  frame_id: ''
D: 0.487061670878
delta: -0.20790555288
dD: 0.1531622921
ddelta: -0.294283586946
---
header: 
  seq: 4751
  stamp: 
    secs: 1604188494
    nsecs:  39284031
  frame_id: ''
D: 0.485916133597
delta: -0.214217816886
dD: -0.0572768640496
ddelta: -0.315613200299
---
header: 
  seq: 4752
  stamp: 
    secs: 1604188494
    nsecs:  59282271
  frame_id: ''
D: 0.486869261764
delta: -0.22027317441
dD: 0.0476564083401
ddelta: -0.302767876207
---
header: 
  seq: 4753
  stamp: 
    secs: 1604188494
    nsecs:  79286492
  frame_id: ''
D: 0.485923029421
delta: -0.226167630648
dD: -0.0473116171704
ddelta: -0.294722811913
---
header: 
  seq: 4754
  stamp: 
    secs: 1604188494
    nsecs:  99281859
  frame_id: ''
D: 0.486241695972
delta: -0.231704551913
dD: 0.0159333275623
ddelta: -0.276846063248
---
header: 
  seq: 4755
  stamp: 
    secs: 1604188494
    nsecs: 119280927
  frame_id: ''
D: 0.488005776118
delta: -0.222657012203
dD: 0.0882040073268
ddelta: 0.452376985507
---
header: 
  seq: 4756
  stamp: 
    secs: 1604188494
    nsecs: 139283281
  frame_id: ''
D: 0.487642056874
delta: -0.206948586552
dD: -0.0181859622387
ddelta: 0.78542128254
---
header: 
  seq: 4757
  stamp: 
    secs: 1604188494
    nsecs: 159279751
  frame_id: ''
D: 0.48738888675
delta: -0.190829918704
dD: -0.0126585061964
ddelta: 0.805933392395
---
header: 
  seq: 4758
  stamp: 
    secs: 1604188494
    nsecs: 179287946
  frame_id: ''
D: 0.486383323645
delta: -0.188006941089
dD: -0.0502781552136
ddelta: 0.141148880748
---
header: 
  seq: 4759
  stamp: 
    secs: 1604188494
    nsecs: 199282084
  frame_id: ''
D: 0.487019048797
delta: -0.192778038802
dD: 0.0317862575793
ddelta: -0.238554885643
---
header: 
  seq: 4760
  stamp: 
    secs: 1604188494
    nsecs: 219277463
  frame_id: ''
D: 0.48502677853
delta: -0.201889183471
dD: -0.0996135133286
ddelta: -0.455557233443
---
header: 
  seq: 4761
  stamp: 
    secs: 1604188494
    nsecs: 239287394
  frame_id: ''
D: 0.482358196348
delta: -0.208579615626
dD: -0.133429109138
ddelta: -0.33452160773
---
header: 
  seq: 4762
  stamp: 
    secs: 1604188494
    nsecs: 259305186
  frame_id: ''
D: 0.477820793637
delta: -0.206452708793
dD: -0.226870135551
ddelta: 0.106345341624
---
header: 
  seq: 4763
  stamp: 
    secs: 1604188494
    nsecs: 279284025
  frame_id: ''
D: 0.474447903806
delta: -0.200358909878
dD: -0.16864449155
ddelta: 0.304689945764
---
header: 
  seq: 4764
  stamp: 
    secs: 1604188494
    nsecs: 299289398
  frame_id: ''
D: 0.470656779518
delta: -0.194244537503
dD: -0.189556214364
ddelta: 0.305718618735
---
header: 
  seq: 4765
  stamp: 
    secs: 1604188494
    nsecs: 319278551
  frame_id: ''
D: 0.466779030087
delta: -0.188779504435
dD: -0.193887471573
ddelta: 0.273251653425
---
header: 
  seq: 4766
  stamp: 
    secs: 1604188494
    nsecs: 339278065
  frame_id: ''
D: 0.463884801981
delta: -0.187049281564
dD: -0.144711405294
ddelta: 0.0865111435334
---
header: 
  seq: 4767
  stamp: 
    secs: 1604188494
    nsecs: 359280932
  frame_id: ''
D: 0.460997055445
delta: -0.182834785028
dD: -0.144387326803
ddelta: 0.210724826808
---
header: 
  seq: 4768
  stamp: 
    secs: 1604188494
    nsecs: 379283043
  frame_id: ''
D: 0.459228378048
delta: -0.178900583812
dD: -0.0884338698552
ddelta: 0.196710060767
---
header: 
  seq: 4769
  stamp: 
    secs: 1604188494
    nsecs: 399290957
  frame_id: ''
D: 0.455901755487
delta: -0.1802062987
dD: -0.166331128058
ddelta: -0.0652857443571
---
header: 
  seq: 4770
  stamp: 
    secs: 1604188494
    nsecs: 419284108
  frame_id: ''
D: 0.453453428088
delta: -0.185376908406
dD: -0.122416369898
ddelta: -0.25853048533
---
header: 
  seq: 4771
  stamp: 
    secs: 1604188494
    nsecs: 439279689
  frame_id: ''
D: 0.452256239213
delta: -0.189272224056
dD: -0.0598594437476
ddelta: -0.194765782496
---
header: 
  seq: 4772
  stamp: 
    secs: 1604188494
    nsecs: 459290814
  frame_id: ''
D: 0.452584125359
delta: -0.19004102049
dD: 0.0163943073246
ddelta: -0.0384398217291
---
header: 
  seq: 4773
  stamp: 
    secs: 1604188494
    nsecs: 479285309
  frame_id: ''
D: 0.452498133523
delta: -0.187378653834
dD: -0.00429959183557
ddelta: 0.133118332826
---
header: 
  seq: 4774
  stamp: 
    secs: 1604188494
    nsecs: 499283066
  frame_id: ''
D: 0.453042922146
delta: -0.189232197536
dD: 0.0272394312025
ddelta: -0.0926771850875
---
header: 
  seq: 4775
  stamp: 
    secs: 1604188494
    nsecs: 519290105
  frame_id: ''
D: 0.453659491201
delta: -0.192852993308
dD: 0.0308284527807
ddelta: -0.181039788655
---
header: 
  seq: 4776
  stamp: 
    secs: 1604188494
    nsecs: 539283538
  frame_id: ''
D: 0.45682053072
delta: -0.198382103154
dD: 0.158051975997
ddelta: -0.276455492288
---
header: 
  seq: 4777
  stamp: 
    secs: 1604188494
    nsecs: 559280551
  frame_id: ''
D: 0.460335771139
delta: -0.204044472707
dD: 0.17576202096
ddelta: -0.283118477686
---
header: 
  seq: 4778
  stamp: 
    secs: 1604188494
    nsecs: 589285817
  frame_id: ''
D: 0.464539552823
delta: -0.207206840111
dD: 0.210189084265
ddelta: -0.158118370272
---
header: 
  seq: 4779
  stamp: 
    secs: 1604188494
    nsecs: 609279819
  frame_id: ''
D: 0.46788140421
delta: -0.21034426495
dD: 0.167092569331
ddelta: -0.156871241941
---
header: 
  seq: 4780
  stamp: 
    secs: 1604188494
    nsecs: 629284478
  frame_id: ''
D: 0.471284423059
delta: -0.214057123935
dD: 0.170150942507
ddelta: -0.185642949295
---
header: 
  seq: 4781
  stamp: 
    secs: 1604188494
    nsecs: 649282464
  frame_id: ''
D: 0.474694423609
delta: -0.220784927771
dD: 0.170500027545
ddelta: -0.336390191803
---
header: 
  seq: 4782
  stamp: 
    secs: 1604188494
    nsecs: 659278361
  frame_id: ''
D: 0.476452878455
delta: -0.230110947817
dD: 0.0879227424511
ddelta: -0.466301002439
---
header: 
  seq: 4783
  stamp: 
    secs: 1604188494
    nsecs: 679312093
  frame_id: ''
D: 0.479321983061
delta: -0.236874621329
dD: 0.143455230298
ddelta: -0.338183675679
---
header: 
  seq: 4784
  stamp: 
    secs: 1604188494
    nsecs: 699281135
  frame_id: ''
D: 0.481189214176
delta: -0.235424164333
dD: 0.0933615557581
ddelta: 0.0725228498003
---
header: 
  seq: 4785
  stamp: 
    secs: 1604188494
    nsecs: 719283595
  frame_id: ''
D: 0.481310964501
delta: -0.22740213149
dD: 0.00608751625352
ddelta: 0.401101642154
---
header: 
  seq: 4786
  stamp: 
    secs: 1604188494
    nsecs: 739284601
  frame_id: ''
D: 0.483437583322
delta: -0.221598299119
dD: 0.106330941078
ddelta: 0.290191618556
---
header: 
  seq: 4787
  stamp: 
    secs: 1604188494
    nsecs: 759281540
  frame_id: ''
D: 0.485095917791
delta: -0.215669653475
dD: 0.0829167234319
ddelta: 0.2964322822
---
header: 
  seq: 4788
  stamp: 
    secs: 1604188494
    nsecs: 779281553
  frame_id: ''
D: 0.487913143391
delta: -0.213027782947
dD: 0.140861280037
ddelta: 0.132093526363
---
header: 
  seq: 4789
  stamp: 
    secs: 1604188494
    nsecs: 799284478
  frame_id: ''
D: 0.490170112822
delta: -0.214640021235
dD: 0.112848471547
ddelta: -0.0806119143914
---
header: 
  seq: 4790
  stamp: 
    secs: 1604188494
    nsecs: 819282240
  frame_id: ''
D: 0.493437646582
delta: -0.215984852826
dD: 0.163376688002
ddelta: -0.0672415795241
---
header: 
  seq: 4791
  stamp: 
    secs: 1604188494
    nsecs: 839283149
  frame_id: ''
D: 0.495273292186
delta: -0.218314786706
dD: 0.0917822801993
ddelta: -0.116496694031
---
header: 
  seq: 4792
  stamp: 
    secs: 1604188494
    nsecs: 859283235
  frame_id: ''
D: 0.496676633876
delta: -0.228160092986
dD: 0.0701670844934
ddelta: -0.492265313987
---
header: 
  seq: 4793
  stamp: 
    secs: 1604188494
    nsecs: 879279556
  frame_id: ''
D: 0.498461079245
delta: -0.236993961231
dD: 0.0892222684753
ddelta: -0.441693412259
---
header: 
  seq: 4794
  stamp: 
    secs: 1604188494
    nsecs: 909284602
  frame_id: ''
D: 0.497355608363
delta: -0.243720246399
dD: -0.0552735441068
ddelta: -0.336314258408
---
header: 
  seq: 4795
  stamp: 
    secs: 1604188494
    nsecs: 919287162
  frame_id: ''
D: 0.497251975079
delta: -0.249089869308
dD: -0.0051816642248
ddelta: -0.268481145433
---
header: 
  seq: 4796
  stamp: 
    secs: 1604188494
    nsecs: 939286092
  frame_id: ''
D: 0.496017557073
delta: -0.254542820342
dD: -0.0617209002777
ddelta: -0.272647551687
---
header: 
  seq: 4797
  stamp: 
    secs: 1604188494
    nsecs: 959285350
  frame_id: ''
D: 0.49603622054
delta: -0.26028994869
dD: 0.000933173364595
ddelta: -0.287356417407
---
header: 
  seq: 4798
  stamp: 
    secs: 1604188494
    nsecs: 979279006
  frame_id: ''
D: 0.495500371509
delta: -0.266923872471
dD: -0.0267924515562
ddelta: -0.331696189053
---
header: 
  seq: 4799
  stamp: 
    secs: 1604188494
    nsecs: 999276947
  frame_id: ''
D: 0.494283170682
delta: -0.274582287296
dD: -0.0608600413188
ddelta: -0.382920741318
---
header: 
  seq: 4800
  stamp: 
    secs: 1604188495
    nsecs:  19282890
  frame_id: ''
D: 0.492957522215
delta: -0.282820180841
dD: -0.0662824233695
ddelta: -0.411894677257
---
header: 
  seq: 4801
  stamp: 
    secs: 1604188495
    nsecs:  39281726
  frame_id: ''
D: 0.491595759085
delta: -0.291322383202
dD: -0.0680881565033
ddelta: -0.425110118076
---
header: 
  seq: 4802
  stamp: 
    secs: 1604188495
    nsecs:  59278793
  frame_id: ''
D: 0.490446368265
delta: -0.296222876583
dD: -0.0574695409678
ddelta: -0.245024669076
---
header: 
  seq: 4803
  stamp: 
    secs: 1604188495
    nsecs:  79284001
  frame_id: ''
D: 0.486581245962
delta: -0.276922472993
dD: -0.193256115141
ddelta: 0.965020179513
---
header: 
  seq: 4804
  stamp: 
    secs: 1604188495
    nsecs:  99278373
  frame_id: ''
D: 0.481570673608
delta: -0.281089193503
dD: -0.250528617741
ddelta: -0.208336025472
---
header: 
  seq: 4805
  stamp: 
    secs: 1604188495
    nsecs: 119290027
  frame_id: ''
D: 0.476821300009
delta: -0.28895011527
dD: -0.237468679909
ddelta: -0.393046088383
---
header: 
  seq: 4806
  stamp: 
    secs: 1604188495
    nsecs: 139282862
  frame_id: ''
D: 0.471231714505
delta: -0.299532694104
dD: -0.279479275213
ddelta: -0.529128941686
---
header: 
  seq: 4807
  stamp: 
    secs: 1604188495
    nsecs: 159279516
  frame_id: ''
D: 0.466494826326
delta: -0.307743306999
dD: -0.236844408959
ddelta: -0.410530644763
---
header: 
  seq: 4808
  stamp: 
    secs: 1604188495
    nsecs: 179285549
  frame_id: ''
D: 0.462130912428
delta: -0.313462517682
dD: -0.218195694876
ddelta: -0.285960534119
---
header: 
  seq: 4809
  stamp: 
    secs: 1604188495
    nsecs: 199281708
  frame_id: ''
D: 0.459232501381
delta: -0.320154354651
dD: -0.144920552366
ddelta: -0.334591848454
---
header: 
  seq: 4810
  stamp: 
    secs: 1604188495
    nsecs: 219277217
  frame_id: ''
D: 0.457590705579
delta: -0.323827136845
dD: -0.0820897900854
ddelta: -0.183639109696
---
header: 
  seq: 4811
  stamp: 
    secs: 1604188495
    nsecs: 239286110
  frame_id: ''
D: 0.454521434787
delta: -0.330376167943
dD: -0.153463539615
ddelta: -0.32745155491
---
header: 
  seq: 4812
  stamp: 
    secs: 1604188495
    nsecs: 259277764
  frame_id: ''
D: 0.451016900187
delta: -0.330700346052
dD: -0.175226730026
ddelta: -0.0162089054493
---
header: 
  seq: 4813
  stamp: 
    secs: 1604188495
    nsecs: 279284577
  frame_id: ''
D: 0.448765376882
delta: -0.324478232388
dD: -0.112576165227
ddelta: 0.311105683168
---
header: 
  seq: 4814
  stamp: 
    secs: 1604188495
    nsecs: 299283134
  frame_id: ''
D: 0.449039682313
delta: -0.322264838396
dD: 0.0137152715375
ddelta: 0.110669699644
---
header: 
  seq: 4815
  stamp: 
    secs: 1604188495
    nsecs: 319280397
  frame_id: ''
D: 0.452961866928
delta: -0.323370722206
dD: 0.196109230742
ddelta: -0.055294190524
---
header: 
  seq: 4816
  stamp: 
    secs: 1604188495
    nsecs: 339313078
  frame_id: ''
D: 0.457510124934
delta: -0.322246066173
dD: 0.227412900331
ddelta: 0.05623280166
---
header: 
  seq: 4817
  stamp: 
    secs: 1604188495
    nsecs: 359283193
  frame_id: ''
D: 0.460478335851
delta: -0.326724618674
dD: 0.148410545816
ddelta: -0.223927625055
---
header: 
  seq: 4818
  stamp: 
    secs: 1604188495
    nsecs: 379281729
  frame_id: ''
D: 0.46219773293
delta: -0.333227802369
dD: 0.0859698539599
ddelta: -0.325159184736
---
header: 
  seq: 4819
  stamp: 
    secs: 1604188495
    nsecs: 399291148
  frame_id: ''
D: 0.464564942487
delta: -0.338049823246
dD: 0.118360477872
ddelta: -0.241101043869
---
header: 
  seq: 4820
  stamp: 
    secs: 1604188495
    nsecs: 419282392
  frame_id: ''
D: 0.467288428131
delta: -0.346874636072
dD: 0.136174282168
ddelta: -0.441240641319
---
header: 
  seq: 4821
  stamp: 
    secs: 1604188495
    nsecs: 439284171
  frame_id: ''
D: 0.466283726063
delta: -0.354998639095
dD: -0.0502351033779
ddelta: -0.406200151152
---
header: 
  seq: 4822
  stamp: 
    secs: 1604188495
    nsecs: 459287414
  frame_id: ''
D: 0.468536484175
delta: -0.363097981251
dD: 0.112637905581
ddelta: -0.404967107777
---
header: 
  seq: 4823
  stamp: 
    secs: 1604188495
    nsecs: 479280213
  frame_id: ''
D: 0.470201334214
delta: -0.371114793725
dD: 0.0832425019582
ddelta: -0.400840623682
---
header: 
  seq: 4824
  stamp: 
    secs: 1604188495
    nsecs: 499277975
  frame_id: ''
D: 0.475525568551
delta: -0.378469257882
dD: 0.26621171688
ddelta: -0.367723207845
---
header: 
  seq: 4825
  stamp: 
    secs: 1604188495
    nsecs: 519286173
  frame_id: ''
D: 0.479690418075
delta: -0.385361633994
dD: 0.208242476185
ddelta: -0.344618805625
---
header: 
  seq: 4826
  stamp: 
    secs: 1604188495
    nsecs: 539277361
  frame_id: ''
D: 0.484991462348
delta: -0.391781667872
dD: 0.265052213629
ddelta: -0.32100169389
---
header: 
  seq: 4827
  stamp: 
    secs: 1604188495
    nsecs: 559282170
  frame_id: ''
D: 0.489524968781
delta: -0.396456075324
dD: 0.226675321646
ddelta: -0.233720372612
---
header: 
  seq: 4828
  stamp: 
    secs: 1604188495
    nsecs: 579283152
  frame_id: ''
D: 0.494110289443
delta: -0.396854808875
dD: 0.229266033111
ddelta: -0.0199366775389
---
header: 
  seq: 4829
  stamp: 
    secs: 1604188495
    nsecs: 599279859
  frame_id: ''
D: 0.497633769075
delta: -0.398397092465
dD: 0.176173981618
ddelta: -0.0771141794934
---
header: 
  seq: 4830
  stamp: 
    secs: 1604188495
    nsecs: 619287965
  frame_id: ''
D: 0.498427754562
delta: -0.398441731639
dD: 0.0396992743269
ddelta: -0.00223195873808
---
header: 
  seq: 4831
  stamp: 
    secs: 1604188495
    nsecs: 639283269
  frame_id: ''
D: 0.501153330748
delta: -0.399935565528
dD: 0.136278809307
ddelta: -0.0746916944423
---
header: 
  seq: 4832
  stamp: 
    secs: 1604188495
    nsecs: 659281184
  frame_id: ''
D: 0.504430921732
delta: -0.399999996038
dD: 0.163879549213
ddelta: -0.00322152550764
---
header: 
  seq: 4833
  stamp: 
    secs: 1604188495
    nsecs: 679288270
  frame_id: ''
D: 0.506298853928
delta: -0.399999835981
dD: 0.0933966098144
ddelta: 8.00286051853e-06
---
header: 
  seq: 4834
  stamp: 
    secs: 1604188495
    nsecs: 699277841
  frame_id: ''
D: 0.50751976793
delta: -0.399999590176
dD: 0.0610457000845
ddelta: 1.22902829395e-05
---
header: 
  seq: 4835
  stamp: 
    secs: 1604188495
    nsecs: 719278087
  frame_id: ''
D: 0.508045313357
delta: -0.39999998451
dD: 0.0262772713285
ddelta: -1.97167369818e-05
---
header: 
  seq: 4836
  stamp: 
    secs: 1604188495
    nsecs: 739288402
  frame_id: ''
D: 0.50937054494
delta: -0.399999999899
dD: 0.0662615791559
ddelta: -7.6942830219e-07
---
header: 
  seq: 4837
  stamp: 
    secs: 1604188495
    nsecs: 759281162
  frame_id: ''
D: 0.509338785985
delta: -0.399996234489
dD: -0.00158794774024
ddelta: 0.00018827047386
---
header: 
  seq: 4838
  stamp: 
    secs: 1604188495
    nsecs: 779278423
  frame_id: ''
D: 0.510544465636
delta: -0.399636910359
dD: 0.0602839825742
ddelta: 0.0179662065224
---
header: 
  seq: 4839
  stamp: 
    secs: 1604188495
    nsecs: 799285843
  frame_id: ''
D: 0.508980168725
delta: -0.399228575659
dD: -0.0782148455714
ddelta: 0.0204167349934
---
header: 
  seq: 4840
  stamp: 
    secs: 1604188495
    nsecs: 819282269
  frame_id: ''
D: 0.50730897366
delta: -0.396923509911
dD: -0.0835597532413
ddelta: 0.115253287419
---
header: 
  seq: 4841
  stamp: 
    secs: 1604188495
    nsecs: 839281132
  frame_id: ''
D: 0.505046852419
delta: -0.394572587903
dD: -0.113106062074
ddelta: 0.117546100402
---
header: 
  seq: 4842
  stamp: 
    secs: 1604188495
    nsecs: 859302724
  frame_id: ''
D: 0.502619198652
delta: -0.394619381737
dD: -0.121382688328
ddelta: -0.00233969169362
---
header: 
  seq: 4843
  stamp: 
    secs: 1604188495
    nsecs: 879281886
  frame_id: ''
D: 0.501059713164
delta: -0.393975287481
dD: -0.0779742744064
ddelta: 0.0322047127812
---
header: 
  seq: 4844
  stamp: 
    secs: 1604188495
    nsecs: 899282287
  frame_id: ''
D: 0.496851624946
delta: -0.392290736704
dD: -0.210404410879
ddelta: 0.0842275388434
---
header: 
  seq: 4845
  stamp: 
    secs: 1604188495
    nsecs: 919286606
  frame_id: ''
D: 0.493295183075
delta: -0.392033416221
dD: -0.177822093594
ddelta: 0.0128660241518
---
header: 
  seq: 4846
  stamp: 
    secs: 1604188495
    nsecs: 939280705
  frame_id: ''
D: 0.490015120849
delta: -0.396305837258
dD: -0.164003111277
ddelta: -0.213621051836
---
header: 
  seq: 4847
  stamp: 
    secs: 1604188495
    nsecs: 959281187
  frame_id: ''
D: 0.488649078719
delta: -0.399427245002
dD: -0.0683021065025
ddelta: -0.156070387189
---
header: 
  seq: 4848
  stamp: 
    secs: 1604188495
    nsecs: 979286552
  frame_id: ''
D: 0.488749829339
delta: -0.399999833205
dD: 0.00503753101686
ddelta: -0.0286294101752
---
header: 
  seq: 4849
  stamp: 
    secs: 1604188495
    nsecs: 999283131
  frame_id: ''
D: 0.488830040553
delta: -0.39999999966
dD: 0.0040105606701
ddelta: -8.32275770247e-06
---
header: 
  seq: 4850
  stamp: 
    secs: 1604188496
    nsecs:  19287839
  frame_id: ''
D: 0.488041021891
delta: -0.399999305566
dD: -0.039450933103
ddelta: 3.47047064174e-05
---
header: 
  seq: 4851
  stamp: 
    secs: 1604188496
    nsecs:  39282868
  frame_id: ''
D: 0.488531161936
delta: -0.399999998561
dD: 0.0245070022607
ddelta: -3.46497284264e-05
---
header: 
  seq: 4852
  stamp: 
    secs: 1604188496
    nsecs:  59282878
  frame_id: ''
D: 0.485518347988
delta: -0.399200885365
dD: -0.150640697376
ddelta: 0.0399556597786
---
header: 
  seq: 4853
  stamp: 
    secs: 1604188496
    nsecs:  79287549
  frame_id: ''
D: 0.483637854799
delta: -0.399426421391
dD: -0.094024659487
ddelta: -0.011276801319
---
header: 
  seq: 4854
  stamp: 
    secs: 1604188496
    nsecs:  99283949
  frame_id: ''
D: 0.480349407828
delta: -0.389118153019
dD: -0.164422348529
ddelta: 0.515413418599
---
header: 
  seq: 4855
  stamp: 
    secs: 1604188496
    nsecs: 119283050
  frame_id: ''
D: 0.476993743715
delta: -0.384297731793
dD: -0.167783205634
ddelta: 0.241021061342
---
header: 
  seq: 4856
  stamp: 
    secs: 1604188496
    nsecs: 139285734
  frame_id: ''
D: 0.474975705737
delta: -0.381900581899
dD: -0.100901898942
ddelta: 0.119857494677
---
header: 
  seq: 4857
  stamp: 
    secs: 1604188496
    nsecs: 159279891
  frame_id: ''
D: 0.47723031851
delta: -0.377115538073
dD: 0.112730638667
ddelta: 0.23925219132
---
header: 
  seq: 4858
  stamp: 
    secs: 1604188496
    nsecs: 179278755
  frame_id: ''
D: 0.485076781073
delta: -0.371855749149
dD: 0.392323128163
ddelta: 0.262989446178
---
header: 
  seq: 4859
  stamp: 
    secs: 1604188496
    nsecs: 199286823
  frame_id: ''
D: 0.481976281369
delta: -0.36655210309
dD: -0.155024985227
ddelta: 0.265182302965
---
header: 
  seq: 4860
  stamp: 
    secs: 1604188496
    nsecs: 219294381
  frame_id: ''
D: 0.477912782068
delta: -0.352790867224
dD: -0.203174965011
ddelta: 0.688061793265
---
header: 
  seq: 4861
  stamp: 
    secs: 1604188496
    nsecs: 239285217
  frame_id: ''
D: 0.472378191236
delta: -0.343540624434
dD: -0.276729541607
ddelta: 0.462512139501
---
header: 
  seq: 4862
  stamp: 
    secs: 1604188496
    nsecs: 259281441
  frame_id: ''
D: 0.46938285809
delta: -0.334206018519
dD: -0.149766657325
ddelta: 0.466730295776
---
header: 
  seq: 4863
  stamp: 
    secs: 1604188496
    nsecs: 279279228
  frame_id: ''
D: 0.465977671074
delta: -0.32798525404
dD: -0.170259350786
ddelta: 0.311038223943
---
header: 
  seq: 4864
  stamp: 
    secs: 1604188496
    nsecs: 299287327
  frame_id: ''
D: 0.46581736928
delta: -0.324882998559
dD: -0.00801508967833
ddelta: 0.155112774053
---
header: 
  seq: 4865
  stamp: 
    secs: 1604188496
    nsecs: 319282230
  frame_id: ''
D: 0.467253925888
delta: -0.324324396377
dD: 0.0718278303864
ddelta: 0.0279301090876
---
header: 
  seq: 4866
  stamp: 
    secs: 1604188496
    nsecs: 339277275
  frame_id: ''
D: 0.469290786005
delta: -0.325554379754
dD: 0.101843005846
ddelta: -0.0614991688139
---
header: 
  seq: 4867
  stamp: 
    secs: 1604188496
    nsecs: 359283693
  frame_id: ''
D: 0.467237414996
delta: -0.330617235722
dD: -0.102668550479
ddelta: -0.253142798414
---
header: 
  seq: 4868
  stamp: 
    secs: 1604188496
    nsecs: 379283840
  frame_id: ''
D: 0.468384644551
delta: -0.337870185351
dD: 0.0573614777979
ddelta: -0.362647481485
---
header: 
  seq: 4869
  stamp: 
    secs: 1604188496
    nsecs: 399278276
  frame_id: ''
D: 0.468300693017
delta: -0.346036692694
dD: -0.0041975767465
ddelta: -0.408325367117
---
header: 
  seq: 4870
  stamp: 
    secs: 1604188496
    nsecs: 419315778
  frame_id: ''
D: 0.470695733158
delta: -0.355398867674
dD: 0.119752007078
ddelta: -0.468108749005
---
header: 
  seq: 4871
  stamp: 
    secs: 1604188496
    nsecs: 439280606
  frame_id: ''
D: 0.477425341972
delta: -0.362994406534
dD: 0.336480440693
ddelta: -0.379776942984
---
header: 
  seq: 4872
  stamp: 
    secs: 1604188496
    nsecs: 459277984
  frame_id: ''
D: 0.482127176189
delta: -0.36369499484
dD: 0.235091710853
ddelta: -0.0350294153029
---
header: 
  seq: 4873
  stamp: 
    secs: 1604188496
    nsecs: 479315125
  frame_id: ''
D: 0.48741035117
delta: -0.363703479861
dD: 0.264158749064
ddelta: -0.000424251084548
---
header: 
  seq: 4874
  stamp: 
    secs: 1604188496
    nsecs: 499284784
  frame_id: ''
D: 0.493626623514
delta: -0.368528773216
dD: 0.310813617204
ddelta: -0.241264667748
---
header: 
  seq: 4875
  stamp: 
    secs: 1604188496
    nsecs: 519280423
  frame_id: ''
D: 0.498538357027
delta: -0.37646947569
dD: 0.245586675607
ddelta: -0.397035123686
---
header: 
  seq: 4876
  stamp: 
    secs: 1604188496
    nsecs: 549291447
  frame_id: ''
D: 0.504870442453
delta: -0.381371809655
dD: 0.316604271328
ddelta: -0.245116698252
---
header: 
  seq: 4877
  stamp: 
    secs: 1604188496
    nsecs: 569287276
  frame_id: ''
D: 0.506714947609
delta: -0.379522774916
dD: 0.0922252577736
ddelta: 0.0924517369457
---
header: 
  seq: 4878
  stamp: 
    secs: 1604188496
    nsecs: 579285068
  frame_id: ''
D: 0.507369031585
delta: -0.375979317464
dD: 0.032704198826
ddelta: 0.177172872592
---
header: 
  seq: 4879
  stamp: 
    secs: 1604188496
    nsecs: 599289022
  frame_id: ''
D: 0.506495787303
delta: -0.369409830237
dD: -0.0436622140853
ddelta: 0.328474361359
---
header: 
  seq: 4880
  stamp: 
    secs: 1604188496
    nsecs: 619283798
  frame_id: ''
D: 0.504369967609
delta: -0.366247212795
dD: -0.106290984726
ddelta: 0.158130872086
---
header: 
  seq: 4881
  stamp: 
    secs: 1604188496
    nsecs: 639283685
  frame_id: ''
D: 0.502627088183
delta: -0.361093286829
dD: -0.087143971298
ddelta: 0.257696298291
---
header: 
  seq: 4882
  stamp: 
    secs: 1604188496
    nsecs: 659281649
  frame_id: ''
D: 0.500965511567
delta: -0.355272943281
dD: -0.0830788307879
ddelta: 0.291017177441
---
header: 
  seq: 4883
  stamp: 
    secs: 1604188496
    nsecs: 679280594
  frame_id: ''
D: 0.498002833209
delta: -0.349735765765
dD: -0.148133917916
ddelta: 0.276858875762
---
header: 
  seq: 4884
  stamp: 
    secs: 1604188496
    nsecs: 699287256
  frame_id: ''
D: 0.495196871376
delta: -0.341425681285
dD: -0.140298091629
ddelta: 0.415504224037
---
header: 
  seq: 4885
  stamp: 
    secs: 1604188496
    nsecs: 719285978
  frame_id: ''
D: 0.491638842299
delta: -0.334229880577
dD: -0.177901453859
ddelta: 0.359790035361
---
header: 
  seq: 4886
  stamp: 
    secs: 1604188496
    nsecs: 739281446
  frame_id: ''
D: 0.490073911454
delta: -0.3295745829
dD: -0.0782465422482
ddelta: 0.232764883869
---
header: 
  seq: 4887
  stamp: 
    secs: 1604188496
    nsecs: 759288167
  frame_id: ''
D: 0.487361198333
delta: -0.330743963595
dD: -0.135635656057
ddelta: -0.0584690347602
---
header: 
  seq: 4888
  stamp: 
    secs: 1604188496
    nsecs: 789285769
  frame_id: ''
D: 0.486371373667
delta: -0.33705350394
dD: -0.0494912332961
ddelta: -0.315477017262
---
header: 
  seq: 4889
  stamp: 
    secs: 1604188496
    nsecs: 799281707
  frame_id: ''
D: 0.485248189798
delta: -0.339779008455
dD: -0.0561591934523
ddelta: -0.136275225737
---
header: 
  seq: 4890
  stamp: 
    secs: 1604188496
    nsecs: 819284723
  frame_id: ''
D: 0.483392818387
delta: -0.340038399303
dD: -0.0927685705572
ddelta: -0.012969542404
---
header: 
  seq: 4891
  stamp: 
    secs: 1604188496
    nsecs: 839280618
  frame_id: ''
D: 0.481071909802
delta: -0.333971969465
dD: -0.11604542925
ddelta: 0.303321491938
---
header: 
  seq: 4892
  stamp: 
    secs: 1604188496
    nsecs: 859283323
  frame_id: ''
D: 0.477407350202
delta: -0.326957171438
dD: -0.183227979985
ddelta: 0.350739901323
---
header: 
  seq: 4893
  stamp: 
    secs: 1604188496
    nsecs: 879284036
  frame_id: ''
D: 0.473207935684
delta: -0.321393310701
dD: -0.209970725907
ddelta: 0.278193036834
---
header: 
  seq: 4894
  stamp: 
    secs: 1604188496
    nsecs: 899281606
  frame_id: ''
D: 0.468988032301
delta: -0.319726058525
dD: -0.21099516915
ddelta: 0.0833626088431
---
header: 
  seq: 4895
  stamp: 
    secs: 1604188496
    nsecs: 929289855
  frame_id: ''
D: 0.463603928663
delta: -0.317604169672
dD: -0.269205181883
ddelta: 0.106094442635
---
header: 
  seq: 4896
  stamp: 
    secs: 1604188496
    nsecs: 949284909
  frame_id: ''
D: 0.458085236549
delta: -0.320763186623
dD: -0.275934605698
ddelta: -0.157950847558
---
header: 
  seq: 4897
  stamp: 
    secs: 1604188496
    nsecs: 969283559
  frame_id: ''
D: 0.456193086938
delta: -0.326903378246
dD: -0.0946074805741
ddelta: -0.307009581155
---
header: 
  seq: 4898
  stamp: 
    secs: 1604188496
    nsecs: 979290927
  frame_id: ''
D: 0.455022608269
delta: -0.33158150785
dD: -0.0585239334282
ddelta: -0.233906480209
---
header: 
  seq: 4899
  stamp: 
    secs: 1604188496
    nsecs: 999280310
  frame_id: ''
D: 0.453868901778
delta: -0.337563368341
dD: -0.0576853245585
ddelta: -0.299093024563
---
header: 
  seq: 4900
  stamp: 
    secs: 1604188497
    nsecs:  19282215
  frame_id: ''
D: 0.452972988808
delta: -0.339790408082
dD: -0.0447956485112
ddelta: -0.111351987013
---
header: 
  seq: 4901
  stamp: 
    secs: 1604188497
    nsecs:  39285167
  frame_id: ''
D: 0.452478195053
delta: -0.342271102036
dD: -0.0247396877443
ddelta: -0.124034697706
---
header: 
  seq: 4902
  stamp: 
    secs: 1604188497
    nsecs:  59283758
  frame_id: ''
D: 0.45413645378
delta: -0.343889798375
dD: 0.0829129363337
ddelta: -0.0809348169692
---
header: 
  seq: 4903
  stamp: 
    secs: 1604188497
    nsecs:  79282062
  frame_id: ''
D: 0.457145395427
delta: -0.343551810081
dD: 0.150447082355
ddelta: 0.0168994147043
---
header: 
  seq: 4904
  stamp: 
    secs: 1604188497
    nsecs:  99284302
  frame_id: ''
D: 0.460819771934
delta: -0.345437774577
dD: 0.183718825376
ddelta: -0.0942982248381
---
header: 
  seq: 4905
  stamp: 
    secs: 1604188497
    nsecs: 119282909
  frame_id: ''
D: 0.461566952256
delta: -0.339452843264
dD: 0.0373590160702
ddelta: 0.299246565623
---
header: 
  seq: 4906
  stamp: 
    secs: 1604188497
    nsecs: 139277680
  frame_id: ''
D: 0.462517208945
delta: -0.331521471199
dD: 0.0475128344731
ddelta: 0.396568603267
---
header: 
  seq: 4907
  stamp: 
    secs: 1604188497
    nsecs: 159265220
  frame_id: ''
D: 0.463472765195
delta: -0.319238210092
dD: 0.0477778125153
ddelta: 0.614163055353
---
header: 
  seq: 4908
  stamp: 
    secs: 1604188497
    nsecs: 179282277
  frame_id: ''
D: 0.465350850928
delta: -0.307286316776
dD: 0.0939042866031
ddelta: 0.597594665811
---
header: 
