header: 
  seq: 3064
  stamp: 
    secs: 1604261642
    nsecs: 185325822
  frame_id: ''
D: 0.503900555462
delta: -0.281027532697
dD: 0.112579910477
ddelta: -0.283905969872
---
header: 
  seq: 3065
  stamp: 
    secs: 1604261642
    nsecs: 205322587
  frame_id: ''
D: 0.505419454469
delta: -0.29057148128
dD: 0.0759449503356
ddelta: -0.477197429105
---
header: 
  seq: 3066
  stamp: 
    secs: 1604261642
    nsecs: 225321371
  frame_id: ''
D: 0.50764564904
delta: -0.297714489744
dD: 0.111309728537
ddelta: -0.357150423243
---
header: 
  seq: 3067
  stamp: 
    secs: 1604261642
    nsecs: 245321523
  frame_id: ''
D: 0.505017087188
delta: -0.315635652722
dD: -0.131428092604
ddelta: -0.896058148895
---
header: 
  seq: 3068
  stamp: 
    secs: 1604261642
    nsecs: 265323874
  frame_id: ''
D: 0.5045488765
delta: -0.322884593066
dD: -0.0234105344098
ddelta: -0.362447017206
---
header: 
  seq: 3069
  stamp: 
    secs: 1604261642
    nsecs: 285321689
  frame_id: ''
D: 0.503229896991
delta: -0.334293302225
dD: -0.0659489754117
ddelta: -0.570435457932
---
header: 
  seq: 3070
  stamp: 
    secs: 1604261642
    nsecs: 305328766
  frame_id: ''
D: 0.500768096327
delta: -0.346681272195
dD: -0.123090033242
ddelta: -0.619398498507
---
header: 
  seq: 3071
  stamp: 
    secs: 1604261642
    nsecs: 325322588
  frame_id: ''
D: 0.499863439145
delta: -0.349794876532
dD: -0.0452328590919
ddelta: -0.155680216836
---
header: 
  seq: 3072
  stamp: 
    secs: 1604261642
    nsecs: 345332006
  frame_id: ''
D: 0.498342422942
delta: -0.34188961411
dD: -0.0760508101295
ddelta: 0.395263121104
---
header: 
  seq: 3073
  stamp: 
    secs: 1604261642
    nsecs: 365326111
  frame_id: ''
D: 0.496632741287
delta: -0.327493083332
dD: -0.0854840827446
ddelta: 0.71982653887
---
header: 
  seq: 3074
  stamp: 
    secs: 1604261642
    nsecs: 385321532
  frame_id: ''
D: 0.49579906255
delta: -0.322939310625
dD: -0.0416839368825
ddelta: 0.227688635386
---
header: 
  seq: 3075
  stamp: 
    secs: 1604261642
    nsecs: 405330261
  frame_id: ''
D: 0.496100872417
delta: -0.322162930169
dD: 0.0150904933861
ddelta: 0.0388190227792
---
header: 
  seq: 3076
  stamp: 
    secs: 1604261642
    nsecs: 425324435
  frame_id: ''
D: 0.494669840949
delta: -0.329833655639
dD: -0.0715515734285
ddelta: -0.383536273513
---
header: 
  seq: 3077
  stamp: 
    secs: 1604261642
    nsecs: 445322272
  frame_id: ''
D: 0.489273764513
delta: -0.345966761367
dD: -0.269803821771
ddelta: -0.806655286389
---
header: 
  seq: 3078
  stamp: 
    secs: 1604261642
    nsecs: 465332809
  frame_id: ''
D: 0.483897646167
delta: -0.361048324233
dD: -0.268805917336
ddelta: -0.754078143311
---
header: 
  seq: 3079
  stamp: 
    secs: 1604261642
    nsecs: 485323854
  frame_id: ''
D: 0.479059694487
delta: -0.386255782588
dD: -0.241897583985
ddelta: -1.26037291774
---
header: 
  seq: 3080
  stamp: 
    secs: 1604261642
    nsecs: 505317968
  frame_id: ''
D: 0.475572046882
delta: -0.399523937423
dD: -0.174382380262
ddelta: -0.663407741766
---
header: 
  seq: 3081
  stamp: 
    secs: 1604261642
    nsecs: 525327173
  frame_id: ''
D: 0.467443585775
delta: -0.399999999951
dD: -0.406423055355
ddelta: -0.0238031263707
---
header: 
  seq: 3082
  stamp: 
    secs: 1604261642
    nsecs: 545318490
  frame_id: ''
D: 0.459601715392
delta: -0.399999999995
dD: -0.39209351911
ddelta: -2.22192514387e-09
---
header: 
  seq: 3083
  stamp: 
    secs: 1604261642
    nsecs: 565323426
  frame_id: ''
D: 0.454411136212
delta: -0.399999999993
dD: -0.259528959011
ddelta: 1.22796685485e-10
---
header: 
  seq: 3084
  stamp: 
    secs: 1604261642
    nsecs: 585330065
  frame_id: ''
D: 0.450820130373
delta: -0.39999999788
dD: -0.179550291981
ddelta: 1.05588928211e-07
---
header: 
  seq: 3085
  stamp: 
    secs: 1604261642
    nsecs: 605323071
  frame_id: ''
D: 0.450556034147
delta: -0.399999999994
dD: -0.0132048112593
ddelta: -1.05654587629e-07
---
header: 
  seq: 3086
  stamp: 
    secs: 1604261642
    nsecs: 625320779
  frame_id: ''
D: 0.454606203491
delta: -0.399999999998
dD: 0.202508467194
ddelta: -2.42409107228e-10
---
header: 
  seq: 3087
  stamp: 
    secs: 1604261642
    nsecs: 645329973
  frame_id: ''
D: 0.460180573142
delta: -0.399999999979
dD: 0.278718482559
ddelta: 9.80286228618e-10
---
header: 
  seq: 3088
  stamp: 
    secs: 1604261642
    nsecs: 665318734
  frame_id: ''
D: 0.466456074848
delta: -0.39999999872
dD: 0.313775085285
ddelta: 6.29181026708e-08
---
header: 
  seq: 3089
  stamp: 
    secs: 1604261642
    nsecs: 685321569
  frame_id: ''
D: 0.471832679406
delta: -0.399999999996
dD: 0.268830227884
ddelta: -6.3757733738e-08
---
header: 
  seq: 3090
  stamp: 
    secs: 1604261642
    nsecs: 705319855
  frame_id: ''
D: 0.478256816791
delta: -0.39999962149
dD: 0.32120686928
ddelta: 1.89252933282e-05
---
header: 
  seq: 3091
  stamp: 
    secs: 1604261642
    nsecs: 725324198
  frame_id: ''
D: 0.48791273178
delta: -0.391678473616
dD: 0.48279574942
ddelta: 0.416057393708
---
header: 
  seq: 3092
  stamp: 
    secs: 1604261642
    nsecs: 745327364
  frame_id: ''
D: 0.496561704642
delta: -0.385682218585
dD: 0.432448643114
ddelta: 0.299812751553
---
header: 
  seq: 3093
  stamp: 
    secs: 1604261642
    nsecs: 775324480
  frame_id: ''
D: 0.506780806916
delta: -0.376987386326
dD: 0.510955113672
ddelta: 0.434741612929
---
header: 
  seq: 3094
  stamp: 
    secs: 1604261642
    nsecs: 785321837
  frame_id: ''
D: 0.513960587151
delta: -0.370599838593
dD: 0.358989011784
ddelta: 0.319377386666
---
header: 
  seq: 3095
  stamp: 
    secs: 1604261642
    nsecs: 815322005
  frame_id: ''
D: 0.517360064354
delta: -0.336232886317
dD: 0.16997386016
ddelta: 1.71834761377
---
header: 
  seq: 3096
  stamp: 
    secs: 1604261642
    nsecs: 825332596
  frame_id: ''
D: 0.518529822847
delta: -0.3110402071
dD: 0.0584879246252
ddelta: 1.25963396088
---
header: 
  seq: 3097
  stamp: 
    secs: 1604261642
    nsecs: 845317689
  frame_id: ''
D: 0.522582483891
delta: -0.292723495383
dD: 0.202633052193
ddelta: 0.915835585814
---
header: 
  seq: 3098
  stamp: 
    secs: 1604261642
    nsecs: 875321558
  frame_id: ''
D: 0.529084209951
delta: -0.287288584035
dD: 0.325086303006
ddelta: 0.271745567409
---
header: 
  seq: 3099
  stamp: 
    secs: 1604261642
    nsecs: 885323988
  frame_id: ''
D: 0.533033297585
delta: -0.288108278816
dD: 0.197454381676
ddelta: -0.0409847390217
---
header: 
  seq: 3100
  stamp: 
    secs: 1604261642
    nsecs: 905320491
  frame_id: ''
D: 0.532968593165
delta: -0.298128668238
dD: -0.00323522098721
ddelta: -0.501019471099
---
header: 
  seq: 3101
  stamp: 
    secs: 1604261642
    nsecs: 935322627
  frame_id: ''
D: 0.530179198902
delta: -0.321446699328
dD: -0.139469713132
ddelta: -1.16590155449
---
header: 
  seq: 3102
  stamp: 
    secs: 1604261642
    nsecs: 945325248
  frame_id: ''
D: 0.527841493481
delta: -0.34214604112
dD: -0.116885271084
ddelta: -1.03496708962
---
header: 
  seq: 3103
  stamp: 
    secs: 1604261642
    nsecs: 975323154
  frame_id: ''
D: 0.522063860469
delta: -0.36947677246
dD: -0.288881650605
ddelta: -1.36653656698
---
header: 
  seq: 3104
  stamp: 
    secs: 1604261642
    nsecs: 985323206
  frame_id: ''
D: 0.515861416049
delta: -0.390076809822
dD: -0.31012222099
ddelta: -1.03000186812
---
header: 
  seq: 3105
  stamp: 
    secs: 1604261643
    nsecs:   5326379
  frame_id: ''
D: 0.515081503041
delta: -0.385015624071
dD: -0.0389956504035
ddelta: 0.253059287558
---
header: 
  seq: 3106
  stamp: 
    secs: 1604261643
    nsecs:  35320310
  frame_id: ''
D: 0.509325485344
delta: -0.397560339314
dD: -0.28780088483
ddelta: -0.627235762172
---
header: 
  seq: 3107
  stamp: 
    secs: 1604261643
    nsecs:  55322342
  frame_id: ''
D: 0.510416574312
delta: -0.393594839042
dD: 0.0545544483844
ddelta: 0.198275013601
---
header: 
  seq: 3108
  stamp: 
    secs: 1604261643
    nsecs:  75325753
  frame_id: ''
D: 0.505199161815
delta: -0.399999998036
dD: -0.260870624831
ddelta: -0.320257949699
---
header: 
  seq: 3109
  stamp: 
    secs: 1604261643
    nsecs:  95321719
  frame_id: ''
D: 0.505468825065
delta: -0.382200278323
dD: 0.0134831625092
ddelta: 0.889985985678
---
header: 
  seq: 3110
  stamp: 
    secs: 1604261643
    nsecs: 115322581
  frame_id: ''
D: 0.504632312042
delta: -0.362181734811
dD: -0.0418256511647
ddelta: 1.00092717558
---
header: 
  seq: 3111
  stamp: 
    secs: 1604261643
    nsecs: 125323978
  frame_id: ''
D: 0.505339993795
delta: -0.342757959189
dD: 0.0353840876439
ddelta: 0.9711887811
---
header: 
  seq: 3112
  stamp: 
    secs: 1604261643
    nsecs: 145330054
  frame_id: ''
D: 0.504836412867
delta: -0.324690715469
dD: -0.025179046385
ddelta: 0.903362186019
---
header: 
  seq: 3113
  stamp: 
    secs: 1604261643
    nsecs: 165326314
  frame_id: ''
D: 0.502925006818
delta: -0.314338680591
dD: -0.0955703024773
ddelta: 0.517601743871
---
header: 
  seq: 3114
  stamp: 
    secs: 1604261643
    nsecs: 195324090
  frame_id: ''
D: 0.49975827383
delta: -0.314782657073
dD: -0.15833664937
ddelta: -0.0221988240839
---
header: 
  seq: 3115
  stamp: 
    secs: 1604261643
    nsecs: 205325755
  frame_id: ''
D: 0.498482082865
delta: -0.318264902058
dD: -0.0638095482685
ddelta: -0.174112249249
---
header: 
  seq: 3116
  stamp: 
    secs: 1604261643
    nsecs: 225324989
  frame_id: ''
D: 0.49775579245
delta: -0.323775235054
dD: -0.0363145207307
ddelta: -0.275516649808
---
header: 
  seq: 3117
  stamp: 
    secs: 1604261643
    nsecs: 245320185
  frame_id: ''
D: 0.496715232337
delta: -0.326264993622
dD: -0.0520280056764
ddelta: -0.12448792842
---
header: 
  seq: 3118
  stamp: 
    secs: 1604261643
    nsecs: 265324715
  frame_id: ''
D: 0.492536821122
delta: -0.331258149495
dD: -0.20892056075
ddelta: -0.249657793621
---
header: 
  seq: 3119
  stamp: 
    secs: 1604261643
    nsecs: 285321519
  frame_id: ''
D: 0.489174900785
delta: -0.322820873349
dD: -0.168096016864
ddelta: 0.4218638073
---
header: 
  seq: 3120
  stamp: 
    secs: 1604261643
    nsecs: 305322403
  frame_id: ''
D: 0.486608877988
delta: -0.306626033991
dD: -0.128301139832
ddelta: 0.809741967893
---
header: 
  seq: 3121
  stamp: 
    secs: 1604261643
    nsecs: 325333630
  frame_id: ''
D: 0.483860812582
delta: -0.291835568206
dD: -0.137403270286
ddelta: 0.739523289223
---
header: 
  seq: 3122
  stamp: 
    secs: 1604261643
    nsecs: 345318625
  frame_id: ''
D: 0.480551373867
delta: -0.283003543745
dD: -0.16547193578
ddelta: 0.441601223069
---
header: 
  seq: 3123
  stamp: 
    secs: 1604261643
    nsecs: 365319695
  frame_id: ''
D: 0.477444743645
delta: -0.282845790062
dD: -0.155331511088
ddelta: 0.00788768415303
---
header: 
  seq: 3124
  stamp: 
    secs: 1604261643
    nsecs: 385349055
  frame_id: ''
D: 0.475006336472
delta: -0.290707555778
dD: -0.121920358629
ddelta: -0.393088285815
---
header: 
  seq: 3125
  stamp: 
    secs: 1604261643
    nsecs: 405321195
  frame_id: ''
D: 0.472549593753
delta: -0.304270980364
dD: -0.122837135944
ddelta: -0.678171229265
---
header: 
  seq: 3126
  stamp: 
    secs: 1604261643
    nsecs: 425319372
  frame_id: ''
D: 0.471908943498
delta: -0.320810102506
dD: -0.0320325127603
ddelta: -0.826956107121
---
header: 
  seq: 3127
  stamp: 
    secs: 1604261643
    nsecs: 445326750
  frame_id: ''
D: 0.468429487698
delta: -0.324167930255
dD: -0.173972790007
ddelta: -0.167891387439
---
header: 
  seq: 3128
  stamp: 
    secs: 1604261643
    nsecs: 465319377
  frame_id: ''
D: 0.464453979593
delta: -0.322689394458
dD: -0.198775405264
ddelta: 0.0739267898181
---
header: 
  seq: 3129
  stamp: 
    secs: 1604261643
    nsecs: 485324096
  frame_id: ''
D: 0.463771537129
delta: -0.311561031468
dD: -0.0341221232149
ddelta: 0.556418149534
---
header: 
  seq: 3130
  stamp: 
    secs: 1604261643
    nsecs: 515326160
  frame_id: ''
D: 0.466403929225
delta: -0.299475394019
dD: 0.13161960481
ddelta: 0.604281872444
---
header: 
  seq: 3131
  stamp: 
    secs: 1604261643
    nsecs: 525322665
  frame_id: ''
D: 0.469882584253
delta: -0.290441658927
dD: 0.173932751407
ddelta: 0.4516867546
---
header: 
  seq: 3132
  stamp: 
    secs: 1604261643
    nsecs: 545322834
  frame_id: ''
D: 0.469363529975
delta: -0.27977983832
dD: -0.0259527139032
ddelta: 0.533091030338
---
header: 
  seq: 3133
  stamp: 
    secs: 1604261643
    nsecs: 575325812
  frame_id: ''
D: 0.468906597744
delta: -0.259209462206
dD: -0.0228466115297
ddelta: 1.02851880572
---
header: 
  seq: 3134
  stamp: 
    secs: 1604261643
    nsecs: 585320569
  frame_id: ''
D: 0.470269494869
delta: -0.242738239112
dD: 0.0681448562337
ddelta: 0.823561154712
---
header: 
  seq: 3135
  stamp: 
    secs: 1604261643
    nsecs: 605322947
  frame_id: ''
D: 0.473380551244
delta: -0.227802799958
dD: 0.155552818746
ddelta: 0.746771957672
---
header: 
  seq: 3136
  stamp: 
    secs: 1604261643
    nsecs: 625323413
  frame_id: ''
D: 0.475830388143
delta: -0.209318989199
dD: 0.122491844946
ddelta: 0.924190537956
---
header: 
  seq: 3137
  stamp: 
    secs: 1604261643
    nsecs: 645318524
  frame_id: ''
D: 0.477220727205
delta: -0.185895674833
dD: 0.069516953109
ddelta: 1.17116571831
---
header: 
  seq: 3138
  stamp: 
    secs: 1604261643
    nsecs: 665318970
  frame_id: ''
D: 0.48051790197
delta: -0.164320021914
dD: 0.164858738247
ddelta: 1.07878264594
---
header: 
  seq: 3139
  stamp: 
    secs: 1604261643
    nsecs: 685327705
  frame_id: ''
D: 0.484146147741
delta: -0.14322749826
dD: 0.181412288548
ddelta: 1.0546261827
---
header: 
  seq: 3140
  stamp: 
    secs: 1604261643
    nsecs: 705317661
  frame_id: ''
D: 0.487544105803
delta: -0.124687991651
dD: 0.169897903132
ddelta: 0.926975330456
---
header: 
  seq: 3141
  stamp: 
    secs: 1604261643
    nsecs: 725327552
  frame_id: ''
D: 0.487679473485
delta: -0.0980467564793
dD: 0.00676838408847
ddelta: 1.33206175859
---
header: 
  seq: 3142
  stamp: 
    secs: 1604261643
    nsecs: 745324734
  frame_id: ''
D: 0.489148866239
delta: -0.0745228710598
dD: 0.0734696377065
ddelta: 1.17619427098
---
header: 
  seq: 3143
  stamp: 
    secs: 1604261643
    nsecs: 765318787
  frame_id: ''
D: 0.491133532996
delta: -0.0477498386603
dD: 0.0992333378238
ddelta: 1.33865161997
---
header: 
  seq: 3144
  stamp: 
    secs: 1604261643
    nsecs: 785317380
  frame_id: ''
D: 0.494592891122
delta: -0.0286750632938
dD: 0.17296790632
ddelta: 0.953738768323
---
header: 
  seq: 3145
  stamp: 
    secs: 1604261643
    nsecs: 805326862
  frame_id: ''
D: 0.497205294292
delta: -0.00973011255594
dD: 0.130620158514
ddelta: 0.947247536895
---
header: 
  seq: 3146
  stamp: 
    secs: 1604261643
    nsecs: 825320876
  frame_id: ''
D: 0.496097757476
delta: 0.0136525945738
dD: -0.0553768408261
ddelta: 1.16913535649
---
header: 
  seq: 3147
  stamp: 
    secs: 1604261643
    nsecs: 845324437
  frame_id: ''
D: 0.493202296159
delta: 0.0385314878611
dD: -0.144773065832
ddelta: 1.24394466436
---
header: 
  seq: 3148
  stamp: 
    secs: 1604261643
    nsecs: 865325458
  frame_id: ''
D: 0.493683013727
delta: 0.0503867625097
dD: 0.0240358783705
ddelta: 0.592763732432
---
header: 
  seq: 3149
  stamp: 
    secs: 1604261643
    nsecs: 885320329
  frame_id: ''
D: 0.494931606649
delta: 0.0583385459077
dD: 0.0624296461272
ddelta: 0.3975891699
---
header: 
  seq: 3150
  stamp: 
    secs: 1604261643
    nsecs: 905317177
  frame_id: ''
D: 0.491690157702
delta: 0.0790275942672
dD: -0.162072447361
ddelta: 1.03445241797
---
header: 
  seq: 3151
  stamp: 
    secs: 1604261643
    nsecs: 925320404
  frame_id: ''
D: 0.487246541506
delta: 0.100153772682
dD: -0.222180809798
ddelta: 1.05630892076
---
header: 
  seq: 3152
  stamp: 
    secs: 1604261643
    nsecs: 945323038
  frame_id: ''
D: 0.484786757348
delta: 0.114972237385
dD: -0.122989207881
ddelta: 0.740923235106
---
header: 
  seq: 3153
  stamp: 
    secs: 1604261643
    nsecs: 965332069
  frame_id: ''
D: 0.483468448227
delta: 0.127627756736
dD: -0.0659154560968
ddelta: 0.632775967559
---
header: 
  seq: 3154
  stamp: 
    secs: 1604261643
    nsecs: 985320943
  frame_id: ''
D: 0.480878306706
delta: 0.154012116096
dD: -0.129507076045
ddelta: 1.319217968
---
header: 
  seq: 3155
  stamp: 
    secs: 1604261644
    nsecs:   5320358
  frame_id: ''
D: 0.477339695156
delta: 0.176712659549
dD: -0.176930577477
ddelta: 1.13502717268
---
header: 
  seq: 3156
  stamp: 
    secs: 1604261644
    nsecs:  25322703
  frame_id: ''
D: 0.475094966619
delta: 0.183420343713
dD: -0.112236426859
ddelta: 0.335384208202
---
header: 
  seq: 3157
  stamp: 
    secs: 1604261644
    nsecs:  45323124
  frame_id: ''
D: 0.473708177445
delta: 0.187574890293
dD: -0.0693394587084
ddelta: 0.207727328993
---
header: 
  seq: 3158
  stamp: 
    secs: 1604261644
    nsecs:  65325274
  frame_id: ''
D: 0.472399934144
delta: 0.201808843715
dD: -0.0654121650521
ddelta: 0.711697671092
---
header: 
  seq: 3159
  stamp: 
    secs: 1604261644
    nsecs:  85326145
  frame_id: ''
D: 0.468798694509
delta: 0.222800011826
dD: -0.180061981744
ddelta: 1.04955840555
---
header: 
  seq: 3160
  stamp: 
    secs: 1604261644
    nsecs: 105322210
  frame_id: ''
D: 0.466317661344
delta: 0.23114514244
dD: -0.124051658265
ddelta: 0.41725653069
---
header: 
  seq: 3161
  stamp: 
    secs: 1604261644
    nsecs: 125320241
  frame_id: ''
D: 0.46617040827
delta: 0.236890823258
dD: -0.00736265368018
ddelta: 0.287284040925
---
header: 
  seq: 3162
  stamp: 
    secs: 1604261644
    nsecs: 145327548
  frame_id: ''
D: 0.4666493843
delta: 0.247300907987
dD: 0.0239488014867
ddelta: 0.520504236435
---
header: 
  seq: 3163
  stamp: 
    secs: 1604261644
    nsecs: 165320478
  frame_id: ''
D: 0.469265031381
delta: 0.261754508668
dD: 0.130782354084
ddelta: 0.722680034064
---
header: 
  seq: 3164
  stamp: 
    secs: 1604261644
    nsecs: 185317270
  frame_id: ''
D: 0.469357501713
delta: 0.277299189826
dD: 0.00462351659617
ddelta: 0.777234057892
---
header: 
  seq: 3165
  stamp: 
    secs: 1604261644
    nsecs: 205327777
  frame_id: ''
D: 0.470940953188
delta: 0.283058490816
dD: 0.0791725737541
ddelta: 0.287965049502
---
header: 
  seq: 3166
  stamp: 
    secs: 1604261644
    nsecs: 225321834
  frame_id: ''
D: 0.474225288095
delta: 0.2831618114
dD: 0.164216745332
ddelta: 0.00516602920817
---
header: 
  seq: 3167
  stamp: 
    secs: 1604261644
    nsecs: 245321593
  frame_id: ''
D: 0.477390877678
delta: 0.286875124661
dD: 0.158279479153
ddelta: 0.185665663042
---
header: 
  seq: 3168
  stamp: 
    secs: 1604261644
    nsecs: 265330372
  frame_id: ''
D: 0.483024627628
delta: 0.282757185726
dD: 0.281687497473
ddelta: -0.205896946741
---
header: 
  seq: 3169
  stamp: 
    secs: 1604261644
    nsecs: 285336778
  frame_id: ''
D: 0.485952859925
delta: 0.278281893098
dD: 0.146411614874
ddelta: -0.223764631444
---
header: 
  seq: 3170
  stamp: 
    secs: 1604261644
    nsecs: 305320653
  frame_id: ''
D: 0.486408767306
delta: 0.289170317067
dD: 0.0227953690309
ddelta: 0.544421198448
---
header: 
  seq: 3171
  stamp: 
    secs: 1604261644
    nsecs: 335318653
  frame_id: ''
D: 0.486103895572
delta: 0.306954747839
dD: -0.015243586664
ddelta: 0.889221538639
---
header: 
  seq: 3172
  stamp: 
    secs: 1604261644
    nsecs: 345328073
  frame_id: ''
D: 0.484052378002
delta: 0.328314359006
dD: -0.102575878523
ddelta: 1.06798055835
---
header: 
  seq: 3173
  stamp: 
    secs: 1604261644
    nsecs: 365319801
  frame_id: ''
D: 0.485012857112
delta: 0.340383345929
dD: 0.0480239554946
ddelta: 0.603449346135
---
header: 
  seq: 3174
  stamp: 
    secs: 1604261644
    nsecs: 385321547
  frame_id: ''
D: 0.481476487912
delta: 0.354037535167
dD: -0.176818460007
ddelta: 0.68270946188
---
header: 
  seq: 3175
  stamp: 
    secs: 1604261644
    nsecs: 405327387
  frame_id: ''
D: 0.477834053417
delta: 0.370566428906
dD: -0.18212172472
ddelta: 0.826444686979
---
header: 
  seq: 3176
  stamp: 
    secs: 1604261644
    nsecs: 425321332
  frame_id: ''
D: 0.478166027619
delta: 0.381799156246
dD: 0.0165987100919
ddelta: 0.561636367033
---
header: 
  seq: 3177
  stamp: 
    secs: 1604261644
    nsecs: 445317650
  frame_id: ''
D: 0.480848691324
delta: 0.393275894491
dD: 0.134133185238
ddelta: 0.573836912212
---
header: 
  seq: 3178
  stamp: 
    secs: 1604261644
    nsecs: 465324408
  frame_id: ''
D: 0.480972306686
delta: 0.395218092944
dD: 0.00618076811567
ddelta: 0.0971099226613
---
header: 
  seq: 3179
  stamp: 
    secs: 1604261644
    nsecs: 485322620
  frame_id: ''
D: 0.48389723219
delta: 0.385671246281
dD: 0.146246275168
ddelta: -0.477342333152
---
header: 
  seq: 3180
  stamp: 
    secs: 1604261644
    nsecs: 505323890
  frame_id: ''
D: 0.488490468492
delta: 0.375684865874
dD: 0.229661815113
ddelta: -0.499319020365
---
header: 
  seq: 3181
  stamp: 
    secs: 1604261644
    nsecs: 525326987
  frame_id: ''
D: 0.494514383028
delta: 0.363420585951
dD: 0.301195726822
ddelta: -0.61321399615
---
header: 
  seq: 3182
  stamp: 
    secs: 1604261644
    nsecs: 555323618
  frame_id: ''
D: 0.499609284376
delta: 0.347144941064
dD: 0.254745067384
ddelta: -0.813782244329
---
header: 
  seq: 3183
  stamp: 
    secs: 1604261644
    nsecs: 575319418
  frame_id: ''
D: 0.504188366254
delta: 0.335047710729
dD: 0.228954093882
ddelta: -0.604861516765
---
header: 
  seq: 3184
  stamp: 
    secs: 1604261644
    nsecs: 595326160
  frame_id: ''
D: 0.509672390855
delta: 0.329219175185
dD: 0.274201230072
ddelta: -0.291426777202
---
header: 
  seq: 3185
  stamp: 
    secs: 1604261644
    nsecs: 605320536
  frame_id: ''
D: 0.515314665472
delta: 0.327836390552
dD: 0.282113730865
ddelta: -0.0691392316394
---
header: 
  seq: 3186
  stamp: 
    secs: 1604261644
    nsecs: 625316737
  frame_id: ''
D: 0.522236488461
delta: 0.324907260033
dD: 0.346091149437
ddelta: -0.146456525937
---
header: 
  seq: 3187
  stamp: 
    secs: 1604261644
    nsecs: 645324518
  frame_id: ''
D: 0.527326855521
delta: 0.317559236231
dD: 0.254518353
ddelta: -0.367401190102
---
header: 
  seq: 3188
  stamp: 
    secs: 1604261644
    nsecs: 665319929
  frame_id: ''
D: 0.529957074919
delta: 0.313765549569
dD: 0.131510969884
ddelta: -0.189684333094
---
header: 
  seq: 3189
  stamp: 
    secs: 1604261644
    nsecs: 685315703
  frame_id: ''
D: 0.530118738581
delta: 0.311427411892
dD: 0.00808318311466
ddelta: -0.116906883838
---
header: 
  seq: 3190
  stamp: 
    secs: 1604261644
    nsecs: 705332951
  frame_id: ''
D: 0.533213879912
delta: 0.307018778013
dD: 0.154757066526
ddelta: -0.220431693991
---
header: 
  seq: 3191
  stamp: 
    secs: 1604261644
    nsecs: 725319564
  frame_id: ''
D: 0.539563491664
delta: 0.282407708013
dD: 0.317480587628
ddelta: -1.2305535
---
header: 
  seq: 3192
  stamp: 
    secs: 1604261644
    nsecs: 745322946
  frame_id: ''
D: 0.543857997576
delta: 0.257477222226
dD: 0.214725295582
ddelta: -1.24652428931
---
header: 
  seq: 3193
  stamp: 
    secs: 1604261644
    nsecs: 765328121
  frame_id: ''
D: 0.546340034492
delta: 0.240393995198
dD: 0.124101845813
ddelta: -0.854161351442
---
header: 
  seq: 3194
  stamp: 
    secs: 1604261644
    nsecs: 785317783
  frame_id: ''
D: 0.549892486703
delta: 0.232426612704
dD: 0.177622610562
ddelta: -0.398369124661
---
header: 
  seq: 3195
  stamp: 
    secs: 1604261644
    nsecs: 805320994
  frame_id: ''
D: 0.553321669457
delta: 0.233579172609
dD: 0.17145913771
ddelta: 0.0576279952348
---
header: 
  seq: 3196
  stamp: 
    secs: 1604261644
    nsecs: 825329787
  frame_id: ''
D: 0.556206551956
delta: 0.23237273073
dD: 0.144244124932
ddelta: -0.0603220939423
---
header: 
  seq: 3197
  stamp: 
    secs: 1604261644
    nsecs: 845319614
  frame_id: ''
D: 0.553094755388
delta: 0.245950271811
dD: -0.155589828385
ddelta: 0.678877054058
---
header: 
  seq: 3198
  stamp: 
    secs: 1604261644
    nsecs: 865322945
  frame_id: ''
D: 0.548962362946
delta: 0.268208050236
dD: -0.206619622122
ddelta: 1.11288892122
---
header: 
  seq: 3199
  stamp: 
    secs: 1604261644
    nsecs: 885330029
  frame_id: ''
D: 0.547477284366
delta: 0.293339681701
dD: -0.07425392901
ddelta: 1.25658157321
---
header: 
  seq: 3200
  stamp: 
    secs: 1604261644
    nsecs: 905324428
  frame_id: ''
D: 0.54456106816
delta: 0.320156229117
dD: -0.145810810314
ddelta: 1.34082737081
---
header: 
  seq: 3201
  stamp: 
    secs: 1604261644
    nsecs: 925322199
  frame_id: ''
D: 0.54504617063
delta: 0.333862475379
dD: 0.0242551235245
ddelta: 0.685312313103
---
header: 
  seq: 3202
  stamp: 
    secs: 1604261644
    nsecs: 945332347
  frame_id: ''
D: 0.546269373103
delta: 0.325574155538
dD: 0.0611601236667
ddelta: -0.414415992034
---
header: 
  seq: 3203
  stamp: 
    secs: 1604261644
    nsecs: 965323309
  frame_id: ''
D: 0.54879785477
delta: 0.312347933083
dD: 0.12642408335
ddelta: -0.661311122743
---
header: 
  seq: 3204
  stamp: 
    secs: 1604261644
    nsecs: 985324764
  frame_id: ''
D: 0.550062695714
delta: 0.298065832436
dD: 0.0632420472081
ddelta: -0.714105032339
---
header: 
  seq: 3205
  stamp: 
    secs: 1604261645
    nsecs:   5353712
  frame_id: ''
D: 0.551763414146
delta: 0.28226210088
dD: 0.0850359215817
ddelta: -0.790186577843
---
header: 
  seq: 3206
  stamp: 
    secs: 1604261645
    nsecs:  25320023
  frame_id: ''
D: 0.550185325677
delta: 0.26992325835
dD: -0.0789044234503
ddelta: -0.616942126454
---
header: 
  seq: 3207
  stamp: 
    secs: 1604261645
    nsecs:  45318454
  frame_id: ''
D: 0.549589457031
delta: 0.262691488271
dD: -0.0297934322803
ddelta: -0.36158850397
---
header: 
  seq: 3208
  stamp: 
    secs: 1604261645
    nsecs:  65329203
  frame_id: ''
D: 0.548075087132
delta: 0.261528588701
dD: -0.0757184949464
ddelta: -0.0581449784926
---
header: 
  seq: 3209
  stamp: 
    secs: 1604261645
    nsecs:  85324858
  frame_id: ''
D: 0.547583907468
delta: 0.268520279057
dD: -0.0245589832188
ddelta: 0.349584517778
---
header: 
  seq: 3210
  stamp: 
    secs: 1604261645
    nsecs: 105317645
  frame_id: ''
D: 0.549241878181
delta: 0.264489955156
dD: 0.0828985356565
ddelta: -0.201516195059
---
header: 
  seq: 3211
  stamp: 
    secs: 1604261645
    nsecs: 125324156
  frame_id: ''
D: 0.549207671645
delta: 0.261001051114
dD: -0.00171032680408
ddelta: -0.174445202103
---
header: 
  seq: 3212
  stamp: 
    secs: 1604261645
    nsecs: 145319823
  frame_id: ''
D: 0.548353019477
delta: 0.260041898771
dD: -0.0427326083766
ddelta: -0.0479576171152
---
header: 
  seq: 3213
  stamp: 
    secs: 1604261645
    nsecs: 165322065
  frame_id: ''
D: 0.547153390922
delta: 0.260432079824
dD: -0.0599814277578
ddelta: 0.0195090526416
---
header: 
  seq: 3214
  stamp: 
    secs: 1604261645
    nsecs: 185348637
  frame_id: ''
D: 0.546858468702
delta: 0.261333369397
dD: -0.0147461110271
ddelta: 0.0450644786211
---
header: 
  seq: 3215
  stamp: 
    secs: 1604261645
    nsecs: 205317938
  frame_id: ''
D: 0.544566428912
delta: 0.263935911622
dD: -0.114601989484
ddelta: 0.130127111271
---
header: 
  seq: 3216
  stamp: 
    secs: 1604261645
    nsecs: 225318541
  frame_id: ''
D: 0.542302097263
delta: 0.265524062095
dD: -0.113216582444
ddelta: 0.0794075236306
---
header: 
  seq: 3217
  stamp: 
    secs: 1604261645
    nsecs: 245327498
  frame_id: ''
D: 0.541283075449
delta: 0.268371934714
dD: -0.0509510907055
ddelta: 0.14239363098
---
header: 
  seq: 3218
  stamp: 
    secs: 1604261645
    nsecs: 265318875
  frame_id: ''
D: 0.542157370368
delta: 0.269706964285
dD: 0.0437147459451
ddelta: 0.0667514785501
---
header: 
  seq: 3219
  stamp: 
    secs: 1604261645
    nsecs: 285342919
  frame_id: ''
D: 0.543595065963
delta: 0.274690628
dD: 0.0718847797575
ddelta: 0.249183185735
---
header: 
  seq: 3220
  stamp: 
    secs: 1604261645
    nsecs: 305337722
  frame_id: ''
D: 0.541174049901
delta: 0.277118480977
dD: -0.121050803103
ddelta: 0.121392648857
---
header: 
  seq: 3221
  stamp: 
    secs: 1604261645
    nsecs: 325320809
  frame_id: ''
D: 0.538489959882
delta: 0.270246401221
dD: -0.134204500954
ddelta: -0.343603987791
---
header: 
  seq: 3222
  stamp: 
    secs: 1604261645
    nsecs: 345324157
  frame_id: ''
D: 0.536980068922
delta: 0.261982937409
dD: -0.0754945480205
ddelta: -0.413173190586
---
header: 
  seq: 3223
  stamp: 
    secs: 1604261645
    nsecs: 365325496
  frame_id: ''
D: 0.537127156194
delta: 0.256984549581
dD: 0.00735436363049
ddelta: -0.249919391422
---
header: 
  seq: 3224
  stamp: 
    secs: 1604261645
    nsecs: 385317541
  frame_id: ''
D: 0.535411682066
delta: 0.258229633421
dD: -0.0857737064049
ddelta: 0.0622541920064
---
header: 
  seq: 3225
  stamp: 
    secs: 1604261645
    nsecs: 405326334
  frame_id: ''
D: 0.534528269935
delta: 0.256886898112
dD: -0.0441706065448
ddelta: -0.0671367654626
---
header: 
  seq: 3226
  stamp: 
    secs: 1604261645
    nsecs: 425326585
  frame_id: ''
D: 0.533706581773
delta: 0.251295937269
dD: -0.0410844080982
ddelta: -0.279548042146
---
header: 
  seq: 3227
  stamp: 
    secs: 1604261645
    nsecs: 445316942
  frame_id: ''
D: 0.533734182345
delta: 0.248088986354
dD: 0.0013800285939
ddelta: -0.160347545721
---
header: 
  seq: 3228
  stamp: 
    secs: 1604261645
    nsecs: 465323681
  frame_id: ''
D: 0.533857845567
delta: 0.252491135283
dD: 0.0061831611002
ddelta: 0.220107446439
---
header: 
  seq: 3229
  stamp: 
    secs: 1604261645
    nsecs: 485318249
  frame_id: ''
D: 0.531126131519
delta: 0.255090697472
dD: -0.136585702399
ddelta: 0.129978109453
---
header: 
  seq: 3230
  stamp: 
    secs: 1604261645
    nsecs: 505322178
  frame_id: ''
D: 0.527699497315
delta: 0.252963142162
dD: -0.171331710225
ddelta: -0.106377765486
---
header: 
  seq: 3231
  stamp: 
    secs: 1604261645
    nsecs: 525329369
  frame_id: ''
D: 0.525305439735
delta: 0.245751093977
dD: -0.119702878998
ddelta: -0.360602409291
---
header: 
  seq: 3232
  stamp: 
    secs: 1604261645
    nsecs: 545321524
  frame_id: ''
D: 0.523904115482
delta: 0.237962375915
dD: -0.0700662126254
ddelta: -0.389435903088
---
header: 
  seq: 3233
  stamp: 
    secs: 1604261645
    nsecs: 565324329
  frame_id: ''
D: 0.5199738472
delta: 0.228744145843
dD: -0.196513414106
ddelta: -0.460911503569
---
header: 
  seq: 3234
  stamp: 
    secs: 1604261645
    nsecs: 585321769
  frame_id: ''
D: 0.515930877804
delta: 0.216387925881
dD: -0.20214846978
ddelta: -0.617810998141
---
header: 
  seq: 3235
  stamp: 
    secs: 1604261645
    nsecs: 605320487
  frame_id: ''
D: 0.513175464158
delta: 0.205892402441
dD: -0.137770682318
ddelta: -0.524776171985
---
header: 
  seq: 3236
  stamp: 
    secs: 1604261645
    nsecs: 625324782
  frame_id: ''
D: 0.511717842825
delta: 0.190600969732
dD: -0.0728810666703
ddelta: -0.764571635468
---
header: 
  seq: 3237
  stamp: 
    secs: 1604261645
    nsecs: 645328411
  frame_id: ''
D: 0.511975415432
delta: 0.175460665635
dD: 0.0128786303586
ddelta: -0.757015204851
---
header: 
  seq: 3238
  stamp: 
    secs: 1604261645
    nsecs: 665327983
  frame_id: ''
D: 0.511711167985
delta: 0.158984194433
dD: -0.0132123723325
ddelta: -0.823823560072
---
header: 
  seq: 3239
  stamp: 
    secs: 1604261645
    nsecs: 685323462
  frame_id: ''
D: 0.50830069585
delta: 0.136030138758
dD: -0.170523606785
ddelta: -1.14770278377
---
header: 
  seq: 3240
  stamp: 
    secs: 1604261645
    nsecs: 705330601
  frame_id: ''
D: 0.505069139285
delta: 0.110621680176
dD: -0.16157782821
ddelta: -1.27042292911
---
header: 
  seq: 3241
  stamp: 
    secs: 1604261645
    nsecs: 725320801
  frame_id: ''
D: 0.502913370378
delta: 0.0825580249827
dD: -0.107788445362
ddelta: -1.40318275964
---
header: 
  seq: 3242
  stamp: 
    secs: 1604261645
    nsecs: 745317350
  frame_id: ''
D: 0.500387345756
delta: 0.0467846624609
dD: -0.126301231123
ddelta: -1.78866812609
---
header: 
  seq: 3243
  stamp: 
    secs: 1604261645
    nsecs: 765319006
  frame_id: ''
D: 0.495888400481
delta: 0.00678466266414
dD: -0.224947263756
ddelta: -1.99999998984
---
header: 
  seq: 3244
  stamp: 
    secs: 1604261645
    nsecs: 785326058
  frame_id: ''
D: 0.49176015887
delta: -0.033215337322
dD: -0.206412080528
ddelta: -1.99999999931
---
header: 
  seq: 3245
  stamp: 
    secs: 1604261645
    nsecs: 805319102
  frame_id: ''
D: 0.490259591819
delta: -0.0660261726628
dD: -0.0750283525594
ddelta: -1.64054176704
---
header: 
  seq: 3246
  stamp: 
    secs: 1604261645
    nsecs: 825329526
  frame_id: ''
D: 0.48970185467
delta: -0.0857972534474
dD: -0.0278868574585
ddelta: -0.988554039228
---
header: 
  seq: 3247
  stamp: 
    secs: 1604261645
    nsecs: 845320203
  frame_id: ''
D: 0.487831494419
delta: -0.101743673351
dD: -0.0935180125519
ddelta: -0.797320995157
---
header: 
  seq: 3248
  stamp: 
    secs: 1604261645
    nsecs: 865321019
  frame_id: ''
D: 0.484786864852
delta: -0.121636856549
dD: -0.152231478324
ddelta: -0.994659159949
---
header: 
  seq: 3249
  stamp: 
    secs: 1604261645
    nsecs: 885332589
  frame_id: ''
D: 0.48139839181
delta: -0.146151221518
dD: -0.169423652114
ddelta: -1.22571824842
---
header: 
  seq: 3250
  stamp: 
    secs: 1604261645
    nsecs: 905320494
  frame_id: ''
D: 0.478816026238
delta: -0.170083599075
dD: -0.129118278566
ddelta: -1.19661887786
---
header: 
  seq: 3251
  stamp: 
    secs: 1604261645
    nsecs: 925323732
  frame_id: ''
D: 0.477490765083
delta: -0.191435364989
dD: -0.0662630577698
ddelta: -1.06758829571
---
header: 
  seq: 3252
  stamp: 
    secs: 1604261645
    nsecs: 945327213
  frame_id: ''
D: 0.471756689262
delta: -0.216400888054
dD: -0.286703791071
ddelta: -1.24827615323
---
header: 
  seq: 3253
  stamp: 
    secs: 1604261645
    nsecs: 965321871
  frame_id: ''
D: 0.46638181326
delta: -0.243355720106
dD: -0.268743800108
ddelta: -1.34774160261
---
header: 
  seq: 3254
  stamp: 
    secs: 1604261645
    nsecs: 985322848
  frame_id: ''
D: 0.462960804962
delta: -0.264752511636
dD: -0.171050414878
ddelta: -1.06983957647
---
header: 
  seq: 3255
  stamp: 
    secs: 1604261646
    nsecs:   5329180
  frame_id: ''
D: 0.461577547189
delta: -0.281948800425
dD: -0.0691628886524
ddelta: -0.859814439483
---
header: 
  seq: 3256
  stamp: 
    secs: 1604261646
    nsecs:  25321865
  frame_id: ''
D: 0.461444833445
delta: -0.305232118641
dD: -0.00663568718263
ddelta: -1.16416591077
---
header: 
  seq: 3257
  stamp: 
    secs: 1604261646
    nsecs:  45323608
  frame_id: ''
D: 0.458722158957
delta: -0.325578194138
dD: -0.136133724436
ddelta: -1.01730377486
---
header: 
  seq: 3258
  stamp: 
    secs: 1604261646
    nsecs:  65332614
  frame_id: ''
D: 0.456712659601
delta: -0.337954866358
dD: -0.100474967799
ddelta: -0.618833611018
---
header: 
  seq: 3259
  stamp: 
    secs: 1604261646
    nsecs:  85324547
  frame_id: ''
D: 0.455753530616
delta: -0.35114188255
dD: -0.0479564492247
ddelta: -0.659350809602
---
header: 
  seq: 3260
  stamp: 
    secs: 1604261646
    nsecs: 105323778
  frame_id: ''
D: 0.458979982941
delta: -0.349704974309
dD: 0.161322616243
ddelta: 0.0718454120579
---
header: 
  seq: 3261
  stamp: 
    secs: 1604261646
    nsecs: 125328387
  frame_id: ''
D: 0.461107908128
delta: -0.34223674777
dD: 0.106396259346
ddelta: 0.37341132695
---
header: 
  seq: 3262
  stamp: 
    secs: 1604261646
    nsecs: 145320401
  frame_id: ''
D: 0.460831036218
delta: -0.340842952645
dD: -0.0138435955126
ddelta: 0.0696897562473
---
header: 
  seq: 3263
  stamp: 
    secs: 1604261646
    nsecs: 165317051
  frame_id: ''
D: 0.461453292042
delta: -0.342916872637
dD: 0.0311127912165
ddelta: -0.10369599958
---
header: 
  seq: 3264
  stamp: 
    secs: 1604261646
    nsecs: 185330914
  frame_id: ''
D: 0.464705410008
delta: -0.344924862249
dD: 0.162605898313
ddelta: -0.10039948063
---
header: 
  seq: 3265
  stamp: 
    secs: 1604261646
    nsecs: 205324396
  frame_id: ''
D: 0.471055119108
delta: -0.345291669387
dD: 0.317485454999
ddelta: -0.0183403568919
---
header: 
  seq: 3266
  stamp: 
    secs: 1604261646
    nsecs: 225323589
  frame_id: ''
D: 0.472959992547
delta: -0.346398623444
dD: 0.0952436719292
ddelta: -0.0553477028495
---
header: 
  seq: 3267
  stamp: 
    secs: 1604261646
    nsecs: 245330756
  frame_id: ''
D: 0.474375871544
delta: -0.353791281562
dD: 0.0707939498623
ddelta: -0.369632905881
---
header: 
  seq: 3268
  stamp: 
    secs: 1604261646
    nsecs: 275346190
  frame_id: ''
D: 0.476982619122
delta: -0.366866570854
dD: 0.130337378896
ddelta: -0.653764464601
---
header: 
  seq: 3269
  stamp: 
    secs: 1604261646
    nsecs: 295318597
  frame_id: ''
D: 0.482201260712
delta: -0.37312747929
dD: 0.260932079519
ddelta: -0.313045421798
---
header: 
  seq: 3270
  stamp: 
    secs: 1604261646
    nsecs: 305329869
  frame_id: ''
D: 0.486077429501
delta: -0.369946370888
dD: 0.193808439461
ddelta: 0.159055420114
---
header: 
  seq: 3271
  stamp: 
    secs: 1604261646
    nsecs: 325323472
  frame_id: ''
D: 0.488222098256
delta: -0.361010993135
dD: 0.107233437718
ddelta: 0.446768887622
---
header: 
  seq: 3272
  stamp: 
    secs: 1604261646
    nsecs: 345322160
  frame_id: ''
D: 0.491098982948
delta: -0.356567839562
dD: 0.14384423459
ddelta: 0.222157678674
---
header: 
  seq: 3273
  stamp: 
    secs: 1604261646
    nsecs: 365329388
  frame_id: ''
D: 0.495543375889
delta: -0.359340116657
dD: 0.222219647059
ddelta: -0.138613854772
---
header: 
  seq: 3274
  stamp: 
    secs: 1604261646
    nsecs: 385320865
  frame_id: ''
D: 0.49880472526
delta: -0.368593009512
dD: 0.163067468537
ddelta: -0.462644642723
---
header: 
  seq: 3275
  stamp: 
    secs: 1604261646
    nsecs: 405320142
  frame_id: ''
D: 0.497262482433
delta: -0.386849797747
dD: -0.0771121413224
ddelta: -0.91283941179
---
header: 
  seq: 3276
  stamp: 
    secs: 1604261646
    nsecs: 425325500
  frame_id: ''
D: 0.493116073649
delta: -0.39999999192
dD: -0.207320439195
ddelta: -0.657509708644
---
header: 
  seq: 3277
  stamp: 
    secs: 1604261646
    nsecs: 445336291
  frame_id: ''
D: 0.492969745162
delta: -0.399999999999
dD: -0.00731642434911
ddelta: -4.03942454374e-07
---
header: 
  seq: 3278
  stamp: 
    secs: 1604261646
    nsecs: 465322247
  frame_id: ''
D: 0.492670598788
delta: -0.399999999246
dD: -0.0149573187068
ddelta: 3.76765517935e-08
---
header: 
  seq: 3279
  stamp: 
    secs: 1604261646
    nsecs: 485325803
  frame_id: ''
D: 0.493162269482
delta: -0.399999999999
dD: 0.0245835346826
ddelta: -3.76813133988e-08
---
header: 
  seq: 3280
  stamp: 
    secs: 1604261646
    nsecs: 505326449
  frame_id: ''
D: 0.492188794956
delta: -0.4
dD: -0.0486737262945
ddelta: -3.97192731887e-11
---
header: 
  seq: 3281
  stamp: 
    secs: 1604261646
    nsecs: 535319006
  frame_id: ''
D: 0.495806452555
delta: -0.399999996688
dD: 0.180882879945
ddelta: 1.6560123369e-07
---
header: 
  seq: 3282
  stamp: 
    secs: 1604261646
    nsecs: 545327960
  frame_id: ''
D: 0.499976262393
delta: -0.399999918585
dD: 0.208490491925
ddelta: 3.90516642073e-06
---
header: 
  seq: 3283
  stamp: 
    secs: 1604261646
    nsecs: 565323673
  frame_id: ''
D: 0.505504462834
delta: -0.396614866907
dD: 0.276410022014
ddelta: 0.16925258389
---
header: 
  seq: 3284
  stamp: 
    secs: 1604261646
    nsecs: 585321105
  frame_id: ''
D: 0.507250051561
delta: -0.396539852472
dD: 0.0872794363817
ddelta: 0.00375072175188
---
header: 
  seq: 3285
  stamp: 
    secs: 1604261646
    nsecs: 605333918
  frame_id: ''
D: 0.507318284837
delta: -0.392898578848
dD: 0.00341166381311
ddelta: 0.182063681176
---
header: 
  seq: 3286
  stamp: 
    secs: 1604261646
    nsecs: 625325375
  frame_id: ''
D: 0.506501531985
delta: -0.387050312556
dD: -0.0408376426337
ddelta: 0.292413314603
---
header: 
  seq: 3287
  stamp: 
    secs: 1604261646
    nsecs: 645321167
  frame_id: ''
D: 0.508311165177
delta: -0.376515060115
dD: 0.0904816596245
ddelta: 0.526762622046
---
header: 
  seq: 3288
  stamp: 
    secs: 1604261646
    nsecs: 665332821
  frame_id: ''
D: 0.510459303453
delta: -0.371621016392
dD: 0.107406913784
ddelta: 0.244702186186
---
header: 
  seq: 3289
  stamp: 
    secs: 1604261646
    nsecs: 685321725
  frame_id: ''
D: 0.508565081355
delta: -0.374039159988
dD: -0.0947111048817
ddelta: -0.120907179843
---
header: 
  seq: 3290
  stamp: 
    secs: 1604261646
    nsecs: 705316032
  frame_id: ''
D: 0.505478489836
delta: -0.377691522004
dD: -0.154329575962
ddelta: -0.18261810077
---
header: 
  seq: 3291
  stamp: 
    secs: 1604261646
    nsecs: 725326395
  frame_id: ''
D: 0.505915330023
delta: -0.376960461604
dD: 0.0218420093713
ddelta: 0.0365530199886
---
header: 
  seq: 3292
  stamp: 
    secs: 1604261646
    nsecs: 745322822
  frame_id: ''
D: 0.506696221023
delta: -0.380700007759
dD: 0.0390445499826
ddelta: -0.186977307762
---
header: 
  seq: 3293
  stamp: 
    secs: 1604261646
    nsecs: 765318995
  frame_id: ''
D: 0.507276678198
delta: -0.378011222486
dD: 0.0290228587452
ddelta: 0.134439263673
---
header: 
  seq: 3294
  stamp: 
    secs: 1604261646
    nsecs: 785325071
  frame_id: ''
D: 0.503641909978
delta: -0.356777946858
dD: -0.181738410971
ddelta: 1.06166378091
---
header: 
  seq: 3295
  stamp: 
    secs: 1604261646
    nsecs: 805321642
  frame_id: ''
D: 0.501059876084
delta: -0.336173525999
dD: -0.129101694717
ddelta: 1.03022104296
---
header: 
  seq: 3296
  stamp: 
    secs: 1604261646
    nsecs: 825319368
  frame_id: ''
D: 0.50148260891
delta: -0.321136438412
dD: 0.02113664131
ddelta: 0.751854379326
---
header: 
  seq: 3297
  stamp: 
    secs: 1604261646
    nsecs: 845332526
  frame_id: ''
D: 0.505176930644
delta: -0.313284289855
dD: 0.184716086719
ddelta: 0.392607427844
---
header: 
  seq: 3298
  stamp: 
    secs: 1604261646
    nsecs: 875321546
  frame_id: ''
D: 0.50309718614
delta: -0.319331591883
dD: -0.103987225197
ddelta: -0.302365101381
---
header: 
  seq: 3299
  stamp: 
    secs: 1604261646
    nsecs: 895329492
  frame_id: ''
D: 0.497437365558
delta: -0.335826295021
dD: -0.282991029105
ddelta: -0.824735156912
---
header: 
  seq: 3300
  stamp: 
    secs: 1604261646
    nsecs: 915323691
  frame_id: ''
D: 0.492155242777
delta: -0.356484380846
dD: -0.26410613906
ddelta: -1.03290429127
---
header: 
  seq: 3301
  stamp: 
    secs: 1604261646
    nsecs: 935321033
  frame_id: ''
D: 0.487458980851
delta: -0.378706107733
dD: -0.234813096295
ddelta: -1.11108634433
---
header: 
  seq: 3302
  stamp: 
    secs: 1604261646
    nsecs: 945319257
  frame_id: ''
D: 0.485152348896
delta: -0.395056930717
dD: -0.115331597738
ddelta: -0.817541149195
---
header: 
  seq: 3303
  stamp: 
    secs: 1604261646
    nsecs: 965330040
  frame_id: ''
D: 0.483751455963
delta: -0.4
dD: -0.0700446466856
ddelta: -0.247153464156
---
header: 
  seq: 3304
  stamp: 
    secs: 1604261646
    nsecs: 985320010
  frame_id: ''
D: 0.483695940144
delta: -0.397296056294
dD: -0.00277579092334
ddelta: 0.135197185279
---
header: 
  seq: 3305
  stamp: 
    secs: 1604261647
    nsecs:   5318769
  frame_id: ''
D: 0.488099082429
delta: -0.375140739833
dD: 0.220157114233
ddelta: 1.10776582306
---
header: 
  seq: 3306
  stamp: 
    secs: 1604261647
    nsecs:  25317337
  frame_id: ''
D: 0.490936127769
delta: -0.349189375466
dD: 0.141852267028
ddelta: 1.29756821835
---
header: 
  seq: 3307
  stamp: 
    secs: 1604261647
    nsecs:  45325701
  frame_id: ''
D: 0.49163312394
delta: -0.32762776126
dD: 0.034849808544
ddelta: 1.07808071032
---
header: 
  seq: 3308
  stamp: 
    secs: 1604261647
    nsecs:  65320943
  frame_id: ''
D: 0.490980168098
delta: -0.308668597289
dD: -0.032647792102
ddelta: 0.947958198515
---
header: 
  seq: 3309
  stamp: 
    secs: 1604261647
    nsecs:  85316787
  frame_id: ''
D: 0.491487361172
delta: -0.292649337013
dD: 0.0253596536622
ddelta: 0.800963013822
---
header: 
  seq: 3310
  stamp: 
    secs: 1604261647
    nsecs: 105318208
  frame_id: ''
D: 0.493368687906
delta: -0.285626151655
dD: 0.0940663367298
ddelta: 0.351159267911
---
header: 
  seq: 3311
  stamp: 
    secs: 1604261647
    nsecs: 125327053
  frame_id: ''
D: 0.497031314357
delta: -0.283709583631
dD: 0.183131322552
ddelta: 0.0958284012034
---
header: 
  seq: 3312
  stamp: 
    secs: 1604261647
    nsecs: 145321367
  frame_id: ''
D: 0.499165746424
delta: -0.286900289657
dD: 0.106721603315
ddelta: -0.159535301326
---
header: 
  seq: 3313
  stamp: 
    secs: 1604261647
    nsecs: 165346110
  frame_id: ''
D: 0.499031811133
delta: -0.283538959351
dD: -0.00669676450285
ddelta: 0.168066515302
---
header: 
  seq: 3314
  stamp: 
    secs: 1604261647
    nsecs: 185322641
  frame_id: ''
D: 0.499966892015
delta: -0.280078785475
dD: 0.0467540441015
ddelta: 0.173008693816
---
header: 
  seq: 3315
  stamp: 
    secs: 1604261647
    nsecs: 205323979
  frame_id: ''
D: 0.501412229658
delta: -0.27863053443
dD: 0.0722668821193
ddelta: 0.072412552225
---
header: 
  seq: 3316
  stamp: 
    secs: 1604261647
    nsecs: 225329524
  frame_id: ''
D: 0.502433494375
delta: -0.277127776971
dD: 0.0510632358537
ddelta: 0.0751378729695
---
header: 
  seq: 3317
  stamp: 
    secs: 1604261647
    nsecs: 245325170
  frame_id: ''
D: 0.500527328819
delta: -0.277478612459
dD: -0.0953082777751
ddelta: -0.0175417744194
---
header: 
  seq: 3318
  stamp: 
    secs: 1604261647
    nsecs: 265320282
  frame_id: ''
D: 0.497543708667
delta: -0.281390315478
dD: -0.149181007614
ddelta: -0.195585150952
---
header: 
  seq: 3319
  stamp: 
    secs: 1604261647
    nsecs: 285325912
  frame_id: ''
D: 0.496169228744
delta: -0.277780455149
dD: -0.0687239961507
ddelta: 0.18049301649
---
header: 
  seq: 3320
  stamp: 
    secs: 1604261647
    nsecs: 305318184
  frame_id: ''
D: 0.49682801777
delta: -0.282728515846
dD: 0.0329394513003
ddelta: -0.247403034862
---
header: 
  seq: 3321
  stamp: 
    secs: 1604261647
    nsecs: 325318244
  frame_id: ''
D: 0.495389198022
delta: -0.288300282945
dD: -0.0719409874241
ddelta: -0.27858835498
---
header: 
  seq: 3322
  stamp: 
    secs: 1604261647
    nsecs: 345327551
  frame_id: ''
D: 0.493855136152
delta: -0.290983902794
dD: -0.0767030934603
ddelta: -0.134180992414
---
header: 
  seq: 3323
  stamp: 
    secs: 1604261647
    nsecs: 365326801
  frame_id: ''
D: 0.492238117457
delta: -0.294517159753
dD: -0.0808509347779
ddelta: -0.176662847958
---
header: 
  seq: 3324
  stamp: 
    secs: 1604261647
    nsecs: 385316686
  frame_id: ''
D: 0.491579206106
delta: -0.300523258219
dD: -0.0329455675702
ddelta: -0.300304923295
---
header: 
  seq: 3325
  stamp: 
    secs: 1604261647
    nsecs: 405321794
  frame_id: ''
D: 0.492168683255
delta: -0.309096999216
dD: 0.0294738574593
ddelta: -0.428687049834
---
header: 
  seq: 3326
  stamp: 
    secs: 1604261647
    nsecs: 425322561
  frame_id: ''
D: 0.48966768944
delta: -0.316164081363
dD: -0.125049690728
ddelta: -0.353354107393
---
header: 
  seq: 3327
  stamp: 
    secs: 1604261647
    nsecs: 445322686
  frame_id: ''
D: 0.48786434009
delta: -0.323315996645
dD: -0.0901674674863
ddelta: -0.357595764071
---
header: 
  seq: 3328
  stamp: 
    secs: 1604261647
    nsecs: 465332394
  frame_id: ''
D: 0.487718764685
delta: -0.325548744823
dD: -0.00727877026149
ddelta: -0.111637408926
---
header: 
  seq: 3329
  stamp: 
    secs: 1604261647
    nsecs: 485326085
  frame_id: ''
D: 0.489017046512
delta: -0.327428123616
dD: 0.0649140913164
ddelta: -0.0939689396534
---
header: 
  seq: 3330
  stamp: 
    secs: 1604261647
    nsecs: 505316377
  frame_id: ''
D: 0.491295785431
delta: -0.329091510178
dD: 0.11393694596
ddelta: -0.083169328095
---
header: 
  seq: 3331
  stamp: 
    secs: 1604261647
    nsecs: 525330302
  frame_id: ''
D: 0.490508715474
delta: -0.326981143502
dD: -0.0393534978339
ddelta: 0.105518333791
---
header: 
  seq: 3332
  stamp: 
    secs: 1604261647
    nsecs: 545318207
  frame_id: ''
D: 0.488434837471
delta: -0.325650465155
dD: -0.103693900176
ddelta: 0.06653391736
---
header: 
  seq: 3333
  stamp: 
    secs: 1604261647
    nsecs: 565316053
  frame_id: ''
D: 0.487079891302
delta: -0.325417070418
dD: -0.067747308437
ddelta: 0.0116697368402
---
header: 
  seq: 3334
  stamp: 
    secs: 1604261647
    nsecs: 585354288
  frame_id: ''
D: 0.487357192938
delta: -0.322142761621
dD: 0.0138650817959
ddelta: 0.16371543987
---
header: 
  seq: 3335
  stamp: 
    secs: 1604261647
    nsecs: 605321913
  frame_id: ''
D: 0.486788972752
delta: -0.316519694076
dD: -0.0284110092905
ddelta: 0.281153377262
---
header: 
  seq: 3336
  stamp: 
    secs: 1604261647
    nsecs: 625320533
  frame_id: ''
D: 0.483085876515
delta: -0.303996297016
dD: -0.185154811837
ddelta: 0.626169852994
---
header: 
  seq: 3337
  stamp: 
    secs: 1604261647
    nsecs: 645328250
  frame_id: ''
D: 0.479678007625
delta: -0.291221747312
dD: -0.170393444498
ddelta: 0.638727485166
---
header: 
  seq: 3338
  stamp: 
    secs: 1604261647
    nsecs: 665318114
  frame_id: ''
D: 0.477660653872
delta: -0.278319039451
dD: -0.100867687656
ddelta: 0.64513539309
---
header: 
  seq: 3339
  stamp: 
    secs: 1604261647
    nsecs: 685318634
  frame_id: ''
D: 0.477515545821
delta: -0.267612327793
dD: -0.00725540255441
ddelta: 0.535335582895
---
header: 
  seq: 3340
  stamp: 
    secs: 1604261647
    nsecs: 705326216
  frame_id: ''
D: 0.476415199929
delta: -0.253571606228
dD: -0.0550172946072
ddelta: 0.702036078217
---
header: 
  seq: 3341
  stamp: 
    secs: 1604261647
    nsecs: 725325165
  frame_id: ''
D: 0.474982033139
delta: -0.239320791703
dD: -0.0716583394868
ddelta: 0.712540726267
---
header: 
  seq: 3342
  stamp: 
    secs: 1604261647
    nsecs: 745319043
  frame_id: ''
D: 0.47474949562
delta: -0.22216043064
dD: -0.0116268759748
ddelta: 0.858018053151
---
header: 
  seq: 3343
  stamp: 
    secs: 1604261647
    nsecs: 765332667
  frame_id: ''
D: 0.475798010217
delta: -0.208757196985
dD: 0.0524257298843
ddelta: 0.670161682781
---
header: 
  seq: 3344
  stamp: 
    secs: 1604261647
    nsecs: 785317538
  frame_id: ''
D: 0.478847544664
delta: -0.197509649473
dD: 0.152476722349
ddelta: 0.562377375564
---
header: 
  seq: 3345
  stamp: 
    secs: 1604261647
    nsecs: 805317271
  frame_id: ''
D: 0.479173522355
delta: -0.169258104252
dD: 0.016298884531
ddelta: 1.41257726109
---
header: 
  seq: 3346
  stamp: 
    secs: 1604261647
    nsecs: 825329504
  frame_id: ''
D: 0.47931388747
delta: -0.139767593096
dD: 0.00701825574115
ddelta: 1.47452555777
---
header: 
  seq: 3347
  stamp: 
    secs: 1604261647
    nsecs: 845317599
  frame_id: ''
D: 0.481040318635
delta: -0.121262619775
dD: 0.0863215582427
ddelta: 0.925248666039
---
header: 
  seq: 3348
  stamp: 
    secs: 1604261647
    nsecs: 865321813
  frame_id: ''
D: 0.487865256781
delta: -0.129349666252
dD: 0.341246907328
ddelta: -0.404352323836
---
header: 
  seq: 3349
  stamp: 
    secs: 1604261647
    nsecs: 895322005
  frame_id: ''
D: 0.492981513264
delta: -0.126079941738
dD: 0.255812824165
ddelta: 0.163486225693
---
header: 
  seq: 3350
  stamp: 
    secs: 1604261647
    nsecs: 905318394
  frame_id: ''
D: 0.497274173228
delta: -0.128178613681
dD: 0.214632998155
ddelta: -0.10493359714
---
header: 
  seq: 3351
  stamp: 
    secs: 1604261647
    nsecs: 925323115
  frame_id: ''
D: 0.503163115749
delta: -0.119969746785
dD: 0.294447126088
ddelta: 0.410443344783
---
header: 
  seq: 3352
  stamp: 
    secs: 1604261647
    nsecs: 945321410
  frame_id: ''
D: 0.510751905717
delta: -0.10773309468
dD: 0.379439498396
ddelta: 0.61183260528
---
header: 
  seq: 3353
  stamp: 
    secs: 1604261647
    nsecs: 965316266
  frame_id: ''
D: 0.518734365056
delta: -0.0952956076696
dD: 0.39912296695
ddelta: 0.62187435051
---
header: 
  seq: 3354
  stamp: 
    secs: 1604261647
    nsecs: 985324871
  frame_id: ''
D: 0.522547856314
delta: -0.0839940475931
dD: 0.190674562902
ddelta: 0.565078003827
---
header: 
  seq: 3355
  stamp: 
    secs: 1604261648
    nsecs:   5328001
  frame_id: ''
D: 0.524558557876
delta: -0.0749783403277
dD: 0.100535078063
ddelta: 0.45078536327
---
header: 
  seq: 3356
  stamp: 
    secs: 1604261648
    nsecs:  25318501
  frame_id: ''
D: 0.526070369119
delta: -0.0682412401242
dD: 0.0755905621823
ddelta: 0.336855010172
---
header: 
  seq: 3357
  stamp: 
    secs: 1604261648
    nsecs:  45332295
  frame_id: ''
D: 0.530605260377
delta: -0.0637685747008
dD: 0.226744562871
ddelta: 0.223633271173
---
header: 
  seq: 3358
  stamp: 
    secs: 1604261648
    nsecs:  65319902
  frame_id: ''
D: 0.529506415875
delta: -0.0597635783951
dD: -0.0549422250808
ddelta: 0.200249815283
---
header: 
  seq: 3359
  stamp: 
    secs: 1604261648
    nsecs:  85318911
  frame_id: ''
D: 0.529507147884
delta: -0.0571934109414
dD: 3.66004679401e-05
ddelta: 0.128508372686
---
header: 
  seq: 3360
  stamp: 
    secs: 1604261648
    nsecs: 105330234
  frame_id: ''
D: 0.528793038877
delta: -0.0550927306353
dD: -0.0357054503431
ddelta: 0.105034015304
---
header: 
  seq: 3361
  stamp: 
    secs: 1604261648
    nsecs: 125319607
  frame_id: ''
D: 0.528442587843
delta: -0.0534844774627
dD: -0.0175225517385
ddelta: 0.0804126586298
---
header: 
  seq: 3362
  stamp: 
    secs: 1604261648
    nsecs: 145317369
  frame_id: ''
D: 0.528828091881
delta: -0.0521715791818
dD: 0.0192752018948
ddelta: 0.0656449140457
---
header: 
  seq: 3363
  stamp: 
    secs: 1604261648
    nsecs: 165333314
  frame_id: ''
D: 0.524471076004
delta: -0.0504889034622
dD: -0.217850793843
ddelta: 0.0841337859828
---
header: 
  seq: 3364
  stamp: 
    secs: 1604261648
    nsecs: 185319225
  frame_id: ''
D: 0.517733875368
delta: -0.048930372779
dD: -0.336860031807
ddelta: 0.0779265341599
---
header: 
  seq: 3365
  stamp: 
    secs: 1604261648
    nsecs: 205316197
  frame_id: ''
D: 0.51399411869
delta: -0.0478064070256
dD: -0.186987833865
ddelta: 0.0561982876659
---
header: 
  seq: 3366
  stamp: 
    secs: 1604261648
    nsecs: 225325118
  frame_id: ''
D: 0.511351176408
delta: -0.0466060289993
dD: -0.132147114108
ddelta: 0.0600189013191
---
header: 
  seq: 3367
  stamp: 
    secs: 1604261648
    nsecs: 245325226
  frame_id: ''
D: 0.508799815336
delta: -0.0453258481778
dD: -0.127568053605
ddelta: 0.0640090410735
---
header: 
  seq: 3368
  stamp: 
    secs: 1604261648
    nsecs: 265318170
  frame_id: ''
D: 0.504167492548
delta: -0.0437921526159
dD: -0.231616139386
ddelta: 0.0766847780968
---
header: 
  seq: 3369
  stamp: 
    secs: 1604261648
    nsecs: 285323937
  frame_id: ''
D: 0.500759479142
delta: -0.0424525066425
dD: -0.170400670327
ddelta: 0.0669822986677
---
header: 
  seq: 3370
  stamp: 
    secs: 1604261648
    nsecs: 315317529
  frame_id: ''
D: 0.499072237431
delta: -0.0410281144928
dD: -0.0843620855423
ddelta: 0.071219607485
---
header: 
  seq: 3371
  stamp: 
    secs: 1604261648
    nsecs: 325318474
  frame_id: ''
D: 0.4964435973
delta: -0.03972102596
dD: -0.131432006552
ddelta: 0.0653544266377
---
header: 
  seq: 3372
  stamp: 
    secs: 1604261648
    nsecs: 345322123
  frame_id: ''
D: 0.494021413903
delta: -0.0385509340596
dD: -0.121109169868
ddelta: 0.0585045950241
---
header: 
  seq: 3373
  stamp: 
    secs: 1604261648
    nsecs: 365322761
  frame_id: ''
D: 0.490048537363
delta: -0.0373700739268
dD: -0.198643826977
ddelta: 0.05904300664
---
header: 
  seq: 3374
  stamp: 
    secs: 1604261648
    nsecs: 395350158
  frame_id: ''
D: 0.488053117931
delta: -0.0365333101329
dD: -0.0997709716099
ddelta: 0.0418381896938
---
header: 
  seq: 3375
  stamp: 
    secs: 1604261648
    nsecs: 415323484
  frame_id: ''
D: 0.487864739642
delta: -0.0361057028001
dD: -0.0094189144347
ddelta: 0.0213803666386
---
header: 
  seq: 3376
  stamp: 
    secs: 1604261648
    nsecs: 435315972
  frame_id: ''
D: 0.48356112485
delta: -0.0357461132128
dD: -0.215180739622
ddelta: 0.0179794793633
---
header: 
  seq: 3377
  stamp: 
    secs: 1604261648
    nsecs: 455321874
  frame_id: ''
D: 0.478087679717
delta: -0.034123550144
dD: -0.273672256617
ddelta: 0.0811281534434
---
header: 
  seq: 3378
  stamp: 
    secs: 1604261648
    nsecs: 475355434
  frame_id: ''
D: 0.473532965935
delta: -0.0341020023318
dD: -0.227735689137
ddelta: 0.0010773906078
---
header: 
  seq: 3379
  stamp: 
    secs: 1604261648
    nsecs: 495321764
  frame_id: ''
D: 0.470504498308
delta: -0.0352694892785
dD: -0.151423381347
ddelta: -0.0583743473315
---
header: 
  seq: 3380
  stamp: 
    secs: 1604261648
    nsecs: 505319750
  frame_id: ''
D: 0.470160559369
delta: -0.0367883097846
dD: -0.0171969469445
ddelta: -0.0759410253072
---
header: 
  seq: 3381
  stamp: 
    secs: 1604261648
    nsecs: 525322975
  frame_id: ''
D: 0.465814799917
delta: -0.039029089408
dD: -0.217287972595
ddelta: -0.11203898117
---
header: 
  seq: 3382
  stamp: 
    secs: 1604261648
    nsecs: 545328359
  frame_id: ''
D: 0.461048419786
delta: -0.0412171921657
dD: -0.238319006556
ddelta: -0.109405137886
---
header: 
  seq: 3383
  stamp: 
    secs: 1604261648
    nsecs: 565323911
  frame_id: ''
D: 0.457592138067
delta: -0.0427420400842
dD: -0.172814085924
ddelta: -0.0762423959239
---
header: 
  seq: 3384
  stamp: 
    secs: 1604261648
    nsecs: 585320862
  frame_id: ''
D: 0.456340044796
delta: -0.0461139276407
dD: -0.0626046635397
ddelta: -0.168594377827
---
header: 
  seq: 3385
  stamp: 
    secs: 1604261648
    nsecs: 605327257
  frame_id: ''
D: 0.459485901919
delta: -0.0505388126763
dD: 0.157292856145
ddelta: -0.22124425178
---
header: 
  seq: 3386
  stamp: 
    secs: 1604261648
    nsecs: 625325037
  frame_id: ''
D: 0.462256001788
delta: -0.0558201247046
dD: 0.138504993445
ddelta: -0.264065601414
---
header: 
  seq: 3387
  stamp: 
    secs: 1604261648
    nsecs: 645320798
  frame_id: ''
D: 0.463106908912
delta: -0.0620589865096
dD: 0.0425453561653
ddelta: -0.31194309025
---
header: 
  seq: 3388
  stamp: 
    secs: 1604261648
    nsecs: 665326303
  frame_id: ''
D: 0.465495902351
delta: -0.0689728227552
dD: 0.119449671972
ddelta: -0.345691812281
---
header: 
  seq: 3389
  stamp: 
    secs: 1604261648
    nsecs: 685321708
  frame_id: ''
D: 0.46868249377
delta: -0.0765108177426
dD: 0.159329570972
ddelta: -0.376899749371
---
header: 
  seq: 3390
  stamp: 
    secs: 1604261648
    nsecs: 705317297
  frame_id: ''
D: 0.472065670598
delta: -0.084837315814
dD: 0.169158841385
ddelta: -0.41632490357
---
header: 
  seq: 3391
  stamp: 
    secs: 1604261648
    nsecs: 725320601
  frame_id: ''
D: 0.471609838778
delta: -0.0948132709711
dD: -0.0227915910305
ddelta: -0.498797757851
---
header: 
  seq: 3392
  stamp: 
    secs: 1604261648
    nsecs: 745323320
  frame_id: ''
D: 0.47372717685
delta: -0.105734535429
dD: 0.105866903643
ddelta: -0.546063222913
---
header: 
  seq: 3393
  stamp: 
    secs: 1604261648
    nsecs: 765322711
  frame_id: ''
D: 0.476945239159
delta: -0.117408855513
dD: 0.160903115418
ddelta: -0.583716004208
---
header: 
  seq: 3394
  stamp: 
    secs: 1604261648
    nsecs: 785323342
  frame_id: ''
D: 0.480247649277
delta: -0.1299252882
dD: 0.165120505889
ddelta: -0.62582163433
---
header: 
  seq: 3395
  stamp: 
    secs: 1604261648
    nsecs: 805316711
  frame_id: ''
D: 0.48310068579
delta: -0.143225274474
dD: 0.142651825685
ddelta: -0.66499931371
---
header: 
  seq: 3396
  stamp: 
    secs: 1604261648
    nsecs: 825319033
  frame_id: ''
D: 0.483485786412
delta: -0.158123312078
dD: 0.019255031098
ddelta: -0.744901880188
---
header: 
  seq: 3397
  stamp: 
    secs: 1604261648
    nsecs: 845319569
  frame_id: ''
D: 0.484658633759
delta: -0.173770425418
dD: 0.0586423673366
ddelta: -0.782355666987
---
header: 
  seq: 3398
  stamp: 
    secs: 1604261648
    nsecs: 865319421
  frame_id: ''
D: 0.486024685976
delta: -0.189407290156
dD: 0.0683026108341
ddelta: -0.781843236906
---
header: 
  seq: 3399
  stamp: 
    secs: 1604261648
    nsecs: 895352275
  frame_id: ''
D: 0.490384121575
delta: -0.20578563126
dD: 0.217971779956
ddelta: -0.81891705519
---
header: 
  seq: 3400
  stamp: 
    secs: 1604261648
    nsecs: 905321277
  frame_id: ''
D: 0.491625208235
delta: -0.218890338743
dD: 0.0620543330234
ddelta: -0.655235374156
---
header: 
  seq: 3401
  stamp: 
    secs: 1604261648
    nsecs: 925320488
  frame_id: ''
D: 0.493505179593
delta: -0.219784563955
dD: 0.0939985678862
ddelta: -0.0447112606134
---
header: 
  seq: 3402
  stamp: 
    secs: 1604261648
    nsecs: 945328609
  frame_id: ''
D: 0.495379611942
delta: -0.225626260896
dD: 0.0937216174358
ddelta: -0.292084847049
---
header: 
  seq: 3403
  stamp: 
    secs: 1604261648
    nsecs: 965319868
  frame_id: ''
D: 0.499015373449
delta: -0.234162197219
dD: 0.181788075373
ddelta: -0.426796816143
---
header: 
  seq: 3404
  stamp: 
    secs: 1604261648
    nsecs: 985321248
  frame_id: ''
D: 0.502381901118
delta: -0.245884127906
dD: 0.168326383439
