header: 
  seq: 2501
  stamp: 
    secs: 1603810188
    nsecs: 536244415
  frame_id: ''
s: 0.414847445479
n: 0.0320057558497
alpha: 6.27174899866
v: 0.454465922638
---
header: 
  seq: 2502
  stamp: 
    secs: 1603810188
    nsecs: 546248637
  frame_id: ''
s: 0.418507570631
n: 0.0319246326277
alpha: 6.27248442541
v: 0.443318408211
---
header: 
  seq: 2503
  stamp: 
    secs: 1603810188
    nsecs: 556246203
  frame_id: ''
s: 0.423166858869
n: 0.0318558041043
alpha: 6.27312479539
v: 0.446121021774
---
header: 
  seq: 2504
  stamp: 
    secs: 1603810188
    nsecs: 566255671
  frame_id: ''
s: 0.427762268589
n: 0.0317924823659
alpha: 6.27366193875
v: 0.447781545201
---
header: 
  seq: 2505
  stamp: 
    secs: 1603810188
    nsecs: 576247266
  frame_id: ''
s: 0.432298973063
n: 0.0317362107474
alpha: 6.27409641215
v: 0.448505087494
---
header: 
  seq: 2506
  stamp: 
    secs: 1603810188
    nsecs: 586246280
  frame_id: ''
s: 0.435833299762
n: 0.0316800154896
alpha: 6.27443471322
v: 0.436563704459
---
header: 
  seq: 2507
  stamp: 
    secs: 1603810188
    nsecs: 596243215
  frame_id: ''
s: 0.440388104057
n: 0.0316414018377
alpha: 6.27468701982
v: 0.438931761859
---
header: 
  seq: 2508
  stamp: 
    secs: 1603810188
    nsecs: 606278566
  frame_id: ''
s: 0.443949188221
n: 0.0316035868275
alpha: 6.27486542285
v: 0.42853404425
---
header: 
  seq: 2509
  stamp: 
    secs: 1603810188
    nsecs: 616254007
  frame_id: ''
s: 0.448536737429
n: 0.0315834025944
alpha: 6.27498260269
v: 0.432324867698
---
header: 
  seq: 2510
  stamp: 
    secs: 1603810188
    nsecs: 626250633
  frame_id: ''
s: 0.452134310171
n: 0.0315635412769
alpha: 6.27505088774
v: 0.423216833501
---
header: 
  seq: 2511
  stamp: 
    secs: 1603810188
    nsecs: 636248149
  frame_id: ''
s: 0.455810908702
n: 0.0315524625226
alpha: 6.27508163105
v: 0.416244160211
---
header: 
  seq: 2512
  stamp: 
    secs: 1603810188
    nsecs: 646247332
  frame_id: ''
s: 0.459565573347
n: 0.0315495247157
alpha: 6.27508484151
v: 0.411126558651
---
header: 
  seq: 2513
  stamp: 
    secs: 1603810188
    nsecs: 656250508
  frame_id: ''
s: 0.464344713907
n: 0.0315619792905
alpha: 6.27506901156
v: 0.419508284833
---
header: 
  seq: 2514
  stamp: 
    secs: 1603810188
    nsecs: 666247657
  frame_id: ''
s: 0.468126987701
n: 0.0315721055689
alpha: 6.27504108951
v: 0.414327875972
---
header: 
  seq: 2515
  stamp: 
    secs: 1603810188
    nsecs: 676248909
  frame_id: ''
s: 0.472927110511
n: 0.031596093564
alpha: 6.2750065526
v: 0.422571512958
---
header: 
  seq: 2516
  stamp: 
    secs: 1603810188
    nsecs: 686269158
  frame_id: ''
s: 0.47672462717
n: 0.0316162411031
alpha: 6.27496954466
v: 0.417198319026
---
header: 
  seq: 2517
  stamp: 
    secs: 1603810188
    nsecs: 696250185
  frame_id: ''
s: 0.479636437086
n: 0.0316328397552
alpha: 6.27493304979
v: 0.401384161845
---
header: 
  seq: 2518
  stamp: 
    secs: 1603810188
    nsecs: 706242779
  frame_id: ''
s: 0.483676829214
n: 0.0316621702772
alpha: 6.27489908036
v: 0.401718311033
---
header: 
  seq: 2519
  stamp: 
    secs: 1603810188
    nsecs: 716244666
  frame_id: ''
s: 0.486821928224
n: 0.031686632584
alpha: 6.27486886361
v: 0.390774930519
---
header: 
  seq: 2520
  stamp: 
    secs: 1603810188
    nsecs: 726250221
  frame_id: ''
s: 0.490132313966
n: 0.0317146038129
alpha: 6.27484301612
v: 0.383279406397
---
header: 
  seq: 2521
  stamp: 
    secs: 1603810188
    nsecs: 736255028
  frame_id: ''
s: 0.493598070358
n: 0.0317455252484
alpha: 6.27482169973
v: 0.378674604691
---
header: 
  seq: 2522
  stamp: 
    secs: 1603810188
    nsecs: 746249149
  frame_id: ''
s: 0.498156485242
n: 0.0317868575645
alpha: 6.27480475528
v: 0.388360658713
---
header: 
  seq: 2523
  stamp: 
    secs: 1603810188
    nsecs: 756245874
  frame_id: ''
s: 0.50177721961
n: 0.0318211817508
alpha: 6.27479181337
v: 0.385063472435
---
header: 
  seq: 2524
  stamp: 
    secs: 1603810188
    nsecs: 766241076
  frame_id: ''
s: 0.506466341534
n: 0.0318650529637
alpha: 6.27478238262
v: 0.395588420178
---
header: 
  seq: 2525
  stamp: 
    secs: 1603810188
    nsecs: 776248117
  frame_id: ''
s: 0.510195260444
n: 0.0319011733587
alpha: 6.27477591748
v: 0.392742101058
---
header: 
  seq: 2526
  stamp: 
    secs: 1603810188
    nsecs: 786260120
  frame_id: ''
s: 0.514022699059
n: 0.0319382355395
alpha: 6.27477186777
v: 0.391489459259
---
header: 
  seq: 2527
  stamp: 
    secs: 1603810188
    nsecs: 796253554
  frame_id: ''
s: 0.517939158903
n: 0.0319759977455
alpha: 6.27476971295
v: 0.391511266482
---
header: 
  seq: 2528
  stamp: 
    secs: 1603810188
    nsecs: 806255512
  frame_id: ''
s: 0.52098543629
n: 0.0320062749146
alpha: 6.27476898375
v: 0.3806095616
---
header: 
  seq: 2529
  stamp: 
    secs: 1603810188
    nsecs: 816247451
  frame_id: ''
s: 0.525176597651
n: 0.0310965076897
alpha: 6.27476927398
v: 0.385532683036
---
header: 
  seq: 2530
  stamp: 
    secs: 1603810188
    nsecs: 826244105
  frame_id: ''
s: 0.528465986345
n: 0.0312465488352
alpha: 6.27477024483
v: 0.378387100496
---
header: 
  seq: 2531
  stamp: 
    secs: 1603810188
    nsecs: 836241422
  frame_id: ''
s: 0.531918574489
n: 0.0313944765441
alpha: 6.27477162379
v: 0.374204420277
---
header: 
  seq: 2532
  stamp: 
    secs: 1603810188
    nsecs: 846250843
  frame_id: ''
s: 0.535528921535
n: 0.0305883027682
alpha: 6.27477320001
v: 0.372764461184
---
header: 
  seq: 2533
  stamp: 
    secs: 1603810188
    nsecs: 856251237
  frame_id: ''
s: 0.540230753303
n: 0.0289523797227
alpha: 6.27477481735
v: 0.386109650376
---
header: 
  seq: 2534
  stamp: 
    secs: 1603810188
    nsecs: 866248824
  frame_id: ''
s: 0.544036593751
n: 0.0279321643036
alpha: 6.23002285976
v: 0.386410359214
---
header: 
  seq: 2535
  stamp: 
    secs: 1603810188
    nsecs: 876246448
  frame_id: ''
s: 0.548837651588
n: 0.0266869407493
alpha: 6.2383519136
v: 0.39958454246
---
header: 
  seq: 2536
  stamp: 
    secs: 1603810188
    nsecs: 886257802
  frame_id: ''
s: 0.552665329294
n: 0.0256365861044
alpha: 6.24622437698
v: 0.398826919604
---
header: 
  seq: 2537
  stamp: 
    secs: 1603810188
    nsecs: 896252230
  frame_id: ''
s: 0.555629190302
n: 0.0247670880164
alpha: 6.25331525216
v: 0.387199275998
---
header: 
  seq: 2538
  stamp: 
    secs: 1603810188
    nsecs: 906253736
  frame_id: ''
s: 0.559737207365
n: 0.0240784592421
alpha: 6.25944860707
v: 0.39087967242
---
header: 
  seq: 2539
  stamp: 
    secs: 1603810188
    nsecs: 916246684
  frame_id: ''
s: 0.562960158251
n: 0.0235357577806
alpha: 6.26456104204
v: 0.382841301921
---
header: 
  seq: 2540
  stamp: 
    secs: 1603810188
    nsecs: 926243033
  frame_id: ''
s: 0.567303512287
n: 0.0231376447382
alpha: 6.26866997481
v: 0.389417368924
---
header: 
  seq: 2541
  stamp: 
    secs: 1603810188
    nsecs: 936244395
  frame_id: ''
s: 0.572635429301
n: 0.0228650936694
alpha: 6.27184711354
v: 0.407265933474
---
header: 
  seq: 2542
  stamp: 
    secs: 1603810188
    nsecs: 946245998
  frame_id: ''
s: 0.576927131309
n: 0.022683849576
alpha: 6.27419706186
v: 0.409861548619
---
header: 
  seq: 2543
  stamp: 
    secs: 1603810188
    nsecs: 956246870
  frame_id: ''
s: 0.582188760042
n: 0.0225946311791
alpha: 6.27584071211
v: 0.424154304989
---
header: 
  seq: 2544
  stamp: 
    secs: 1603810188
    nsecs: 966255014
  frame_id: ''
s: 0.586413594256
n: 0.020666856558
alpha: 6.27690290572
v: 0.426610926749
---
header: 
  seq: 2545
  stamp: 
    secs: 1603810188
    nsecs: 976254453
  frame_id: ''
s: 0.590641587777
n: 0.0199805768207
alpha: 6.23275024356
v: 0.426823989375
---
header: 
  seq: 2546
  stamp: 
    secs: 1603810188
    nsecs: 986248752
  frame_id: ''
s: 0.594888271225
n: 0.0185004953593
alpha: 6.24132709409
v: 0.428865684444
---
header: 
  seq: 2547
  stamp: 
    secs: 1603810188
    nsecs: 996246554
  frame_id: ''
s: 0.599143192612
n: 0.0172754976633
alpha: 6.24919195353
v: 0.430343519327
---
header: 
  seq: 2548
  stamp: 
    secs: 1603810189
    nsecs:   6253111
  frame_id: ''
s: 0.603404994677
n: 0.0162840616659
alpha: 6.25610082901
v: 0.43121104473
---
header: 
  seq: 2549
  stamp: 
    secs: 1603810189
    nsecs:  16247255
  frame_id: ''
s: 0.607672429887
n: 0.0155029343948
alpha: 6.26194363451
v: 0.431536330195
---
header: 
  seq: 2550
  stamp: 
    secs: 1603810189
    nsecs:  26254869
  frame_id: ''
s: 0.611908380424
n: 0.0146788691804
alpha: 6.26298899828
v: 0.431536330195
---
header: 
  seq: 2551
  stamp: 
    secs: 1603810189
    nsecs:  36264463
  frame_id: ''
s: 0.617550583755
n: 0.0147428244413
alpha: 6.21977892472
v: 0.446359808053
---
header: 
  seq: 2552
  stamp: 
    secs: 1603810189
    nsecs:  46248770
  frame_id: ''
s: 0.623556141844
n: 0.014429127803
alpha: 6.23354925307
v: 0.465430883803
---
header: 
  seq: 2553
  stamp: 
    secs: 1603810189
    nsecs:  56244748
  frame_id: ''
s: 0.628383325047
n: 0.0142248883225
alpha: 6.24543296449
v: 0.467379549967
---
header: 
  seq: 2554
  stamp: 
    secs: 1603810189
    nsecs:  66242667
  frame_id: ''
s: 0.633108710861
n: 0.0141194550541
alpha: 6.25531711221
v: 0.467734942387
---
header: 
  seq: 2555
  stamp: 
    secs: 1603810189
    nsecs:  76243075
  frame_id: ''
s: 0.637742274327
n: 0.0140948120582
alpha: 6.26324349667
v: 0.466866692227
---
header: 
  seq: 2556
  stamp: 
    secs: 1603810189
    nsecs:  86251289
  frame_id: ''
s: 0.641345001191
n: 0.014126716404
alpha: 6.26935736884
v: 0.453234787048
---
header: 
  seq: 2557
  stamp: 
    secs: 1603810189
    nsecs:  96246853
  frame_id: ''
s: 0.645944163577
n: 0.0142176669557
alpha: 6.27386614922
v: 0.453768393381
---
header: 
  seq: 2558
  stamp: 
    secs: 1603810189
    nsecs: 106246329
  frame_id: ''
s: 0.649681937565
n: 0.0136090215769
alpha: 6.23778663411
v: 0.444200306119
---
header: 
  seq: 2559
  stamp: 
    secs: 1603810189
    nsecs: 116241463
  frame_id: ''
s: 0.654133614065
n: 0.0129242987118
alpha: 6.20234925457
v: 0.444872396208
---
header: 
  seq: 2560
  stamp: 
    secs: 1603810189
    nsecs: 126246243
  frame_id: ''
s: 0.659606047093
n: 0.0122064789833
alpha: 6.16661684051
v: 0.458271521863
---
header: 
  seq: 2561
  stamp: 
    secs: 1603810189
    nsecs: 136249537
  frame_id: ''
s: 0.664913550734
n: 0.011627412865
alpha: 6.13875942464
v: 0.467760684469
---
header: 
  seq: 2562
  stamp: 
    secs: 1603810189
    nsecs: 146255570
  frame_id: ''
s: 0.669844894961
n: 0.0104477838604
alpha: 6.0822657538
v: 0.472204163447
---
header: 
  seq: 2563
  stamp: 
    secs: 1603810189
    nsecs: 156248678
  frame_id: ''
s: 0.674460521869
n: 0.00950792051203
alpha: 6.04898857346
v: 0.471886809099
---
header: 
  seq: 2564
  stamp: 
    secs: 1603810189
    nsecs: 166250396
  frame_id: ''
s: 0.679286149103
n: 0.00866459525527
alpha: 6.05024173987
v: 0.47409447128
---
header: 
  seq: 2565
  stamp: 
    secs: 1603810189
    nsecs: 176253222
  frame_id: ''
s: 0.683983696764
n: 0.00802459311199
alpha: 6.02930179706
v: 0.47409447128
---
header: 
  seq: 2566
  stamp: 
    secs: 1603810189
    nsecs: 186244931
  frame_id: ''
s: 0.688080986589
n: 0.00742468483815
alpha: 6.15540563042
v: 0.467759915878
---
header: 
  seq: 2567
  stamp: 
    secs: 1603810189
    nsecs: 196243448
  frame_id: ''
s: 0.691897816779
n: 0.00701789759093
alpha: 6.19584464157
v: 0.457209813114
---
header: 
  seq: 2568
  stamp: 
    secs: 1603810189
    nsecs: 206256709
  frame_id: ''
s: 0.696685304687
n: 0.00673964018139
alpha: 6.22823215022
v: 0.459868119897
---
header: 
  seq: 2569
  stamp: 
    secs: 1603810189
    nsecs: 216255423
  frame_id: ''
s: 0.702332501442
n: 0.00657111222098
alpha: 6.25317806018
v: 0.472796366764
---
header: 
  seq: 2570
  stamp: 
    secs: 1603810189
    nsecs: 226245301
  frame_id: ''
s: 0.707636813643
n: 0.00542212818161
alpha: 6.22678974331
v: 0.481255596951
---
header: 
  seq: 2571
  stamp: 
    secs: 1603810189
    nsecs: 236244780
  frame_id: ''
s: 0.711972328558
n: 0.00458176382928
alpha: 6.19579632338
v: 0.476169590493
---
header: 
  seq: 2572
  stamp: 
    secs: 1603810189
    nsecs: 246245504
  frame_id: ''
s: 0.716380533441
n: 0.00373359081851
alpha: 6.1694448768
v: 0.47266351736
---
header: 
  seq: 2573
  stamp: 
    secs: 1603810189
    nsecs: 256251847
  frame_id: ''
s: 0.720573827054
n: 0.00308447220175
alpha: 6.14784124552
v: 0.466591825807
---
header: 
  seq: 2574
  stamp: 
    secs: 1603810189
    nsecs: 266254053
  frame_id: ''
s: 0.724874247878
n: 0.00234142516452
alpha: 6.12060460103
v: 0.462781836828
---
header: 
  seq: 2575
  stamp: 
    secs: 1603810189
    nsecs: 276246811
  frame_id: ''
s: 0.728970522648
n: 0.00176417877404
alpha: 6.11688739409
v: 0.456618751691
---
header: 
  seq: 2576
  stamp: 
    secs: 1603810189
    nsecs: 286253253
  frame_id: ''
s: 0.733225197984
n: 0.0013301396539
alpha: 6.09779176878
v: 0.452945074274
---
header: 
  seq: 2577
  stamp: 
    secs: 1603810189
    nsecs: 296244482
  frame_id: ''
s: 0.737800674017
n: 0.000365370913491
alpha: 6.06849572766
v: 0.454662753356
---
header: 
  seq: 2578
  stamp: 
    secs: 1603810189
    nsecs: 306247921
  frame_id: ''
s: 0.742127835525
n: 0.000611405633088
alpha: 6.07864569942
v: 0.451000160215
---
header: 
  seq: 2579
  stamp: 
    secs: 1603810189
    nsecs: 316241455
  frame_id: ''
s: 0.746603748602
n: 5.79468922112e-05
alpha: 6.06852783856
v: 0.451000160215
---
header: 
  seq: 2580
  stamp: 
    secs: 1603810189
    nsecs: 326252218
  frame_id: ''
s: 0.751997413667
n: -0.000483787252762
alpha: 6.17959930124
v: 0.461600101098
---
header: 
  seq: 2581
  stamp: 
    secs: 1603810189
    nsecs: 336252250
  frame_id: ''
s: 0.755826200274
n: -0.0008475485357
alpha: 6.21677543319
v: 0.451923885139
---
header: 
  seq: 2582
  stamp: 
    secs: 1603810189
    nsecs: 346253546
  frame_id: ''
s: 0.759679841912
n: -0.00110422009499
alpha: 6.24568219917
v: 0.443623086039
---
header: 
  seq: 2583
  stamp: 
    secs: 1603810189
    nsecs: 356248767
  frame_id: ''
s: 0.764513813025
n: -0.00126146337018
alpha: 6.26720558186
v: 0.44848308937
---
header: 
  seq: 2584
  stamp: 
    secs: 1603810189
    nsecs: 366248910
  frame_id: ''
s: 0.768315052341
n: -0.00135094150286
alpha: 6.28239199684
v: 0.43979059543
---
header: 
  seq: 2585
  stamp: 
    secs: 1603810189
    nsecs: 376248792
  frame_id: ''
s: 0.772156383559
n: -0.00137724085389
alpha: 6.29233535257
v: 0.432650159602
---
header: 
  seq: 2586
  stamp: 
    secs: 1603810189
    nsecs: 386247656
  frame_id: ''
s: 0.776040905028
n: -0.00135266689748
alpha: 6.29809690159
v: 0.426932651329
---
header: 
  seq: 2587
  stamp: 
    secs: 1603810189
    nsecs: 396246684
  frame_id: ''
s: 0.780919155406
n: -0.00128023177163
alpha: 6.30065231565
v: 0.434379508124
---
header: 
  seq: 2588
  stamp: 
    secs: 1603810189
    nsecs: 406255837
  frame_id: ''
s: 0.785723194173
n: -0.00117856688161
alpha: 6.30086055154
v: 0.439995848146
---
header: 
  seq: 2589
  stamp: 
    secs: 1603810189
    nsecs: 416265015
  frame_id: ''
s: 0.790454672531
n: -0.00105600203403
alpha: 6.29944948977
v: 0.444031018097
---
header: 
  seq: 2590
  stamp: 
    secs: 1603810189
    nsecs: 426246356
  frame_id: ''
s: 0.794167564985
n: -0.00092757629736
alpha: 6.29701391161
v: 0.434816898821
---
header: 
  seq: 2591
  stamp: 
    secs: 1603810189
    nsecs: 436243271
  frame_id: ''
s: 0.797934015495
n: -0.000790196228613
alpha: 6.2940220436
v: 0.427451513055
---
header: 
  seq: 2592
  stamp: 
    secs: 1603810189
    nsecs: 446249378
  frame_id: ''
s: 0.801756218175
n: -0.0006486819198
alpha: 6.29082757747
v: 0.421729437987
---
header: 
  seq: 2593
  stamp: 
    secs: 1603810189
    nsecs: 456249287
  frame_id: ''
s: 0.805634324699
n: -0.000506897603669
alpha: 6.28768472248
v: 0.417443911013
---
header: 
  seq: 2594
  stamp: 
    secs: 1603810189
    nsecs: 466251758
  frame_id: ''
s: 0.809566893957
n: -0.000367856304042
alpha: 6.28476443704
v: 0.414393386683
---
header: 
  seq: 2595
  stamp: 
    secs: 1603810189
    nsecs: 476252169
  frame_id: ''
s: 0.813551286204
n: -0.000233824968975
alpha: 6.28217050064
v: 0.412386407355
---
header: 
  seq: 2596
  stamp: 
    secs: 1603810189
    nsecs: 486254529
  frame_id: ''
s: 0.817584003052
n: -0.000106427047417
alpha: 6.27995451904
v: 0.411244998972
---
header: 
  seq: 2597
  stamp: 
    secs: 1603810189
    nsecs: 496250644
  frame_id: ''
s: 0.821660975845
n: 1.32597832257e-05
alpha: 6.27812930508
v: 0.410806824844
---
header: 
  seq: 2598
  stamp: 
    secs: 1603810189
    nsecs: 506247221
  frame_id: ''
s: 0.825769828355
n: 0.00107394574719
alpha: 6.27668035047
v: 0.411109209404
---
header: 
  seq: 2599
  stamp: 
    secs: 1603810189
    nsecs: 516246224
  frame_id: ''
s: 0.829922976989
n: 0.00105840541749
alpha: 6.27557530699
v: 0.411597246418
---
header: 
  seq: 2600
  stamp: 
    secs: 1603810189
    nsecs: 526261632
  frame_id: ''
s: 0.834090958285
n: 0.00293610344802
alpha: 6.2747715403
v: 0.413573891378
---
header: 
  seq: 2601
  stamp: 
    secs: 1603810189
    nsecs: 536248699
  frame_id: ''
s: 0.837337993455
n: 0.00456657491872
alpha: 6.27422191404
v: 0.404376718393
---
header: 
  seq: 2602
  stamp: 
    secs: 1603810189
    nsecs: 546247807
  frame_id: ''
s: 0.840727520301
n: 0.00596726636987
alpha: 6.27387901792
v: 0.39823814969
---
header: 
  seq: 2603
  stamp: 
    secs: 1603810189
    nsecs: 556243371
  frame_id: ''
s: 0.8442524813
n: 0.00715117911303
alpha: 6.27369807856
v: 0.39435805815
---
header: 
  seq: 2604
  stamp: 
    secs: 1603810189
    nsecs: 566250065
  frame_id: ''
s: 0.847903610239
n: 0.00813447085854
alpha: 6.27363879527
v: 0.392167185929
---
header: 
  seq: 2605
  stamp: 
    secs: 1603810189
    nsecs: 576251417
  frame_id: ''
s: 0.851597272208
n: 0.00844715556958
alpha: 6.32575325294
v: 0.389253421991
---
header: 
  seq: 2606
  stamp: 
    secs: 1603810189
    nsecs: 586255170
  frame_id: ''
s: 0.856426143447
n: 0.00915355469875
alpha: 6.31614635267
v: 0.401625484156
---
header: 
  seq: 2607
  stamp: 
    secs: 1603810189
    nsecs: 596244044
  frame_id: ''
s: 0.860279126883
n: 0.00970563318399
alpha: 6.30710513615
v: 0.400052977981
---
header: 
  seq: 2608
  stamp: 
    secs: 1603810189
    nsecs: 606253828
  frame_id: ''
s: 0.865164304201
n: 0.010138243655
alpha: 6.29898982244
v: 0.411231647342
---
header: 
  seq: 2609
  stamp: 
    secs: 1603810189
    nsecs: 616242463
  frame_id: ''
s: 0.869082622637
n: 0.0102981867459
alpha: 6.34407878149
v: 0.408553463386
---
header: 
  seq: 2610
  stamp: 
    secs: 1603810189
    nsecs: 626247825
  frame_id: ''
s: 0.873038461038
n: 0.0105377427231
alpha: 6.32857043631
v: 0.406872815463
---
header: 
  seq: 2611
  stamp: 
    secs: 1603810189
    nsecs: 636248097
  frame_id: ''
s: 0.877055874496
n: 0.0106991013752
alpha: 6.31474888848
v: 0.406083991133
---
header: 
  seq: 2612
  stamp: 
    secs: 1603810189
    nsecs: 646259418
  frame_id: ''
s: 0.880178943169
n: 0.0107881638782
alpha: 6.3029055537
v: 0.394182250865
---
header: 
  seq: 2613
  stamp: 
    secs: 1603810189
    nsecs: 656255941
  frame_id: ''
s: 0.884417983918
n: 0.0108344676123
alpha: 6.2931220844
v: 0.397683373374
---
header: 
  seq: 2614
  stamp: 
    secs: 1603810189
    nsecs: 666244820
  frame_id: ''
s: 0.887746383704
n: 0.0108322706833
alpha: 6.28533166338
v: 0.389364860478
---
header: 
  seq: 2615
  stamp: 
    secs: 1603810189
    nsecs: 676247555
  frame_id: ''
s: 0.892172354457
n: 0.0108083675539
alpha: 6.27936981093
v: 0.395840849694
---
header: 
  seq: 2616
  stamp: 
    secs: 1603810189
    nsecs: 686253795
  frame_id: ''
s: 0.897426058294
n: 0.0116994907592
alpha: 6.31976848213
v: 0.412792105829
---
header: 
  seq: 2617
  stamp: 
    secs: 1603810189
    nsecs: 696253189
  frame_id: ''
s: 0.901780508793
n: 0.0115216269982
alpha: 6.30844563544
v: 0.415277602033
---
header: 
  seq: 2618
  stamp: 
    secs: 1603810189
    nsecs: 706252127
  frame_id: ''
s: 0.907089670269
n: 0.0113458744516
alpha: 6.29868844378
v: 0.429513132572
---
header: 
  seq: 2619
  stamp: 
    secs: 1603810189
    nsecs: 716246420
  frame_id: ''
s: 0.911066598029
n: 0.0124385059133
alpha: 6.35284179664
v: 0.426348692274
---
header: 
  seq: 2620
  stamp: 
    secs: 1603810189
    nsecs: 726246003
  frame_id: ''
s: 0.91449385427
n: 0.0134475905298
alpha: 6.39702496804
v: 0.416843092526
---
header: 
  seq: 2621
  stamp: 
    secs: 1603810189
    nsecs: 736249011
  frame_id: ''
s: 0.918638458928
n: 0.0145540345042
alpha: 6.41424636789
v: 0.417785265434
---
header: 
  seq: 2622
  stamp: 
    secs: 1603810189
    nsecs: 746248170
  frame_id: ''
s: 0.923036508657
n: 0.0157942499075
alpha: 6.38142768481
v: 0.42213535823
---
header: 
  seq: 2623
  stamp: 
    secs: 1603810189
    nsecs: 756255449
  frame_id: ''
s: 0.927104656545
n: 0.0165792385351
alpha: 6.41486379715
v: 0.421105213071
---
header: 
  seq: 2624
  stamp: 
    secs: 1603810189
    nsecs: 766250302
  frame_id: ''
s: 0.932483209098
n: 0.017481522973
alpha: 6.43099837163
v: 0.43669230114
---
header: 
  seq: 2625
  stamp: 
    secs: 1603810189
    nsecs: 776251496
  frame_id: ''
s: 0.937734395748
n: 0.0182179724842
alpha: 6.39067352546
v: 0.448429482658
---
header: 
  seq: 2626
  stamp: 
    secs: 1603810189
    nsecs: 786248857
  frame_id: ''
s: 0.942859209732
n: 0.0188057370376
alpha: 6.36007260552
v: 0.456853028325
---
header: 
  seq: 2627
  stamp: 
    secs: 1603810189
    nsecs: 796267898
  frame_id: ''
s: 0.946804823396
n: 0.0198693408167
alpha: 6.38672285113
v: 0.450487981974
---
header: 
  seq: 2628
  stamp: 
    secs: 1603810189
    nsecs: 806255108
  frame_id: ''
s: 0.951823971751
n: 0.0201364182765
alpha: 6.35830661995
v: 0.456729335362
---
header: 
  seq: 2629
  stamp: 
    secs: 1603810189
    nsecs: 816288212
  frame_id: ''
s: 0.955783452582
n: 0.0203005314913
alpha: 6.33495797258
v: 0.448912068922
---
header: 
  seq: 2630
  stamp: 
    secs: 1603810189
    nsecs: 826250067
  frame_id: ''
s: 0.960706995679
n: 0.0203954994489
alpha: 6.31798183212
v: 0.454033066275
---
header: 
  seq: 2631
  stamp: 
    secs: 1603810189
    nsecs: 836249290
  frame_id: ''
s: 0.96458265676
n: 0.0204204841602
alpha: 6.3052687089
v: 0.445427485597
---
header: 
  seq: 2632
  stamp: 
    secs: 1603810189
    nsecs: 846250655
  frame_id: ''
s: 0.969433884162
n: 0.0204056454667
alpha: 6.29774244436
v: 0.450101825726
---
header: 
  seq: 2633
  stamp: 
    secs: 1603810189
    nsecs: 856249601
  frame_id: ''
s: 0.973248193866
n: 0.0203468821043
alpha: 6.29310355901
v: 0.441250560544
---
header: 
  seq: 2634
  stamp: 
    secs: 1603810189
    nsecs: 866253971
  frame_id: ''
s: 0.978997642
n: 0.0202781787745
alpha: 6.29297361815
v: 0.457782665499
---
header: 
  seq: 2635
  stamp: 
    secs: 1603810189
    nsecs: 876252642
  frame_id: ''
s: 0.983577748412
n: 0.0193807222666
alpha: 6.24143089609
v: 0.469837225252
---
header: 
  seq: 2636
  stamp: 
    secs: 1603810189
    nsecs: 886254968
  frame_id: ''
s: 0.988940321737
n: 0.0195722782111
alpha: 6.26229617437
v: 0.478060884573
---
header: 
  seq: 2637
  stamp: 
    secs: 1603810189
    nsecs: 896244580
  frame_id: ''
s: 0.994126209804
n: 0.0197415138497
alpha: 6.28367332272
v: 0.483066660919
---
header: 
  seq: 2638
  stamp: 
    secs: 1603810189
    nsecs: 906244674
  frame_id: ''
s: 1.0000967951
n: 0.0199491809534
alpha: 6.30898774094
v: 0.497335176581
---
header: 
  seq: 2639
  stamp: 
    secs: 1603810189
    nsecs: 916245568
  frame_id: ''
s: 1.0048534738
n: 0.0200828885637
alpha: 6.32990561034
v: 0.494581673618
---
header: 
  seq: 2640
  stamp: 
    secs: 1603810189
    nsecs: 926251070
  frame_id: ''
s: 1.00948115287
n: 0.020209994729
alpha: 6.35051069201
v: 0.490572090344
---
header: 
  seq: 2641
  stamp: 
    secs: 1603810189
    nsecs: 936252094
  frame_id: ''
s: 1.01399828083
n: 0.0203337782446
alpha: 6.37068832516
v: 0.485694367435
---
header: 
  seq: 2642
  stamp: 
    secs: 1603810189
    nsecs: 946250712
  frame_id: ''
s: 1.01842257589
n: 0.0204566469904
alpha: 6.39037948375
v: 0.480275050068
---
header: 
  seq: 2643
  stamp: 
    secs: 1603810189
    nsecs: 956242209
  frame_id: ''
s: 1.02371794497
n: 0.0206273052455
alpha: 6.41335925204
v: 0.486497862617
---
header: 
  seq: 2644
  stamp: 
    secs: 1603810189
    nsecs: 966246457
  frame_id: ''
s: 1.02582312091
n: 0.0211031408372
alpha: 6.42333152562
v: 0.477772346323
---
header: 
  seq: 2645
  stamp: 
    secs: 1603810189
    nsecs: 976252065
  frame_id: ''
s: 1.02897113737
n: 0.0215196775449
alpha: 6.43721920891
v: 0.457662940648
---
header: 
  seq: 2646
  stamp: 
    secs: 1603810189
    nsecs: 986243450
  frame_id: ''
s: 1.0334961799
n: 0.0221939401393
alpha: 6.45565251261
v: 0.457662940648
---
header: 
  seq: 2647
  stamp: 
    secs: 1603810189
    nsecs: 996254694
  frame_id: ''
s: 1.03551103242
n: 0.0224345759785
alpha: 6.46488687107
v: 0.429259826702
---
header: 
  seq: 2648
  stamp: 
    secs: 1603810190
    nsecs:   6254217
  frame_id: ''
s: 1.03847997109
n: 0.022819822286
alpha: 6.47770263053
v: 0.417253018449
---
header: 
  seq: 2649
  stamp: 
    secs: 1603810190
    nsecs:  16244968
  frame_id: ''
s: 1.04397946291
n: 0.0236119050945
alpha: 6.50012447195
v: 0.434684017592
---
header: 
  seq: 2650
  stamp: 
    secs: 1603810190
    nsecs:  26249639
  frame_id: ''
s: 1.04932865133
n: 0.0243753511248
alpha: 6.52179807205
v: 0.448032479501
---
header: 
  seq: 2651
  stamp: 
    secs: 1603810190
    nsecs:  36247942
  frame_id: ''
s: 1.05294312216
n: 0.0259403697889
alpha: 6.53641361928
v: 0.469747319616
---
header: 
  seq: 2652
  stamp: 
    secs: 1603810190
    nsecs:  46250137
  frame_id: ''
s: 1.05816602318
n: 0.0264177249139
alpha: 6.50528974796
v: 0.475965095812
---
header: 
  seq: 2653
  stamp: 
    secs: 1603810190
    nsecs:  56249794
  frame_id: ''
s: 1.06400348169
n: 0.0268575756632
alpha: 6.48625279385
v: 0.489067760463
---
header: 
  seq: 2654
  stamp: 
    secs: 1603810190
    nsecs:  66248372
  frame_id: ''
s: 1.06898550021
n: 0.0269994145446
alpha: 6.4729096402
v: 0.48948407699
---
header: 
  seq: 2655
  stamp: 
    secs: 1603810190
    nsecs:  76243603
  frame_id: ''
s: 1.0736979974
n: 0.026618896587
alpha: 6.51879904026
v: 0.485670393771
---
header: 
  seq: 2656
  stamp: 
    secs: 1603810190
    nsecs:  86256984
  frame_id: ''
s: 1.07564206673
n: 0.026934334058
alpha: 6.55104098134
v: 0.481305573737
---
header: 
  seq: 2657
  stamp: 
    secs: 1603810190
    nsecs:  96250032
  frame_id: ''
s: 1.08007125232
n: 0.027403694613
alpha: 6.59001108947
v: 0.476448639131
---
header: 
  seq: 2658
  stamp: 
    secs: 1603810190
    nsecs: 106253112
  frame_id: ''
s: 1.0843820513
n: 0.0280258000327
alpha: 6.62503980986
v: 0.471236965776
---
header: 
  seq: 2659
  stamp: 
    secs: 1603810190
    nsecs: 116279417
  frame_id: ''
s: 1.08873221995
n: 0.0281314751461
alpha: 6.61203942972
v: 0.465968230848
---
header: 
  seq: 2660
  stamp: 
    secs: 1603810190
    nsecs: 126244924
  frame_id: ''
s: 1.09331153687
n: 0.0289545531412
alpha: 6.62797974892
v: 0.465968230848
---
header: 
  seq: 2661
  stamp: 
    secs: 1603810190
    nsecs: 136251546
  frame_id: ''
s: 1.09663952924
n: 0.0270705086503
alpha: 6.49522974118
v: 0.445725513334
---
header: 
  seq: 2662
  stamp: 
    secs: 1603810190
    nsecs: 146251741
  frame_id: ''
s: 1.09894034902
n: 0.0272543871864
alpha: 6.45261182381
v: 0.451558598884
---
header: 
  seq: 2663
  stamp: 
    secs: 1603810190
    nsecs: 156245205
  frame_id: ''
s: 1.10404715613
n: 0.0276086502027
alpha: 6.43431642539
v: 0.458682872181
---
header: 
  seq: 2664
  stamp: 
    secs: 1603810190
    nsecs: 166243816
  frame_id: ''
s: 1.10914406517
n: 0.0275925636295
alpha: 6.38249965611
v: 0.464184826119
---
header: 
  seq: 2665
  stamp: 
    secs: 1603810190
    nsecs: 176251035
  frame_id: ''
s: 1.11362035864
n: 0.0275553259835
alpha: 6.37210187761
v: 0.461482341269
---
header: 
  seq: 2666
  stamp: 
    secs: 1603810190
    nsecs: 186259452
  frame_id: ''
s: 1.11798266962
n: 0.0273270583028
alpha: 6.37172134051
v: 0.457571348489
---
header: 
  seq: 2667
  stamp: 
    secs: 1603810190
    nsecs: 196255858
  frame_id: ''
s: 1.12205853456
n: 0.027105660621
alpha: 6.37842730914
v: 0.450766360955
---
header: 
  seq: 2668
  stamp: 
    secs: 1603810190
    nsecs: 206254111
  frame_id: ''
s: 1.12304400342
n: 0.0272231582896
alpha: 6.37897511286
v: 0.439646961833
---
header: 
  seq: 2669
  stamp: 
    secs: 1603810190
    nsecs: 216266938
  frame_id: ''
s: 1.12736904576
n: 0.0280075659404
alpha: 6.37167622155
v: 0.439646961833
---
header: 
  seq: 2670
  stamp: 
    secs: 1603810190
    nsecs: 226244227
  frame_id: ''
s: 1.1311632921
n: 0.0272845548246
alpha: 6.24094172981
v: 0.4310941806
---
header: 
  seq: 2671
  stamp: 
    secs: 1603810190
    nsecs: 236243691
  frame_id: ''
s: 1.13564597058
n: 0.0266880612465
alpha: 6.332646984
v: 0.432405111581
---
header: 
  seq: 2672
  stamp: 
    secs: 1603810190
    nsecs: 246253644
  frame_id: ''
s: 1.13983247228
n: 0.026466100538
alpha: 6.35501836495
v: 0.430165602026
---
header: 
  seq: 2673
  stamp: 
    secs: 1603810190
    nsecs: 256250422
  frame_id: ''
s: 1.14347989802
n: 0.0257311347055
alpha: 6.33809765463
v: 0.421153551829
---
header: 
  seq: 2674
  stamp: 
    secs: 1603810190
    nsecs: 266263269
  frame_id: ''
s: 1.14725499914
n: 0.0252481502211
alpha: 6.34496246397
v: 0.41533501624
---
header: 
  seq: 2675
  stamp: 
    secs: 1603810190
    nsecs: 276248995
  frame_id: ''
s: 1.1483369331
n: 0.0251896149195
alpha: 6.34530250528
v: 0.407523593743
---
header: 
  seq: 2676
  stamp: 
    secs: 1603810190
    nsecs: 286254355
  frame_id: ''
s: 1.15201377912
n: 0.0253387520534
alpha: 6.35917507033
v: 0.402435537681
---
header: 
  seq: 2677
  stamp: 
    secs: 1603810190
    nsecs: 296250237
  frame_id: ''
s: 1.155136714
n: 0.02520964882
alpha: 6.35802949431
v: 0.390752002382
---
header: 
  seq: 2678
  stamp: 
    secs: 1603810190
    nsecs: 306251879
  frame_id: ''
s: 1.15853157044
n: 0.025108231936
alpha: 6.36219334526
v: 0.384046614871
---
header: 
  seq: 2679
  stamp: 
    secs: 1603810190
    nsecs: 316248367
  frame_id: ''
s: 1.16192789147
n: 0.0247600855032
alpha: 6.36981424589
v: 0.378054529674
---
header: 
  seq: 2680
  stamp: 
    secs: 1603810190
    nsecs: 326245349
  frame_id: ''
s: 1.16658258183
n: 0.0244646412412
alpha: 6.35783222131
v: 0.388762625025
---
header: 
  seq: 2681
  stamp: 
    secs: 1603810190
    nsecs: 336244315
  frame_id: ''
s: 1.17088179197
n: 0.0241578538434
alpha: 6.3515729102
v: 0.393763118495
---
header: 
  seq: 2682
  stamp: 
    secs: 1603810190
    nsecs: 346247724
  frame_id: ''
s: 1.17251782902
n: 0.0240264294302
alpha: 6.33463908423
v: 0.394259919263
---
header: 
  seq: 2683
  stamp: 
    secs: 1603810190
    nsecs: 356244012
  frame_id: ''
s: 1.17636356329
n: 0.0242178416785
alpha: 6.33305014776
v: 0.393030167734
---
header: 
  seq: 2684
  stamp: 
    secs: 1603810190
    nsecs: 366252853
  frame_id: ''
s: 1.18006389515
n: 0.0246161150218
alpha: 6.30774889602
v: 0.390424360191
---
header: 
  seq: 2685
  stamp: 
    secs: 1603810190
    nsecs: 376254515
  frame_id: ''
s: 1.18415356102
n: 0.0246132193375
alpha: 6.32234593934
v: 0.392526395643
---
header: 
  seq: 2686
  stamp: 
    secs: 1603810190
    nsecs: 386245938
  frame_id: ''
s: 1.18746399209
n: 0.0248158172959
alpha: 6.30839204922
v: 0.384892330181
---
header: 
  seq: 2687
  stamp: 
    secs: 1603810190
    nsecs: 396245625
  frame_id: ''
s: 1.19132180716
n: 0.0248928032748
alpha: 6.34878367217
v: 0.384941891065
---
header: 
  seq: 2688
  stamp: 
    secs: 1603810190
    nsecs: 406252699
  frame_id: ''
s: 1.19448290726
n: 0.0247870554481
alpha: 6.37445357451
v: 0.376117716251
---
header: 
  seq: 2689
  stamp: 
    secs: 1603810190
    nsecs: 416248226
  frame_id: ''
s: 1.19622167686
n: 0.0248818810042
alpha: 6.39347797858
v: 0.381148278851
---
header: 
  seq: 2690
  stamp: 
    secs: 1603810190
    nsecs: 426256205
  frame_id: ''
s: 1.20024078378
n: 0.025192598415
alpha: 6.38535485727
v: 0.383780025719
---
header: 
  seq: 2691
  stamp: 
    secs: 1603810190
    nsecs: 436250419
  frame_id: ''
s: 1.20417190144
n: 0.0252325281741
alpha: 6.41669819047
v: 0.38458326214
---
header: 
  seq: 2692
  stamp: 
    secs: 1603810190
    nsecs: 446245405
  frame_id: ''
s: 1.20780230416
n: 0.0254528985678
alpha: 6.4448598523
v: 0.38189604417
---
header: 
  seq: 2693
  stamp: 
    secs: 1603810190
    nsecs: 456251768
  frame_id: ''
s: 1.21198685262
n: 0.0249954280653
alpha: 6.43817170295
v: 0.385633345731
---
header: 
  seq: 2694
  stamp: 
    secs: 1603810190
    nsecs: 466247264
  frame_id: ''
s: 1.21538746372
n: 0.0252405211723
alpha: 6.46757496493
v: 0.380046087151
---
header: 
  seq: 2695
  stamp: 
    secs: 1603810190
    nsecs: 476248257
  frame_id: ''
s: 1.21918360781
n: 0.0254618777548
alpha: 6.49616777381
v: 0.380089547285
---
header: 
  seq: 2696
  stamp: 
    secs: 1603810190
    nsecs: 486269359
  frame_id: ''
s: 1.21970998497
n: 0.0251027067248
alpha: 6.47433875686
v: 0.369402427306
---
header: 
  seq: 2697
  stamp: 
    secs: 1603810190
    nsecs: 496250830
  frame_id: ''
s: 1.2233194035
n: 0.0250806859123
alpha: 6.46901950915
v: 0.367803832238
---
header: 
  seq: 2698
  stamp: 
    secs: 1603810190
    nsecs: 506249291
  frame_id: ''
s: 1.22811254711
n: 0.0253079551289
alpha: 6.47247107746
v: 0.381669324953
---
header: 
  seq: 2699
  stamp: 
    secs: 1603810190
    nsecs: 516244532
  frame_id: ''
s: 1.23261601889
n: 0.0255519681346
alpha: 6.47846225157
v: 0.390276529959
---
header: 
  seq: 2700
  stamp: 
    secs: 1603810190
    nsecs: 526242335
  frame_id: ''
s: 1.23685191914
n: 0.0258141349373
alpha: 6.4866315863
v: 0.394526145463
---
header: 
  seq: 2701
  stamp: 
    secs: 1603810190
    nsecs: 536271333
  frame_id: ''
s: 1.24018141445
n: 0.0259965812089
alpha: 6.49392118385
v: 0.386839654622
---
header: 
  seq: 2702
  stamp: 
    secs: 1603810190
    nsecs: 546253085
  frame_id: ''
s: 1.24470272427
n: 0.0264058515838
alpha: 6.50822024009
v: 0.395316189701
---
header: 
  seq: 2703
  stamp: 
    secs: 1603810190
    nsecs: 556248835
  frame_id: ''
s: 1.24628553678
n: 0.0272115719385
alpha: 6.51252034411
v: 0.399297218812
---
header: 
  seq: 2704
  stamp: 
    secs: 1603810190
    nsecs: 566247370
  frame_id: ''
s: 1.25021621764
n: 0.0280636603205
alpha: 6.52754158984
v: 0.399671236142
---
header: 
  seq: 2705
  stamp: 
    secs: 1603810190
    nsecs: 576251123
  frame_id: ''
s: 1.25392504273
n: 0.0288927822617
alpha: 6.5426249199
v: 0.397231524768
---
header: 
  seq: 2706
  stamp: 
    secs: 1603810190
    nsecs: 586244169
  frame_id: ''
s: 1.25760785972
n: 0.0290507756915
alpha: 6.52333938564
v: 0.393142626444
---
header: 
  seq: 2707
  stamp: 
    secs: 1603810190
    nsecs: 596247647
  frame_id: ''
s: 1.26175183287
n: 0.0294341880603
alpha: 6.54767713293
v: 0.39588989406
---
header: 
  seq: 2708
  stamp: 
    secs: 1603810190
    nsecs: 606257471
  frame_id: ''
s: 1.2663442651
n: 0.0297253056242
alpha: 6.53873995243
v: 0.403727434727
---
header: 
  seq: 2709
  stamp: 
    secs: 1603810190
    nsecs: 616249345
  frame_id: ''
s: 1.27075994084
n: 0.0297123571767
alpha: 6.50766539434
v: 0.407920138869
---
header: 
  seq: 2710
  stamp: 
    secs: 1603810190
    nsecs: 626217769
  frame_id: ''
s: 1.27207153632
n: 0.0302398348694
alpha: 6.4745916162
v: 0.409815731255
---
header: 
  seq: 2711
  stamp: 
    secs: 1603810190
    nsecs: 636241002
  frame_id: ''
s: 1.27539911229
n: 0.0305168432267
alpha: 6.45900311146
v: 0.399951632095
---
header: 
  seq: 2712
  stamp: 
    secs: 1603810190
    nsecs: 646250508
  frame_id: ''
s: 1.27792168302
n: 0.0306688822557
alpha: 6.44836294958
v: 0.381184263257
---
header: 
  seq: 2713
  stamp: 
    secs: 1603810190
    nsecs: 656247996
  frame_id: ''
s: 1.28265387657
n: 0.030593250356
alpha: 6.47089701168
v: 0.391677630775
---
header: 
  seq: 2714
  stamp: 
    secs: 1603810190
    nsecs: 666251764
  frame_id: ''
s: 1.28750878168
n: 0.0306397370417
alpha: 6.47866424284
v: 0.402904780503
---
header: 
  seq: 2715
  stamp: 
    secs: 1603810190
    nsecs: 676254087
  frame_id: ''
s: 1.29202913307
n: 0.0303238222621
alpha: 6.47453191784
v: 0.408179351709
---
header: 
  seq: 2716
  stamp: 
    secs: 1603810190
    nsecs: 686254849
  frame_id: ''
s: 1.29330417998
n: 0.0304128984275
alpha: 6.47868704537
v: 0.410049306017
---
header: 
  seq: 2717
  stamp: 
    secs: 1603810190
    nsecs: 696252488
  frame_id: ''
s: 1.29663293281
n: 0.0306340540941
alpha: 6.49350825931
v: 0.400149060606
---
header: 
  seq: 2718
  stamp: 
    secs: 1603810190
    nsecs: 706252615
  frame_id: ''
s: 1.30113585857
n: 0.0305012126031
alpha: 6.49960712867
v: 0.405404339949
---
header: 
  seq: 2719
  stamp: 
    secs: 1603810190
    nsecs: 716253494
  frame_id: ''
s: 1.30469347163
n: 0.0303084022021
alpha: 6.50561798754
v: 0.398417274668
---
header: 
  seq: 2720
  stamp: 
    secs: 1603810190
    nsecs: 726249614
  frame_id: ''
s: 1.3095221046
n: 0.0303343025948
alpha: 6.51973443807
v: 0.408655515166
---
header: 
  seq: 2721
  stamp: 
    secs: 1603810190
    nsecs: 736248776
  frame_id: ''
s: 1.31336328259
n: 0.0303008989961
alpha: 6.53227677343
v: 0.405305711035
---
header: 
  seq: 2722
  stamp: 
    secs: 1603810190
    nsecs: 746247346
  frame_id: ''
s: 1.31765900265
n: 0.0300559092949
alpha: 6.52422060483
v: 0.407911743017
---
header: 
  seq: 2723
  stamp: 
    secs: 1603810190
    nsecs: 756241233
  frame_id: ''
s: 1.31905466526
n: 0.0304212906778
alpha: 6.48413396427
v: 0.411565910114
---
header: 
  seq: 2724
  stamp: 
    secs: 1603810190
    nsecs: 766246915
  frame_id: ''
s: 1.32324280545
n: 0.0303663443081
alpha: 6.446697035
v: 0.411723046534
---
header: 
  seq: 2725
  stamp: 
    secs: 1603810190
    nsecs: 776249222
  frame_id: ''
s: 1.32775424279
n: 0.0305260435877
alpha: 6.46773082991
v: 0.416426735329
---
header: 
  seq: 2726
  stamp: 
    secs: 1603810190
    nsecs: 786251668
  frame_id: ''
s: 1.33130584497
n: 0.0306013101068
alpha: 6.48758992576
v: 0.408533071779
---
header: 
  seq: 2727
  stamp: 
    secs: 1603810190
    nsecs: 796249929
  frame_id: ''
s: 1.33401196807
n: 0.0306116546533
alpha: 6.50555461197
v: 0.391039352886
---
header: 
  seq: 2728
  stamp: 
    secs: 1603810190
    nsecs: 806253142
  frame_id: ''
s: 1.33598498499
n: 0.0305732772213
alpha: 6.52117986193
v: 0.366554602204
---
header: 
  seq: 2729
  stamp: 
    secs: 1603810190
    nsecs: 816251079
  frame_id: ''
s: 1.33733278752
n: 0.0304994499572
alpha: 6.53424950236
v: 0.33730807
---
header: 
  seq: 2730
  stamp: 
    secs: 1603810190
    nsecs: 826249407
  frame_id: ''
s: 1.34069058728
n: 0.0307860178306
alpha: 6.54327605093
v: 0.33730807
---
header: 
  seq: 2731
  stamp: 
    secs: 1603810190
    nsecs: 836252541
  frame_id: ''
s: 1.34119653882
n: 0.0306381870714
alpha: 6.55467249084
v: 0.305169166054
---
header: 
  seq: 2732
  stamp: 
    secs: 1603810190
    nsecs: 846256525
  frame_id: ''
s: 1.34125795554
n: 0.0304792942773
alpha: 6.5629655993
v: 0.271674154146
---
header: 
  seq: 2733
  stamp: 
    secs: 1603810190
    nsecs: 856249375
  frame_id: ''
s: 1.34097191251
n: 0.030316212786
alpha: 6.56848214262
v: 0.238056744858
---
header: 
  seq: 2734
  stamp: 
    secs: 1603810190
    nsecs: 866250319
  frame_id: ''
s: 1.34042360219
n: 0.0301542531439
alpha: 6.57160337554
v: 0.205280602994
---
header: 
  seq: 2735
  stamp: 
    secs: 1603810190
    nsecs: 876247922
  frame_id: ''
s: 1.3461260084
n: 0.0287051347926
alpha: 6.42464586083
v: 0.276944947309
---
header: 
  seq: 2736
  stamp: 
    secs: 1603810190
    nsecs: 886253479
  frame_id: ''
s: 1.35335487696
n: 0.0276871472529
alpha: 6.32027397933
v: 0.326196534634
---
header: 
  seq: 2737
  stamp: 
    secs: 1603810190
    nsecs: 896257389
  frame_id: ''
s: 1.36031917693
n: 0.0261428338179
alpha: 6.2310955639
v: 0.369160170993
---
header: 
  seq: 2738
  stamp: 
    secs: 1603810190
    nsecs: 906253010
  frame_id: ''
s: 1.36400161284
n: 0.025522812044
alpha: 6.19662761242
v: 0.369332144023
---
header: 
  seq: 2739
  stamp: 
    secs: 1603810190
    nsecs: 916249978
  frame_id: ''
s: 1.36686505941
n: 0.0249932556058
alpha: 6.1751775872
v: 0.359228183141
---
header: 
  seq: 2740
  stamp: 
    secs: 1603810190
    nsecs: 926253847
  frame_id: ''
s: 1.36901166122
n: 0.0245502738785
alpha: 6.16397534598
v: 0.341392074969
---
header: 
  seq: 2741
  stamp: 
    secs: 1603810190
    nsecs: 936251132
  frame_id: ''
s: 1.37000082369
n: 0.0247363648932
alpha: 6.12357726932
v: 0.341392074969
---
header: 
  seq: 2742
  stamp: 
    secs: 1603810190
    nsecs: 946251535
  frame_id: ''
s: 1.3798647884
n: 0.0241306894219
alpha: 6.15997444945
v: 0.413231521678
---
header: 
  seq: 2743
  stamp: 
    secs: 1603810190
    nsecs: 956246187
  frame_id: ''
s: 1.38798083007
n: 0.0235746468164
alpha: 6.19708884967
v: 0.45768107656
---
header: 
  seq: 2744
  stamp: 
    secs: 1603810190
    nsecs: 966250564
  frame_id: ''
s: 1.39608895602
n: 0.0232792668111
alpha: 6.27036437388
v: 0.524867196339
---
header: 
  seq: 2745
  stamp: 
    secs: 1603810190
    nsecs: 976245376
  frame_id: ''
s: 1.40132442743
n: 0.0236391441345
alpha: 6.27261644384
v: 0.524867196339
---
header: 
  seq: 2746
  stamp: 
    secs: 1603810190
    nsecs: 986252551
  frame_id: ''
s: 1.41205433968
n: 0.0229361924581
alpha: 6.31575576085
v: 0.588250305035
---
header: 
  seq: 2747
  stamp: 
    secs: 1603810190
    nsecs: 996249607
  frame_id: ''
s: 1.4182130172
n: 0.0232610975591
alpha: 6.35765723798
v: 0.59185201937
---
header: 
  seq: 2748
  stamp: 
    secs: 1603810191
    nsecs:   6254226
  frame_id: ''
s: 1.42269833974
n: 0.0230419674874
alpha: 6.33943998884
v: 0.601425856898
---
header: 
  seq: 2749
  stamp: 
    secs: 1603810191
    nsecs:  16244439
  frame_id: ''
s: 1.42806433618
n: 0.0226488060349
alpha: 6.33257624473
v: 0.592405411896
---
header: 
  seq: 2750
  stamp: 
    secs: 1603810191
    nsecs:  26244619
  frame_id: ''
s: 1.43217875977
n: 0.0222311434475
alpha: 6.32775239291
v: 0.5690608318
---
header: 
  seq: 2751
  stamp: 
    secs: 1603810191
    nsecs:  36245866
  frame_id: ''
s: 1.43785171104
n: 0.0226410883257
alpha: 6.33305820379
v: 0.5690608318
---
header: 
  seq: 2752
  stamp: 
    secs: 1603810191
    nsecs:  46257415
  frame_id: ''
s: 1.44054555334
n: 0.0221099456429
alpha: 6.32905886762
v: 0.535164700832
---
header: 
  seq: 2753
  stamp: 
    secs: 1603810191
    nsecs:  56251781
  frame_id: ''
s: 1.44382316707
n: 0.0216309038496
alpha: 6.43747847732
v: 0.533981881693
---
header: 
  seq: 2754
  stamp: 
    secs: 1603810191
    nsecs:  66271027
  frame_id: ''
s: 1.44952330066
n: 0.0208053911478
alpha: 6.41336957075
v: 0.536843558475
---
header: 
  seq: 2755
  stamp: 
    secs: 1603810191
    nsecs:  76246939
  frame_id: ''
s: 1.45486596621
n: 0.0213106549276
alpha: 6.42761125295
v: 0.536843558475
---
header: 
  seq: 2756
  stamp: 
    secs: 1603810191
    nsecs:  86251195
  frame_id: ''
s: 1.46045227543
n: 0.0187665654692
alpha: 6.3443357071
v: 0.53714050305
---
header: 
  seq: 2757
  stamp: 
    secs: 1603810191
    nsecs:  96251253
  frame_id: ''
s: 1.46548793898
n: 0.018075076354
alpha: 6.32599609174
v: 0.532737577213
---
header: 
  seq: 2758
  stamp: 
    secs: 1603810191
    nsecs: 106254942
  frame_id: ''
s: 1.46854594349
n: 0.0180304221499
alpha: 6.32368163597
v: 0.526260487834
---
header: 
  seq: 2759
  stamp: 
    secs: 1603810191
    nsecs: 116246781
  frame_id: ''
s: 1.47315085222
n: 0.0178063006002
alpha: 6.31999321715
v: 0.517530311757
---
header: 
  seq: 2760
  stamp: 
    secs: 1603810191
    nsecs: 126267913
  frame_id: ''
s: 1.47788006279
n: 0.017289523083
alpha: 6.32405689954
v: 0.511338656706
---
header: 
  seq: 2761
  stamp: 
    secs: 1603810191
    nsecs: 136252708
  frame_id: ''
s: 1.48211654716
n: 0.0168093450767
alpha: 6.33200082238
v: 0.499971361226
---
header: 
  seq: 2762
  stamp: 
    secs: 1603810191
    nsecs: 146251969
  frame_id: ''
s: 1.48618719201
n: 0.0163914544351
alpha: 6.3575282672
v: 0.488109542391
---
header: 
  seq: 2763
  stamp: 
    secs: 1603810191
    nsecs: 156246967
  frame_id: ''
s: 1.49109432499
n: 0.016336935234
alpha: 6.37352500375
v: 0.488408697021
---
header: 
  seq: 2764
  stamp: 
    secs: 1603810191
    nsecs: 166249582
  frame_id: ''
s: 1.49421909193
n: 0.0165356467278
alpha: 6.38490538793
v: 0.4863812083
---
header: 
  seq: 2765
  stamp: 
    secs: 1603810191
    nsecs: 176255796
  frame_id: ''
s: 1.49909880608
n: 0.016829489963
alpha: 6.39342190232
v: 0.486634061458
---
header: 
  seq: 2766
  stamp: 
    secs: 1603810191
    nsecs: 186266490
  frame_id: ''
s: 1.50338406111
n: 0.0163600712742
alpha: 6.36984010842
v: 0.478582806664
---
header: 
  seq: 2767
  stamp: 
    secs: 1603810191
    nsecs: 196246144
  frame_id: ''
s: 1.50734396949
n: 0.0154751903748
alpha: 6.32965283867
v: 0.467411717839
---
header: 
  seq: 2768
  stamp: 
    secs: 1603810191
    nsecs: 206247640
  frame_id: ''
s: 1.51131770358
n: 0.0145711646812
alpha: 6.30202185285
v: 0.458219473829
---
header: 
  seq: 2769
  stamp: 
    secs: 1603810191
    nsecs: 216244741
  frame_id: ''
s: 1.51565247219
n: 0.0137964181102
alpha: 6.29369669792
v: 0.455044024272
---
header: 
  seq: 2770
  stamp: 
    secs: 1603810191
    nsecs: 226251763
  frame_id: ''
s: 1.51807533492
n: 0.0139616631841
alpha: 6.30353993926
v: 0.445367178876
---
header: 
  seq: 2771
  stamp: 
    secs: 1603810191
    nsecs: 236272968
  frame_id: ''
s: 1.52184977565
n: 0.0137179837718
alpha: 6.30475718825
v: 0.436456618368
---
header: 
  seq: 2772
  stamp: 
    secs: 1603810191
    nsecs: 246256694
  frame_id: ''
s: 1.52684983146
n: 0.0131694287836
alpha: 6.33379961436
v: 0.443932605168
---
header: 
  seq: 2773
  stamp: 
    secs: 1603810191
    nsecs: 256248669
  frame_id: ''
s: 1.53125883113
n: 0.0131388767977
alpha: 6.34392879747
v: 0.443492774423
---
header: 
  seq: 2774
  stamp: 
    secs: 1603810191
    nsecs: 266251475
  frame_id: ''
s: 1.53634379403
n: 0.0127797382938
alpha: 6.33836232136
v: 0.45148149158
---
header: 
  seq: 2775
  stamp: 
    secs: 1603810191
    nsecs: 276248850
  frame_id: ''
s: 1.53914869845
n: 0.0122478677569
alpha: 6.33023344513
v: 0.445011541374
---
header: 
  seq: 2776
  stamp: 
    secs: 1603810191
    nsecs: 286261262
  frame_id: ''
s: 1.54330426603
n: 0.0120944371218
alpha: 6.33315433777
v: 0.440897379713
---
header: 
  seq: 2777
  stamp: 
    secs: 1603810191
    nsecs: 296251344
  frame_id: ''
s: 1.54756137019
n: 0.0119731395609
alpha: 6.3411628391
v: 0.438703730275
---
header: 
  seq: 2778
  stamp: 
    secs: 1603810191
    nsecs: 306251170
  frame_id: ''
s: 1.55138495053
n: 0.0118573485933
alpha: 6.35117909059
v: 0.431431605616
---
header: 
  seq: 2779
  stamp: 
    secs: 1603810191
    nsecs: 316241435
  frame_id: ''
s: 1.5548906667
n: 0.0112719451087
alpha: 6.34529648691
v: 0.420867235176
---
header: 
  seq: 2780
  stamp: 
    secs: 1603810191
    nsecs: 326242792
  frame_id: ''
s: 1.55814618725
n: 0.0105906017393
alpha: 6.33392995948
v: 0.40867474396
---
header: 
  seq: 2781
  stamp: 
    secs: 1603810191
    nsecs: 336246094
  frame_id: ''
s: 1.56206755361
n: 0.00993269730629
alpha: 6.33160396911
v: 0.40657778391
---
header: 
  seq: 2782
  stamp: 
    secs: 1603810191
    nsecs: 346256440
  frame_id: ''
s: 1.56550719165
n: 0.00952920452313
alpha: 6.33278885502
v: 0.410489099833
---
header: 
  seq: 2783
  stamp: 
    secs: 1603810191
    nsecs: 356253513
  frame_id: ''
s: 1.57029382213
n: 0.00846158729328
alpha: 6.30893591364
v: 0.418288486575
---
header: 
  seq: 2784
  stamp: 
    secs: 1603810191
    nsecs: 366249992
  frame_id: ''
s: 1.57411161995
n: 0.00816687311393
alpha: 6.29124527074
v: 0.413605043269
---
header: 
  seq: 2785
  stamp: 
    secs: 1603810191
    nsecs: 376248701
  frame_id: ''
s: 1.57838698015
n: 0.00783905756756
alpha: 6.28422258175
v: 0.415302401324
---
header: 
  seq: 2786
  stamp: 
    secs: 1603810191
    nsecs: 386246942
  frame_id: ''
s: 1.58239671157
n: 0.00751562324087
alpha: 6.283624399
v: 0.413501302713
---
header: 
  seq: 2787
  stamp: 
    secs: 1603810191
    nsecs: 396242446
  frame_id: ''
s: 1.5861721397
n: 0.00720119691585
alpha: 6.28820612209
v: 0.409020934893
---
header: 
  seq: 2788
  stamp: 
    secs: 1603810191
    nsecs: 406282479
  frame_id: ''
s: 1.5890599538
n: 0.00699300722536
alpha: 6.29405112351
v: 0.40257512748
---
header: 
  seq: 2789
  stamp: 
    secs: 1603810191
    nsecs: 416252343
  frame_id: ''
s: 1.59246943215
n: 0.00704742410757
alpha: 6.3056203325
v: 0.394775479789
---
header: 
  seq: 2790
  stamp: 
    secs: 1603810191
    nsecs: 426247728
  frame_id: ''
s: 1.59640265159
n: 0.00713999652257
alpha: 6.32189864047
v: 0.394560731015
---
header: 
  seq: 2791
  stamp: 
    secs: 1603810191
    nsecs: 436242716
  frame_id: ''
s: 1.60076316234
n: 0.00793759984229
alpha: 6.34164375941
v: 0.400358812152
---
header: 
  seq: 2792
  stamp: 
    secs: 1603810191
    nsecs: 446246892
  frame_id: ''
s: 1.6055748073
n: 0.00801388711378
alpha: 6.36426017717
v: 0.410406684487
---
header: 
  seq: 2793
  stamp: 
    secs: 1603810191
    nsecs: 456248357
  frame_id: ''
s: 1.60939741736
n: 0.00804753766087
alpha: 6.3834483799
v: 0.406799883359
---
header: 
  seq: 2794
  stamp: 
    secs: 1603810191
    nsecs: 466254556
  frame_id: ''
s: 1.61368448919
n: 0.00812055321635
alpha: 6.40462584455
v: 0.409513396697
---
header: 
  seq: 2795
  stamp: 
    secs: 1603810191
    nsecs: 476252243
  frame_id: ''
s: 1.61621849606
n: 0.00853267099451
alpha: 6.41863801928
v: 0.400212869744
---
header: 
  seq: 2796
  stamp: 
    secs: 1603810191
    nsecs: 486251643
  frame_id: ''
s: 1.62006991872
n: 0.00900688522228
alpha: 6.43758847598
v: 0.398672787113
---
header: 
  seq: 2797
  stamp: 
    secs: 1603810191
    nsecs: 496247606
  frame_id: ''
s: 1.62442116048
n: 0.00896114863032
alpha: 6.4295062757
v: 0.402661189271
---
header: 
  seq: 2798
  stamp: 
    secs: 1603810191
    nsecs: 506244172
  frame_id: ''
s: 1.62798750371
n: 0.00873465246437
alpha: 6.41681156656
v: 0.396257801424
---
header: 
  seq: 2799
  stamp: 
    secs: 1603810191
    nsecs: 516244719
  frame_id: ''
s: 1.63189762527
n: 0.00868437853109
alpha: 6.41120718623
v: 0.395309840547
---
header: 
  seq: 2800
  stamp: 
    secs: 1603810191
    nsecs: 526246121
  frame_id: ''
s: 1.63643178998
n: 0.00859652196723
alpha: 6.40342543532
v: 0.402323877755
---
header: 
  seq: 2801
  stamp: 
    secs: 1603810191
    nsecs: 536246174
  frame_id: ''
s: 1.64052703984
n: 0.00839704526865
alpha: 6.38271951182
v: 0.412861870882
---
header: 
  seq: 2802
  stamp: 
    secs: 1603810191
    nsecs: 546261766
  frame_id: ''
s: 1.64467605503
n: 0.00818728115097
alpha: 6.38849452753
v: 0.412301660246
---
header: 
  seq: 2803
  stamp: 
    secs: 1603810191
    nsecs: 556247119
  frame_id: ''
s: 1.64902024798
n: 0.0082576543032
alpha: 6.39947975555
v: 0.414825255802
---
header: 
  seq: 2804
  stamp: 
    secs: 1603810191
    nsecs: 566255286
  frame_id: ''
s: 1.65314399999
n: 0.00869874821213
alpha: 6.40083065949
v: 0.414825255802
---
header: 
  seq: 2805
  stamp: 
    secs: 1603810191
    nsecs: 576246452
  frame_id: ''
s: 1.65710533883
n: 0.00820347179488
alpha: 6.50955701323
v: 0.411666521185
---
header: 
  seq: 2806
  stamp: 
    secs: 1603810191
    nsecs: 586249605
  frame_id: ''
s: 1.66135001309
n: 0.00808506352247
alpha: 6.50428946171
v: 0.413019762647
---
header: 
  seq: 2807
  stamp: 
    secs: 1603810191
    nsecs: 596251037
  frame_id: ''
s: 1.66427481365
n: 0.00822549712705
alpha: 6.50479767316
v: 0.407713445665
---
header: 
  seq: 2808
  stamp: 
    secs: 1603810191
    nsecs: 606253445
  frame_id: ''
s: 1.66824414406
n: 0.00861123985015
alpha: 6.49427053809
v: 0.406523706806
---
header: 
  seq: 2809
  stamp: 
    secs: 1603810191
    nsecs: 616247190
  frame_id: ''
s: 1.67288665624
n: 0.00912669157628
alpha: 6.4917918278
v: 0.414100478729
---
header: 
  seq: 2810
  stamp: 
    secs: 1603810191
    nsecs: 626247951
  frame_id: ''
s: 1.67760461909
n: 0.00938807088192
alpha: 6.47952783062
v: 0.421250916088
---
header: 
  seq: 2811
  stamp: 
    secs: 1603810191
    nsecs: 636245495
  frame_id: ''
s: 1.68214776424
n: 0.00869521675699
alpha: 6.44947316094
v: 0.424090410158
---
header: 
  seq: 2812
  stamp: 
    secs: 1603810191
    nsecs: 646251950
  frame_id: ''
s: 1.68656583639
n: 0.00805863303485
alpha: 6.42973060012
v: 0.42553688045
---
header: 
  seq: 2813
  stamp: 
    secs: 1603810191
    nsecs: 656250411
  frame_id: ''
s: 1.69005807263
n: 0.00830407134726
alpha: 6.44012833054
v: 0.425803525268
---
header: 
  seq: 2814
  stamp: 
    secs: 1603810191
    nsecs: 666250171
  frame_id: ''
s: 1.69429468771
n: 0.00817148306571
alpha: 6.43303536377
v: 0.42480923538
---
header: 
  seq: 2815
  stamp: 
    secs: 1603810191
    nsecs: 676248329
  frame_id: ''
s: 1.69881694092
n: 0.00790850498287
alpha: 6.40106663076
v: 0.427512092477
---
header: 
  seq: 2816
  stamp: 
    secs: 1603810191
    nsecs: 686254970
  frame_id: ''
s: 1.70324516376
n: 0.00797672338535
alpha: 6.413798712
v: 0.429264784544
---
header: 
  seq: 2817
  stamp: 
    secs: 1603810191
    nsecs: 696247722
  frame_id: ''
s: 1.70761098688
n: 0.00750366118023
alpha: 6.40438652304
v: 0.429558132705
---
header: 
  seq: 2818
  stamp: 
    secs: 1603810191
    nsecs: 706253460
  frame_id: ''
s: 1.71113756746
n: 0.00744811132395
alpha: 6.40718852298
v: 0.428927881975
---
header: 
  seq: 2819
  stamp: 
    secs: 1603810191
    nsecs: 716248421
  frame_id: ''
s: 1.71608352313
n: 0.00797441926599
alpha: 6.43929819929
v: 0.437460645836
---
header: 
  seq: 2820
  stamp: 
    secs: 1603810191
    nsecs: 726246956
  frame_id: ''
s: 1.72133055887
n: 0.00852354483721
alpha: 6.44680148204
v: 0.448726517668
---
header: 
  seq: 2821
  stamp: 
    secs: 1603810191
    nsecs: 736246594
  frame_id: ''
s: 1.72557663336
n: 0.00854058951292
alpha: 6.43617051
v: 0.445273400264
---
header: 
  seq: 2822
  stamp: 
    secs: 1603810191
    nsecs: 746253208
  frame_id: ''
s: 1.72998070407
n: 0.0092380756103
alpha: 6.45170680749
v: 0.445344804558
---
header: 
  seq: 2823
  stamp: 
    secs: 1603810191
    nsecs: 756245317
  frame_id: ''
s: 1.73467644922
n: 0.00961619044071
alpha: 6.47098522223
v: 0.448540075576
---
header: 
  seq: 2824
  stamp: 
    secs: 1603810191
    nsecs: 766268783
  frame_id: ''
s: 1.73793076265
n: 0.0101122483686
alpha: 6.47937397713
v: 0.445364209055
---
header: 
  seq: 2825
  stamp: 
    secs: 1603810191
    nsecs: 776258025
  frame_id: ''
s: 1.74242267148
n: 0.00990416889993
alpha: 6.44414851031
v: 0.444264129674
---
header: 
  seq: 2826
  stamp: 
    secs: 1603810191
    nsecs: 786257109
  frame_id: ''
s: 1.74662990965
n: 0.00987229299522
alpha: 6.44450385163
v: 0.440504106337
---
header: 
  seq: 2827
  stamp: 
    secs: 1603810191
    nsecs: 796249630
  frame_id: ''
s: 1.75104864671
n: 0.00992561530383
alpha: 6.45112924081
v: 0.440178568445
---
header: 
  seq: 2828
  stamp: 
    secs: 1603810191
    nsecs: 806251682
  frame_id: ''
s: 1.75646759961
n: 0.0108299202341
alpha: 6.4798330535
v: 0.453898455644
---
header: 
  seq: 2829
  stamp: 
    secs: 1603810191
    nsecs: 816277377
  frame_id: ''
s: 1.76108099001
n: 0.0116099653549
alpha: 6.50615450115
v: 0.455681520351
---
header: 
  seq: 2830
  stamp: 
    secs: 1603810191
    nsecs: 826270832
  frame_id: ''
s: 1.7647913819
n: 0.0126712265554
alpha: 6.48778039175
v: 0.460693127811
---
header: 
  seq: 2831
  stamp: 
    secs: 1603810191
    nsecs: 836249076
  frame_id: ''
s: 1.76908880576
n: 0.0136370375695
alpha: 6.4998530149
v: 0.458144901232
---
header: 
  seq: 2832
  stamp: 
    secs: 1603810191
    nsecs: 846247270
  frame_id: ''
s: 1.77392192102
n: 0.013897386671
alpha: 6.47173250276
v: 0.460498032136
---
header: 
  seq: 2833
  stamp: 
    secs: 1603810191
    nsecs: 856248951
  frame_id: ''
s: 1.77807644048
n: 0.0139133949322
alpha: 6.43941269556
v: 0.45382900505
---
header: 
  seq: 2834
  stamp: 
    secs: 1603810191
    nsecs: 866245651
  frame_id: ''
s: 1.78296784472
n: 0.0140741236914
alpha: 6.42456332737
v: 0.457637610599
---
header: 
  seq: 2835
  stamp: 
    secs: 1603810191
    nsecs: 876245380
  frame_id: ''
s: 1.78699854002
n: 0.0141598026223
alpha: 6.40664356312
v: 0.45031215072
---
header: 
  seq: 2836
  stamp: 
    secs: 1603810191
    nsecs: 886253721
  frame_id: ''
s: 1.79174180948
n: 0.0144168676234
alpha: 6.38116619753
v: 0.453171267234
---
header: 
  seq: 2837
  stamp: 
    secs: 1603810191
    nsecs: 896248133
  frame_id: ''
s: 1.79658054609
n: 0.0147016195686
alpha: 6.37327340176
v: 0.456973634328
---
header: 
  seq: 2838
  stamp: 
    secs: 1603810191
    nsecs: 906247211
  frame_id: ''
s: 1.80118896095
n: 0.0155751929066
alpha: 6.35744838296
v: 0.458432030575
---
header: 
  seq: 2839
  stamp: 
    secs: 1603810191
    nsecs: 916246649
  frame_id: ''
s: 1.80497195324
n: 0.0164656515129
alpha: 6.36424680649
v: 0.449517561056
---
header: 
  seq: 2840
  stamp: 
    secs: 1603810191
    nsecs: 926249652
  frame_id: ''
s: 1.81125156102
n: 0.016802351711
alpha: 6.31469952931
v: 0.451201935046
---
header: 
  seq: 2841
  stamp: 
    secs: 1603810191
    nsecs: 936245752
  frame_id: ''
s: 1.81500696223
n: 0.0169662625111
alpha: 6.27986723672
v: 0.441753392082
---
header: 
  seq: 2842
  stamp: 
    secs: 1603810191
    nsecs: 946265266
  frame_id: ''
s: 1.8195778726
n: 0.017086957074
alpha: 6.25344370475
v: 0.443697671562
---
header: 
  seq: 2843
  stamp: 
    secs: 1603810191
    nsecs: 956251877
  frame_id: ''
s: 1.823464614
n: 0.0170228940584
alpha: 6.23228502505
v: 0.436734840375
---
header: 
  seq: 2844
  stamp: 
    secs: 1603810191
    nsecs: 966272086
  frame_id: ''
s: 1.82799435629
n: 0.0169819062624
alpha: 6.21061731955
v: 0.438737304086
---
header: 
  seq: 2845
  stamp: 
    secs: 1603810191
    nsecs: 976248603
  frame_id: ''
s: 1.8318686933
n: 0.016972402091
alpha: 6.20336677634
v: 0.432285181621
---
header: 
  seq: 2846
  stamp: 
    secs: 1603810191
    nsecs: 986246166
  frame_id: ''
s: 1.83837401233
n: 0.0171851297899
alpha: 6.21043826615
v: 0.43843453908
---
header: 
  seq: 2847
  stamp: 
    secs: 1603810191
    nsecs: 996244511
  frame_id: ''
s: 1.84243671998
n: 0.0172246943508
alpha: 6.22162778397
v: 0.434279258147
---
header: 
  seq: 2848
  stamp: 
    secs: 1603810192
    nsecs:   6252583
  frame_id: ''
s: 1.84718052794
n: 0.0175651632495
alpha: 6.19906762438
v: 0.439055174756
---
header: 
  seq: 2849
  stamp: 
    secs: 1603810192
    nsecs:  16250828
  frame_id: ''
s: 1.85124781525
n: 0.0178922759844
alpha: 6.16871473591
v: 0.434851996551
---
header: 
  seq: 2850
  stamp: 
    secs: 1603810192
    nsecs:  26252911
  frame_id: ''
s: 1.85515833593
n: 0.0181315775237
alpha: 6.15105936599
v: 0.429293348079
---
header: 
  seq: 2851
  stamp: 
    secs: 1603810192
    nsecs:  36248554
  frame_id: ''
s: 1.86086312533
n: 0.0180841099525
alpha: 6.12635755674
v: 0.424629158455
---
header: 
  seq: 2852
  stamp: 
    secs: 1603810192
    nsecs:  46251163
  frame_id: ''
s: 1.86478646937
n: 0.017674593617
alpha: 6.10898741933
v: 0.420837166379
---
header: 
  seq: 2853
  stamp: 
    secs: 1603810192
    nsecs:  56252229
  frame_id: ''
s: 1.86806590716
n: 0.0175490608429
alpha: 6.11994913126
v: 0.409111713843
---
header: 
  seq: 2854
  stamp: 
    secs: 1603810192
    nsecs:  66244039
  frame_id: ''
s: 1.8714395566
n: 0.0174272130128
alpha: 6.12603434548
v: 0.400045997651
---
header: 
  seq: 2855
  stamp: 
    secs: 1603810192
    nsecs:  76247018
  frame_id: ''
s: 1.87516726557
n: 0.0172879192071
alpha: 6.12645557071
v: 0.396575013796
---
header: 
  seq: 2856
  stamp: 
    secs: 1603810192
    nsecs:  86258390
  frame_id: ''
s: 1.8795904819
n: 0.0177816894879
alpha: 6.13397638546
v: 0.401707783632
---
header: 
  seq: 2857
  stamp: 
    secs: 1603810192
    nsecs:  96247093
  frame_id: ''
s: 1.88517265124
n: 0.0182228843682
alpha: 6.13100723769
v: 0.39847965574
---
header: 
  seq: 2858
  stamp: 
    secs: 1603810192
    nsecs: 106249164
  frame_id: ''
s: 1.88906275052
n: 0.0174868033321
alpha: 6.08025741599
v: 0.398089569026
---
header: 
  seq: 2859
  stamp: 
    secs: 1603810192
    nsecs: 116246917
  frame_id: ''
s: 1.8923535779
