header: 
  seq: 1346
  stamp: 
    secs: 1603810188
    nsecs: 536244415
  frame_id: ''
D: 0.462127950779
delta: -0.11232967431
dD: 0.14432963301
ddelta: -0.0237515031666
---
header: 
  seq: 1347
  stamp: 
    secs: 1603810188
    nsecs: 556246203
  frame_id: ''
D: 0.465874463772
delta: -0.112774035618
dD: 0.187325649614
ddelta: -0.022218065426
---
header: 
  seq: 1348
  stamp: 
    secs: 1603810188
    nsecs: 576247266
  frame_id: ''
D: 0.468007395355
delta: -0.112899752993
dD: 0.106646579151
ddelta: -0.00628586872075
---
header: 
  seq: 1349
  stamp: 
    secs: 1603810188
    nsecs: 596243215
  frame_id: ''
D: 0.471409589134
delta: -0.113269890079
dD: 0.170109688975
ddelta: -0.0185068543053
---
header: 
  seq: 1350
  stamp: 
    secs: 1603810188
    nsecs: 616254007
  frame_id: ''
D: 0.475151745142
delta: -0.113478015675
dD: 0.187107800385
ddelta: -0.0104062797822
---
header: 
  seq: 1351
  stamp: 
    secs: 1603810188
    nsecs: 636248149
  frame_id: ''
D: 0.481038774562
delta: -0.113858819541
dD: 0.294351471019
ddelta: -0.0190401933109
---
header: 
  seq: 1352
  stamp: 
    secs: 1603810188
    nsecs: 656250508
  frame_id: ''
D: 0.484516148845
delta: -0.113665498881
dD: 0.173868714141
ddelta: 0.00966603298339
---
header: 
  seq: 1353
  stamp: 
    secs: 1603810188
    nsecs: 676248909
  frame_id: ''
D: 0.486258825461
delta: -0.113450798979
dD: 0.0871338308007
ddelta: 0.0107349951108
---
header: 
  seq: 1354
  stamp: 
    secs: 1603810188
    nsecs: 696250185
  frame_id: ''
D: 0.491747728339
delta: -0.113858744283
dD: 0.274445143876
ddelta: -0.0203972651987
---
header: 
  seq: 1355
  stamp: 
    secs: 1603810188
    nsecs: 716244666
  frame_id: ''
D: 0.497802007232
delta: -0.113937265956
dD: 0.302713944671
ddelta: -0.00392608365029
---
header: 
  seq: 1356
  stamp: 
    secs: 1603810188
    nsecs: 736255028
  frame_id: ''
D: 0.504477283383
delta: -0.114025241768
dD: 0.333763807525
ddelta: -0.00439879058696
---
header: 
  seq: 1357
  stamp: 
    secs: 1603810188
    nsecs: 756245874
  frame_id: ''
D: 0.507842159492
delta: -0.113583596393
dD: 0.168243805448
ddelta: 0.0220822687298
---
header: 
  seq: 1358
  stamp: 
    secs: 1603810188
    nsecs: 776248117
  frame_id: ''
D: 0.508558431068
delta: -0.11309201004
dD: 0.0358135788424
ddelta: 0.0245793176705
---
header: 
  seq: 1359
  stamp: 
    secs: 1603810188
    nsecs: 796253554
  frame_id: ''
D: 0.509253562794
delta: -0.112817084953
dD: 0.034756586278
ddelta: 0.0137462543506
---
header: 
  seq: 1360
  stamp: 
    secs: 1603810188
    nsecs: 816247451
  frame_id: ''
D: 0.510922369177
delta: -0.111710650214
dD: 0.0834403191256
ddelta: 0.0553217369156
---
header: 
  seq: 1361
  stamp: 
    secs: 1603810188
    nsecs: 836241422
  frame_id: ''
D: 0.514401183711
delta: -0.111180822594
dD: 0.173940726711
ddelta: 0.0264913809934
---
header: 
  seq: 1362
  stamp: 
    secs: 1603810188
    nsecs: 856251237
  frame_id: ''
D: 0.514375372624
delta: -0.107630581507
dD: -0.00129055433605
ddelta: 0.177512054354
---
header: 
  seq: 1363
  stamp: 
    secs: 1603810188
    nsecs: 876246448
  frame_id: ''
D: 0.511299471235
delta: -0.0969286071647
dD: -0.153795069442
ddelta: 0.535098717131
---
header: 
  seq: 1364
  stamp: 
    secs: 1603810188
    nsecs: 896252230
  frame_id: ''
D: 0.51173068634
delta: -0.0898395933031
dD: 0.021560755219
ddelta: 0.354450693082
---
header: 
  seq: 1365
  stamp: 
    secs: 1603810188
    nsecs: 916246684
  frame_id: ''
D: 0.512962920949
delta: -0.0848245049992
dD: 0.0616117304485
ddelta: 0.250754415194
---
header: 
  seq: 1366
  stamp: 
    secs: 1603810188
    nsecs: 936244395
  frame_id: ''
D: 0.508891742264
delta: -0.0806190887979
dD: -0.203558934237
ddelta: 0.210270810066
---
header: 
  seq: 1367
  stamp: 
    secs: 1603810188
    nsecs: 956246870
  frame_id: ''
D: 0.502519330036
delta: -0.0775030052247
dD: -0.3186206114
ddelta: 0.155804178655
---
header: 
  seq: 1368
  stamp: 
    secs: 1603810188
    nsecs: 976254453
  frame_id: ''
D: 0.497244791042
delta: -0.0657575648251
dD: -0.263726949671
ddelta: 0.587272019984
---
header: 
  seq: 1369
  stamp: 
    secs: 1603810189
    nsecs:   6253111
  frame_id: ''
D: 0.492795047747
delta: -0.0566143729547
dD: -0.222487164764
ddelta: 0.457159593517
---
header: 
  seq: 1370
  stamp: 
    secs: 1603810189
    nsecs:  26254869
  frame_id: ''
D: 0.489635280605
delta: -0.0491009588146
dD: -0.157988357121
ddelta: 0.375670707005
---
header: 
  seq: 1371
  stamp: 
    secs: 1603810189
    nsecs:  46248770
  frame_id: ''
D: 0.480465886265
delta: -0.0376311691438
dD: -0.458469716987
ddelta: 0.573489483542
---
header: 
  seq: 1372
  stamp: 
    secs: 1603810189
    nsecs:  56244748
  frame_id: ''
D: 0.473709524136
delta: -0.0310173651767
dD: -0.337818106425
ddelta: 0.330690198353
---
header: 
  seq: 1373
  stamp: 
    secs: 1603810189
    nsecs:  76243075
  frame_id: ''
D: 0.469150115366
delta: -0.0285129974824
dD: -0.227970438517
ddelta: 0.125218384716
---
header: 
  seq: 1374
  stamp: 
    secs: 1603810189
    nsecs:  96246853
  frame_id: ''
D: 0.468696745315
delta: -0.0282463159902
dD: -0.0226685025361
ddelta: 0.0133340746106
---
header: 
  seq: 1375
  stamp: 
    secs: 1603810189
    nsecs: 116241463
  frame_id: ''
D: 0.469993085238
delta: -0.0148492229068
dD: 0.0648169961329
ddelta: 0.66985465417
---
header: 
  seq: 1376
  stamp: 
    secs: 1603810189
    nsecs: 136249537
  frame_id: ''
D: 0.466204521199
delta: 0.00711634417284
dD: -0.18942820195
ddelta: 1.09827835398
---
header: 
  seq: 1377
  stamp: 
    secs: 1603810189
    nsecs: 156248678
  frame_id: ''
D: 0.46248740514
delta: 0.0401807897485
dD: -0.185855802941
ddelta: 1.65322227879
---
header: 
  seq: 1378
  stamp: 
    secs: 1603810189
    nsecs: 176253222
  frame_id: ''
D: 0.459612467148
delta: 0.0690330971044
dD: -0.143746899622
ddelta: 1.4426153678
---
header: 
  seq: 1379
  stamp: 
    secs: 1603810189
    nsecs: 196243448
  frame_id: ''
D: 0.461393037971
delta: 0.0639368893118
dD: 0.0890285411581
ddelta: -0.254810389633
---
header: 
  seq: 1380
  stamp: 
    secs: 1603810189
    nsecs: 216255423
  frame_id: ''
D: 0.459473717881
delta: 0.0520039186482
dD: -0.0959660044881
ddelta: -0.596648533174
---
header: 
  seq: 1381
  stamp: 
    secs: 1603810189
    nsecs: 236244780
  frame_id: ''
D: 0.457178322574
delta: 0.0554218966366
dD: -0.114769765347
ddelta: 0.170898899419
---
header: 
  seq: 1382
  stamp: 
    secs: 1603810189
    nsecs: 256251847
  frame_id: ''
D: 0.457511239145
delta: 0.0678664886289
dD: 0.0166458285415
ddelta: 0.622229599617
---
header: 
  seq: 1383
  stamp: 
    secs: 1603810189
    nsecs: 276246811
  frame_id: ''
D: 0.459835305016
delta: 0.0836474956527
dD: 0.116203293557
ddelta: 0.789050351189
---
header: 
  seq: 1384
  stamp: 
    secs: 1603810189
    nsecs: 296244482
  frame_id: ''
D: 0.46185711344
delta: 0.104941714978
dD: 0.101090421199
ddelta: 1.06471096628
---
header: 
  seq: 1385
  stamp: 
    secs: 1603810189
    nsecs: 316241455
  frame_id: ''
D: 0.464061610784
delta: 0.120751578901
dD: 0.110224867218
ddelta: 0.790493196132
---
header: 
  seq: 1386
  stamp: 
    secs: 1603810189
    nsecs: 336252250
  frame_id: ''
D: 0.465397217672
delta: 0.107760007169
dD: 0.0667803443623
ddelta: -0.649578586583
---
header: 
  seq: 1387
  stamp: 
    secs: 1603810189
    nsecs: 356248767
  frame_id: ''
D: 0.46702123537
delta: 0.0905613244006
dD: 0.0812008849376
ddelta: -0.859934138423
---
header: 
  seq: 1388
  stamp: 
    secs: 1603810189
    nsecs: 386247656
  frame_id: ''
D: 0.472515991534
delta: 0.0734673771396
dD: 0.274737808169
ddelta: -0.854697363046
---
header: 
  seq: 1389
  stamp: 
    secs: 1603810189
    nsecs: 406255837
  frame_id: ''
D: 0.473804362826
delta: 0.0600775447564
dD: 0.0644185645886
ddelta: -0.669491619162
---
header: 
  seq: 1390
  stamp: 
    secs: 1603810189
    nsecs: 416265015
  frame_id: ''
D: 0.47381456449
delta: 0.0504000638118
dD: 0.000510083235433
ddelta: -0.48387404723
---
header: 
  seq: 1391
  stamp: 
    secs: 1603810189
    nsecs: 436243271
  frame_id: ''
D: 0.477135849553
delta: 0.044153632752
dD: 0.166064253146
ddelta: -0.312321552993
---
header: 
  seq: 1392
  stamp: 
    secs: 1603810189
    nsecs: 456249287
  frame_id: ''
D: 0.481547041191
delta: 0.0400681116094
dD: 0.220559581882
ddelta: -0.204276057126
---
header: 
  seq: 1393
  stamp: 
    secs: 1603810189
    nsecs: 476252169
  frame_id: ''
D: 0.485650880364
delta: 0.037225649954
dD: 0.20519195866
ddelta: -0.142123082768
---
header: 
  seq: 1394
  stamp: 
    secs: 1603810189
    nsecs: 496250644
  frame_id: ''
D: 0.488804574068
delta: 0.0348687911855
dD: 0.157684685202
ddelta: -0.117842938421
---
header: 
  seq: 1395
  stamp: 
    secs: 1603810189
    nsecs: 516246224
  frame_id: ''
D: 0.490818860495
delta: 0.0315158775477
dD: 0.100714321351
ddelta: -0.167645681891
---
header: 
  seq: 1396
  stamp: 
    secs: 1603810189
    nsecs: 536248699
  frame_id: ''
D: 0.493702073861
delta: 0.0245105466654
dD: 0.144160668302
ddelta: -0.350266544117
---
header: 
  seq: 1397
  stamp: 
    secs: 1603810189
    nsecs: 556243371
  frame_id: ''
D: 0.497759075954
delta: 0.0157917523994
dD: 0.202850104669
ddelta: -0.435939713301
---
header: 
  seq: 1398
  stamp: 
    secs: 1603810189
    nsecs: 576251417
  frame_id: ''
D: 0.50165975214
delta: -0.002059683181
dD: 0.195033809281
ddelta: -0.892571779017
---
header: 
  seq: 1399
  stamp: 
    secs: 1603810189
    nsecs: 596244044
  frame_id: ''
D: 0.502175203446
delta: -0.0146871972219
dD: 0.0257725652894
ddelta: -0.631375702044
---
header: 
  seq: 1400
  stamp: 
    secs: 1603810189
    nsecs: 616242463
  frame_id: ''
D: 0.500744214939
delta: -0.0327536900582
dD: -0.0715494253472
ddelta: -0.903324641814
---
header: 
  seq: 1401
  stamp: 
    secs: 1603810189
    nsecs: 636248097
  frame_id: ''
D: 0.500123211494
delta: -0.0429415412217
dD: -0.0310501722336
ddelta: -0.509392558178
---
header: 
  seq: 1402
  stamp: 
    secs: 1603810189
    nsecs: 656255941
  frame_id: ''
D: 0.501332810001
delta: -0.0487241458456
dD: 0.0604799253568
ddelta: -0.289130231193
---
header: 
  seq: 1403
  stamp: 
    secs: 1603810189
    nsecs: 676247555
  frame_id: ''
D: 0.502509232636
delta: -0.0531600492906
dD: 0.0588211317248
ddelta: -0.221795172252
---
header: 
  seq: 1404
  stamp: 
    secs: 1603810189
    nsecs: 696253189
  frame_id: ''
D: 0.499385284018
delta: -0.0661604869757
dD: -0.156197430871
ddelta: -0.650021884253
---
header: 
  seq: 1405
  stamp: 
    secs: 1603810189
    nsecs: 716246420
  frame_id: ''
D: 0.494896364778
delta: -0.0884379612682
dD: -0.224445962028
ddelta: -1.11387371463
---
header: 
  seq: 1406
  stamp: 
    secs: 1603810189
    nsecs: 736249011
  frame_id: ''
D: 0.493575912314
delta: -0.12008836676
dD: -0.0660226231695
ddelta: -1.5825202746
---
header: 
  seq: 1407
  stamp: 
    secs: 1603810189
    nsecs: 756255449
  frame_id: ''
D: 0.492134939474
delta: -0.148812327345
dD: -0.0720486420466
ddelta: -1.43619802924
---
header: 
  seq: 1408
  stamp: 
    secs: 1603810189
    nsecs: 776251496
  frame_id: ''
D: 0.485587465096
delta: -0.172746830322
dD: -0.327373718892
ddelta: -1.19672514883
---
header: 
  seq: 1409
  stamp: 
    secs: 1603810189
    nsecs: 796267898
  frame_id: ''
D: 0.480496195086
delta: -0.19532499751
dD: -0.254563500506
ddelta: -1.12890835944
---
header: 
  seq: 1410
  stamp: 
    secs: 1603810189
    nsecs: 816288212
  frame_id: ''
D: 0.47714958023
delta: -0.207362281475
dD: -0.167330742804
ddelta: -0.601864198215
---
header: 
  seq: 1411
  stamp: 
    secs: 1603810189
    nsecs: 836249290
  frame_id: ''
D: 0.475483348466
delta: -0.214140409631
dD: -0.08331158819
ddelta: -0.338906407833
---
header: 
  seq: 1412
  stamp: 
    secs: 1603810189
    nsecs: 856249601
  frame_id: ''
D: 0.475148412513
delta: -0.218927424793
dD: -0.01674679762
ddelta: -0.239350758064
---
header: 
  seq: 1413
  stamp: 
    secs: 1603810189
    nsecs: 876252642
  frame_id: ''
D: 0.468827954175
delta: -0.214163171227
dD: -0.316022916929
ddelta: 0.238212678265
---
header: 
  seq: 1414
  stamp: 
    secs: 1603810189
    nsecs: 896244580
  frame_id: ''
D: 0.461708879355
delta: -0.218809867611
dD: -0.355953740983
ddelta: -0.232334819201
---
header: 
  seq: 1415
  stamp: 
    secs: 1603810189
    nsecs: 916245568
  frame_id: ''
D: 0.454439922541
delta: -0.229767951492
dD: -0.363447840695
ddelta: -0.547904194036
---
header: 
  seq: 1416
  stamp: 
    secs: 1603810189
    nsecs: 936252094
  frame_id: ''
D: 0.451277696069
delta: -0.244026770235
dD: -0.158111323586
ddelta: -0.712940937136
---
header: 
  seq: 1417
  stamp: 
    secs: 1603810189
    nsecs: 956242209
  frame_id: ''
D: 0.448962923173
delta: -0.261531763117
dD: -0.115738644845
ddelta: -0.875249644137
---
header: 
  seq: 1418
  stamp: 
    secs: 1603810189
    nsecs: 976252065
  frame_id: ''
D: 0.453246659036
delta: -0.279621039513
dD: 0.214186793181
ddelta: -0.90446381977
---
header: 
  seq: 1419
  stamp: 
    secs: 1603810189
    nsecs: 996254694
  frame_id: ''
D: 0.461845076951
delta: -0.299162736283
dD: 0.429920895731
ddelta: -0.977084838529
---
header: 
  seq: 1420
  stamp: 
    secs: 1603810190
    nsecs:  26249639
  frame_id: ''
D: 0.461599803513
delta: -0.329025603514
dD: -0.0122636718789
ddelta: -1.49314336151
---
header: 
  seq: 1421
  stamp: 
    secs: 1603810190
    nsecs:  36247942
  frame_id: ''
D: 0.455955795794
delta: -0.354500507279
dD: -0.282200385938
ddelta: -1.27374518828
---
header: 
  seq: 1422
  stamp: 
    secs: 1603810190
    nsecs:  56249794
  frame_id: ''
D: 0.450880682382
delta: -0.358432294665
dD: -0.25375567063
ddelta: -0.196589369263
---
header: 
  seq: 1423
  stamp: 
    secs: 1603810190
    nsecs:  76243603
  frame_id: ''
D: 0.446936640504
delta: -0.370034582569
dD: -0.197202093914
ddelta: -0.580114395215
---
header: 
  seq: 1424
  stamp: 
    secs: 1603810190
    nsecs:  96250032
  frame_id: ''
D: 0.440891271094
delta: -0.394786287879
dD: -0.302268470486
ddelta: -1.23758526552
---
header: 
  seq: 1425
  stamp: 
    secs: 1603810190
    nsecs: 116279417
  frame_id: ''
D: 0.43756776284
delta: -0.4
dD: -0.16617541268
ddelta: -0.260685606029
---
header: 
  seq: 1426
  stamp: 
    secs: 1603810190
    nsecs: 136251546
  frame_id: ''
D: 0.447763892424
delta: -0.391192808292
dD: 0.509806479168
ddelta: 0.440359585404
---
header: 
  seq: 1427
  stamp: 
    secs: 1603810190
    nsecs: 156245205
  frame_id: ''
D: 0.453013712569
delta: -0.374430345782
dD: 0.262491007244
ddelta: 0.838123125477
---
header: 
  seq: 1428
  stamp: 
    secs: 1603810190
    nsecs: 176251035
  frame_id: ''
D: 0.455879355012
delta: -0.352253000674
dD: 0.143282122171
ddelta: 1.10886725541
---
header: 
  seq: 1429
  stamp: 
    secs: 1603810190
    nsecs: 196255858
  frame_id: ''
D: 0.460440351759
delta: -0.337397390875
dD: 0.228049837352
ddelta: 0.742780489971
---
header: 
  seq: 1430
  stamp: 
    secs: 1603810190
    nsecs: 216266938
  frame_id: ''
D: 0.466070546709
delta: -0.326616869251
dD: 0.281509747486
ddelta: 0.539026081167
---
header: 
  seq: 1431
  stamp: 
    secs: 1603810190
    nsecs: 236243691
  frame_id: ''
D: 0.471163470185
delta: -0.311052092529
dD: 0.254646173805
ddelta: 0.778238836135
---
header: 
  seq: 1432
  stamp: 
    secs: 1603810190
    nsecs: 256250422
  frame_id: ''
D: 0.477205611721
delta: -0.300014481306
dD: 0.302107076793
ddelta: 0.551880561137
---
header: 
  seq: 1433
  stamp: 
    secs: 1603810190
    nsecs: 276248995
  frame_id: ''
D: 0.484347033457
delta: -0.292851579466
dD: 0.35707108684
ddelta: 0.358145092017
---
header: 
  seq: 1434
  stamp: 
    secs: 1603810190
    nsecs: 296250237
  frame_id: ''
D: 0.492811012191
delta: -0.289680275384
dD: 0.423198936681
ddelta: 0.158565204101
---
header: 
  seq: 1435
  stamp: 
    secs: 1603810190
    nsecs: 316248367
  frame_id: ''
D: 0.50134249215
delta: -0.288637860428
dD: 0.42657399793
ddelta: 0.0521207477799
---
header: 
  seq: 1436
  stamp: 
    secs: 1603810190
    nsecs: 336244315
  frame_id: ''
D: 0.503885032852
delta: -0.283996744757
dD: 0.127127035132
ddelta: 0.232055783542
---
header: 
  seq: 1437
  stamp: 
    secs: 1603810190
    nsecs: 356244012
  frame_id: ''
D: 0.505735605928
delta: -0.278144317909
dD: 0.0925286537705
ddelta: 0.2926213424
---
header: 
  seq: 1438
  stamp: 
    secs: 1603810190
    nsecs: 376254515
  frame_id: ''
D: 0.507089155
delta: -0.272493370917
dD: 0.067677453635
ddelta: 0.282547349616
---
header: 
  seq: 1439
  stamp: 
    secs: 1603810190
    nsecs: 396245625
  frame_id: ''
D: 0.509789367361
delta: -0.272883195811
dD: 0.135010618041
ddelta: -0.0194912447103
---
header: 
  seq: 1440
  stamp: 
    secs: 1603810190
    nsecs: 416248226
  frame_id: ''
D: 0.512603479115
delta: -0.280790060293
dD: 0.140705587672
ddelta: -0.395343224085
---
header: 
  seq: 1441
  stamp: 
    secs: 1603810190
    nsecs: 436250419
  frame_id: ''
D: 0.513459740937
delta: -0.291904267885
dD: 0.0428130911112
ddelta: -0.555710379626
---
header: 
  seq: 1442
  stamp: 
    secs: 1603810190
    nsecs: 456251768
  frame_id: ''
D: 0.513290478527
delta: -0.305318675414
dD: -0.00846312050847
ddelta: -0.67072037645
---
header: 
  seq: 1443
  stamp: 
    secs: 1603810190
    nsecs: 476248257
  frame_id: ''
D: 0.511932670767
delta: -0.332258803887
dD: -0.0678903879969
ddelta: -1.34700642365
---
header: 
  seq: 1444
  stamp: 
    secs: 1603810190
    nsecs: 496250830
  frame_id: ''
D: 0.515410873036
delta: -0.340698921814
dD: 0.173910113459
ddelta: -0.422005896357
---
header: 
  seq: 1445
  stamp: 
    secs: 1603810190
    nsecs: 516244532
  frame_id: ''
D: 0.512691003778
delta: -0.349817529745
dD: -0.135993462911
ddelta: -0.455930396522
---
header: 
  seq: 1446
  stamp: 
    secs: 1603810190
    nsecs: 536271333
  frame_id: ''
D: 0.51079900632
delta: -0.361807565784
dD: -0.0945998728909
ddelta: -0.599501801978
---
header: 
  seq: 1447
  stamp: 
    secs: 1603810190
    nsecs: 556248835
  frame_id: ''
D: 0.505593979504
delta: -0.37622512731
dD: -0.260251340796
ddelta: -0.720878076287
---
header: 
  seq: 1448
  stamp: 
    secs: 1603810190
    nsecs: 576251123
  frame_id: ''
D: 0.50045295968
delta: -0.394305596043
dD: -0.257050991193
ddelta: -0.90402343663
---
header: 
  seq: 1449
  stamp: 
    secs: 1603810190
    nsecs: 596247647
  frame_id: ''
D: 0.496972053655
delta: -0.399999983901
dD: -0.174045301266
ddelta: -0.284719392935
---
header: 
  seq: 1450
  stamp: 
    secs: 1603810190
    nsecs: 616249345
  frame_id: ''
D: 0.494854527386
delta: -0.399999991024
dD: -0.105876313424
ddelta: -3.56153859349e-07
---
header: 
  seq: 1451
  stamp: 
    secs: 1603810190
    nsecs: 636241002
  frame_id: ''
D: 0.497875598737
delta: -0.38957185122
dD: 0.151053567521
ddelta: 0.521406990191
---
header: 
  seq: 1452
  stamp: 
    secs: 1603810190
    nsecs: 656247996
  frame_id: ''
D: 0.501128090889
delta: -0.387426132257
dD: 0.162624607621
ddelta: 0.10728594819
---
header: 
  seq: 1453
  stamp: 
    secs: 1603810190
    nsecs: 676254087
  frame_id: ''
D: 0.499320922936
delta: -0.386742712485
dD: -0.0903583976639
ddelta: 0.0341709885711
---
header: 
  seq: 1454
  stamp: 
    secs: 1603810190
    nsecs: 696252488
  frame_id: ''
D: 0.498437761417
delta: -0.393470496847
dD: -0.0441580759424
ddelta: -0.336389218084
---
header: 
  seq: 1455
  stamp: 
    secs: 1603810190
    nsecs: 716253494
  frame_id: ''
D: 0.497369919636
delta: -0.399999974777
dD: -0.0533920890408
ddelta: -0.326473896508
---
header: 
  seq: 1456
  stamp: 
    secs: 1603810190
    nsecs: 736248776
  frame_id: ''
D: 0.493001420957
delta: -0.399999999927
dD: -0.218424933961
ddelta: -1.25751896873e-06
---
header: 
  seq: 1457
  stamp: 
    secs: 1603810190
    nsecs: 756241233
  frame_id: ''
D: 0.491808510517
delta: -0.399337293629
dD: -0.0596455220047
ddelta: 0.0331353149027
---
header: 
  seq: 1458
  stamp: 
    secs: 1603810190
    nsecs: 776249222
  frame_id: ''
D: 0.490903577003
delta: -0.395727239106
dD: -0.0452466756834
ddelta: 0.180502726167
---
header: 
  seq: 1459
  stamp: 
    secs: 1603810190
    nsecs: 796249929
  frame_id: ''
D: 0.493276962295
delta: -0.399999999999
dD: 0.118669264569
ddelta: -0.213638044644
---
header: 
  seq: 1460
  stamp: 
    secs: 1603810190
    nsecs: 816251079
  frame_id: ''
D: 0.504665880745
delta: -0.399999999978
dD: 0.569445922496
ddelta: 1.04782510446e-09
---
header: 
  seq: 1461
  stamp: 
    secs: 1603810190
    nsecs: 836252541
  frame_id: ''
D: 0.517976115959
delta: -0.4
dD: 0.665511760725
ddelta: -1.09912161239e-09
---
header: 
  seq: 1462
  stamp: 
    secs: 1603810190
    nsecs: 856249375
  frame_id: ''
D: 0.540992609043
delta: -0.399999999994
dD: 1.1508246542
ddelta: 2.93340456006e-10
---
header: 
  seq: 1463
  stamp: 
    secs: 1603810190
    nsecs: 876247922
  frame_id: ''
D: 0.554621110192
delta: -0.384308640135
dD: 0.681425057435
ddelta: 0.784567992958
---
header: 
  seq: 1464
  stamp: 
    secs: 1603810190
    nsecs: 896257389
  frame_id: ''
D: 0.544933714106
delta: -0.344308640313
dD: -0.484369804288
ddelta: 1.9999999911
---
header: 
  seq: 1465
  stamp: 
    secs: 1603810190
    nsecs: 926253847
  frame_id: ''
D: 0.544017618376
delta: -0.304308641582
dD: -0.045804786482
ddelta: 1.99999993655
---
header: 
  seq: 1466
  stamp: 
    secs: 1603810190
    nsecs: 936251132
  frame_id: ''
D: 0.543819304359
delta: -0.268603059996
dD: -0.00991570087066
ddelta: 1.78527907928
---
header: 
  seq: 1467
  stamp: 
    secs: 1603810190
    nsecs: 956246187
  frame_id: ''
D: 0.519954229788
delta: -0.251647358836
dD: -1.19325372855
ddelta: 0.847785058036
---
header: 
  seq: 1468
  stamp: 
    secs: 1603810190
    nsecs: 976245376
  frame_id: ''
D: 0.489666703019
delta: -0.252731758696
dD: -1.51437633845
ddelta: -0.0542199930382
---
header: 
  seq: 1469
  stamp: 
    secs: 1603810190
    nsecs: 996249607
  frame_id: ''
D: 0.451953628227
delta: -0.276314519397
dD: -1.88565373963
ddelta: -1.17913803505
---
header: 
  seq: 1470
  stamp: 
    secs: 1603810191
    nsecs:  16244439
  frame_id: ''
D: 0.427395215626
delta: -0.284747599994
dD: -1.22792063005
ddelta: -0.421654029821
---
header: 
  seq: 1471
  stamp: 
    secs: 1603810191
    nsecs:  36245866
  frame_id: ''
D: 0.415758239244
delta: -0.290839645927
dD: -0.5818488191
ddelta: -0.304602296685
---
header: 
  seq: 1472
  stamp: 
    secs: 1603810191
    nsecs:  56251781
  frame_id: ''
D: 0.41170844497
delta: -0.32164141062
dD: -0.202489713698
ddelta: -1.54008823461
---
header: 
  seq: 1473
  stamp: 
    secs: 1603810191
    nsecs:  76246939
  frame_id: ''
D: 0.409277982041
delta: -0.337080872084
dD: -0.121523146413
ddelta: -0.771973073202
---
header: 
  seq: 1474
  stamp: 
    secs: 1603810191
    nsecs:  96251253
  frame_id: ''
D: 0.410957337614
delta: -0.325269876666
dD: 0.0839677786211
ddelta: 0.590549770852
---
header: 
  seq: 1475
  stamp: 
    secs: 1603810191
    nsecs: 116246781
  frame_id: ''
D: 0.415584777394
delta: -0.317002005763
dD: 0.231371988995
ddelta: 0.413393545167
---
header: 
  seq: 1476
  stamp: 
    secs: 1603810191
    nsecs: 136252708
  frame_id: ''
D: 0.422431730197
delta: -0.313074034297
dD: 0.342347640149
ddelta: 0.196398573325
---
header: 
  seq: 1477
  stamp: 
    secs: 1603810191
    nsecs: 156246967
  frame_id: ''
D: 0.429493098373
delta: -0.317470077992
dD: 0.353068408795
ddelta: -0.219802184754
---
header: 
  seq: 1478
  stamp: 
    secs: 1603810191
    nsecs: 176255796
  frame_id: ''
D: 0.434315050576
delta: -0.325646417974
dD: 0.241097610194
ddelta: -0.408816999112
---
header: 
  seq: 1479
  stamp: 
    secs: 1603810191
    nsecs: 196246144
  frame_id: ''
D: 0.442142698494
delta: -0.320296695629
dD: 0.391382395865
ddelta: 0.267486117269
---
header: 
  seq: 1480
  stamp: 
    secs: 1603810191
    nsecs: 216244741
  frame_id: ''
D: 0.450122754954
delta: -0.310530327071
dD: 0.399002822992
ddelta: 0.488318427893
---
header: 
  seq: 1481
  stamp: 
    secs: 1603810191
    nsecs: 236272968
  frame_id: ''
D: 0.459554376644
delta: -0.305660937771
dD: 0.471581084506
ddelta: 0.243469465008
---
header: 
  seq: 1482
  stamp: 
    secs: 1603810191
    nsecs: 256248669
  frame_id: ''
D: 0.464601730629
delta: -0.307900954917
dD: 0.252367699269
ddelta: -0.112000857291
---
header: 
  seq: 1483
  stamp: 
    secs: 1603810191
    nsecs: 276248850
  frame_id: ''
D: 0.467733386217
delta: -0.307233277962
dD: 0.156582779392
ddelta: 0.0333838477384
---
header: 
  seq: 1484
  stamp: 
    secs: 1603810191
    nsecs: 296251344
  frame_id: ''
D: 0.47113188349
delta: -0.308841098833
dD: 0.169924863653
ddelta: -0.0803910435606
---
header: 
  seq: 1485
  stamp: 
    secs: 1603810191
    nsecs: 316241435
  frame_id: ''
D: 0.47716145477
delta: -0.310546674457
dD: 0.301478563996
ddelta: -0.0852787812251
---
header: 
  seq: 1486
  stamp: 
    secs: 1603810191
    nsecs: 336246094
  frame_id: ''
D: 0.48427690475
delta: -0.308542069917
dD: 0.355772499006
ddelta: 0.100230227045
---
header: 
  seq: 1487
  stamp: 
    secs: 1603810191
    nsecs: 356253513
  frame_id: ''
D: 0.486755381179
delta: -0.301940263559
dD: 0.123923821451
ddelta: 0.330090317902
---
header: 
  seq: 1488
  stamp: 
    secs: 1603810191
    nsecs: 376248701
  frame_id: ''
D: 0.488956991973
delta: -0.292655429302
dD: 0.110080539711
ddelta: 0.464241712848
---
header: 
  seq: 1489
  stamp: 
    secs: 1603810191
    nsecs: 396242446
  frame_id: ''
D: 0.491721769371
delta: -0.285776871486
dD: 0.138238869905
ddelta: 0.343927890778
---
header: 
  seq: 1490
  stamp: 
    secs: 1603810191
    nsecs: 416252343
  frame_id: ''
D: 0.496552751295
delta: -0.283476087164
dD: 0.241549096168
ddelta: 0.115039216091
---
header: 
  seq: 1491
  stamp: 
    secs: 1603810191
    nsecs: 436242716
  frame_id: ''
D: 0.498636174501
delta: -0.288594430171
dD: 0.104171160328
ddelta: -0.255917150344
---
header: 
  seq: 1492
  stamp: 
    secs: 1603810191
    nsecs: 456248357
  frame_id: ''
D: 0.498518233518
delta: -0.29954686529
dD: -0.00589704918595
ddelta: -0.547621755931
---
header: 
  seq: 1493
  stamp: 
    secs: 1603810191
    nsecs: 476252243
  frame_id: ''
D: 0.499592751198
delta: -0.313467252807
dD: 0.0537258840072
ddelta: -0.69601937585
---
header: 
  seq: 1494
  stamp: 
    secs: 1603810191
    nsecs: 496247606
  frame_id: ''
D: 0.499545389186
delta: -0.323048660531
dD: -0.00236810060019
ddelta: -0.47907038624
---
header: 
  seq: 1495
  stamp: 
    secs: 1603810191
    nsecs: 516244719
  frame_id: ''
D: 0.500923203046
delta: -0.324034425169
dD: 0.0688906930337
ddelta: -0.0492882318764
---
header: 
  seq: 1496
  stamp: 
    secs: 1603810191
    nsecs: 536246174
  frame_id: ''
D: 0.498152319356
delta: -0.315270447382
dD: -0.138544184522
ddelta: 0.438198889338
---
header: 
  seq: 1497
  stamp: 
    secs: 1603810191
    nsecs: 556247119
  frame_id: ''
D: 0.49578141527
delta: -0.308648943904
dD: -0.11854520428
ddelta: 0.331075173925
---
header: 
  seq: 1498
  stamp: 
    secs: 1603810191
    nsecs: 576246452
  frame_id: ''
D: 0.494958669928
delta: -0.319317608028
dD: -0.0411372671264
ddelta: -0.533433206208
---
header: 
  seq: 1499
  stamp: 
    secs: 1603810191
    nsecs: 596251037
  frame_id: ''
D: 0.494219445977
delta: -0.319713891583
dD: -0.0369611975337
ddelta: -0.0198141777734
---
header: 
  seq: 1500
  stamp: 
    secs: 1603810191
    nsecs: 616247190
  frame_id: ''
D: 0.492060053858
delta: -0.311648637684
dD: -0.107969605945
ddelta: 0.40326269498
---
header: 
  seq: 1501
  stamp: 
    secs: 1603810191
    nsecs: 636245495
  frame_id: ''
D: 0.488119680259
delta: -0.291499655661
dD: -0.197018679987
ddelta: 1.00744910112
---
header: 
  seq: 1502
  stamp: 
    secs: 1603810191
    nsecs: 656250411
  frame_id: ''
D: 0.485375947031
delta: -0.271226175938
dD: -0.137186661371
ddelta: 1.01367398615
---
header: 
  seq: 1503
  stamp: 
    secs: 1603810191
    nsecs: 676248329
  frame_id: ''
D: 0.482838837632
delta: -0.24356611867
dD: -0.126855469934
ddelta: 1.3830028634
---
header: 
  seq: 1504
  stamp: 
    secs: 1603810191
    nsecs: 696247722
  frame_id: ''
D: 0.480938984663
delta: -0.219175524359
dD: -0.0949926484602
ddelta: 1.21952971558
---
header: 
  seq: 1505
  stamp: 
    secs: 1603810191
    nsecs: 716248421
  frame_id: ''
D: 0.478076996352
delta: -0.201337047202
dD: -0.143099415552
ddelta: 0.891923857819
---
header: 
  seq: 1506
  stamp: 
    secs: 1603810191
    nsecs: 736246594
  frame_id: ''
D: 0.474005029747
delta: -0.17991866701
dD: -0.203598330275
ddelta: 1.07091900962
---
header: 
  seq: 1507
  stamp: 
    secs: 1603810191
    nsecs: 756245317
  frame_id: ''
D: 0.470646253548
delta: -0.163527148871
dD: -0.167938809917
ddelta: 0.819575906972
---
header: 
  seq: 1508
  stamp: 
    secs: 1603810191
    nsecs: 776258025
  frame_id: ''
D: 0.468724158237
delta: -0.139672100668
dD: -0.096104765582
ddelta: 1.19275241015
---
header: 
  seq: 1509
  stamp: 
    secs: 1603810191
    nsecs: 796249630
  frame_id: ''
D: 0.468332848889
delta: -0.114044743133
dD: -0.0195654673845
ddelta: 1.28136787673
---
header: 
  seq: 1510
  stamp: 
    secs: 1603810191
    nsecs: 816277377
  frame_id: ''
D: 0.464889516228
delta: -0.0919622009585
dD: -0.172166633038
ddelta: 1.10412710873
---
header: 
  seq: 1511
  stamp: 
    secs: 1603810191
    nsecs: 836249076
  frame_id: ''
D: 0.461589762923
delta: -0.0668117873442
dD: -0.164987665283
ddelta: 1.25752068071
---
header: 
  seq: 1512
  stamp: 
    secs: 1603810191
    nsecs: 856248951
  frame_id: ''
D: 0.459762234161
delta: -0.0308395687223
dD: -0.0913764380919
ddelta: 1.7986109311
---
header: 
  seq: 1513
  stamp: 
    secs: 1603810191
    nsecs: 876245380
  frame_id: ''
D: 0.459748963303
delta: -0.000232448933727
dD: -0.000663542888362
ddelta: 1.53035598943
---
header: 
  seq: 1514
  stamp: 
    secs: 1603810191
    nsecs: 896248133
  frame_id: ''
D: 0.458536718223
delta: 0.0241632131234
dD: -0.0606122540146
ddelta: 1.21978310286
---
header: 
  seq: 1515
  stamp: 
    secs: 1603810191
    nsecs: 916246649
  frame_id: ''
D: 0.4594213183
delta: 0.038576173827
dD: 0.0442300038529
ddelta: 0.72064803518
---
header: 
  seq: 1516
  stamp: 
    secs: 1603810191
    nsecs: 936245752
  frame_id: ''
D: 0.460768999118
delta: 0.0642096392492
dD: 0.0673840408961
ddelta: 1.28167327111
---
header: 
  seq: 1517
  stamp: 
    secs: 1603810191
    nsecs: 956251877
  frame_id: ''
D: 0.462686652127
delta: 0.0926984820193
dD: 0.0958826504588
ddelta: 1.4244421385
---
header: 
  seq: 1518
  stamp: 
    secs: 1603810191
    nsecs: 976248603
  frame_id: ''
D: 0.465022370878
delta: 0.118725534419
dD: 0.116785937534
ddelta: 1.30135261996
---
header: 
  seq: 1519
  stamp: 
    secs: 1603810191
    nsecs: 996244511
  frame_id: ''
D: 0.466919690254
delta: 0.132360302423
dD: 0.0948659688021
ddelta: 0.681738400226
---
header: 
  seq: 1520
  stamp: 
    secs: 1603810192
    nsecs:  16250828
  frame_id: ''
D: 0.467308456793
delta: 0.152629639264
dD: 0.0194383269797
ddelta: 1.01346684203
---
header: 
  seq: 1521
  stamp: 
    secs: 1603810192
    nsecs:  36248554
  frame_id: ''
D: 0.469298238483
delta: 0.175819105801
dD: 0.0994890844897
ddelta: 1.15947332685
---
header: 
  seq: 1522
  stamp: 
    secs: 1603810192
    nsecs:  56252229
  frame_id: ''
D: 0.474399070089
delta: 0.193223539051
dD: 0.255041580285
ddelta: 0.870221662502
---
header: 
  seq: 1523
  stamp: 
    secs: 1603810192
    nsecs:  76247018
  frame_id: ''
D: 0.481028467191
delta: 0.203776124889
dD: 0.331469855128
ddelta: 0.527629291907
---
header: 
  seq: 1524
  stamp: 
    secs: 1603810192
    nsecs:  96247093
  frame_id: ''
D: 0.485367255755
delta: 0.209794407014
dD: 0.216939428177
ddelta: 0.300914106278
---
header: 
  seq: 1525
  stamp: 
    secs: 1603810192
    nsecs: 116246917
  frame_id: ''
D: 0.489831117827
delta: 0.220961777892
dD: 0.223193103595
ddelta: 0.558368543881
---
header: 
  seq: 1526
  stamp: 
    secs: 1603810192
    nsecs: 136245421
  frame_id: ''
D: 0.494419631172
delta: 0.223494856246
dD: 0.22942566727
ddelta: 0.126653917683
---
header: 
  seq: 1527
  stamp: 
    secs: 1603810192
    nsecs: 156248275
  frame_id: ''
D: 0.49795385971
delta: 0.22410396206
dD: 0.176711426912
ddelta: 0.0304552907206
---
header: 
  seq: 1528
  stamp: 
    secs: 1603810192
    nsecs: 176247448
  frame_id: ''
D: 0.499642096099
delta: 0.223812595299
dD: 0.0844118194471
ddelta: -0.0145683380716
---
header: 
  seq: 1529
  stamp: 
    secs: 1603810192
    nsecs: 196267940
  frame_id: ''
D: 0.500639174818
delta: 0.22415898873
dD: 0.0498539359372
ddelta: 0.0173196715516
---
header: 
  seq: 1530
  stamp: 
    secs: 1603810192
    nsecs: 216251797
  frame_id: ''
D: 0.501938212895
delta: 0.230441629423
dD: 0.0649519038322
ddelta: 0.31413203466
---
header: 
  seq: 1531
  stamp: 
    secs: 1603810192
    nsecs: 236249440
  frame_id: ''
D: 0.504984389462
delta: 0.241506780782
dD: 0.152308828376
ddelta: 0.553257567972
---
header: 
  seq: 1532
  stamp: 
    secs: 1603810192
    nsecs: 256252192
  frame_id: ''
D: 0.507379144433
delta: 0.253171603187
dD: 0.119737748537
ddelta: 0.583241120219
---
header: 
  seq: 1533
  stamp: 
    secs: 1603810192
    nsecs: 286266626
  frame_id: ''
D: 0.504989508251
delta: 0.262482276336
dD: -0.119481809102
ddelta: 0.465533657484
---
header: 
  seq: 1534
  stamp: 
    secs: 1603810192
    nsecs: 306249198
  frame_id: ''
D: 0.502653718002
delta: 0.27067019727
dD: -0.116789512434
ddelta: 0.409396046697
---
header: 
  seq: 1535
  stamp: 
    secs: 1603810192
    nsecs: 316250943
  frame_id: ''
D: 0.500012536108
delta: 0.283209862914
dD: -0.132059094726
ddelta: 0.626983282206
---
header: 
  seq: 1536
  stamp: 
    secs: 1603810192
    nsecs: 336254677
  frame_id: ''
D: 0.499224689792
delta: 0.292481176883
dD: -0.0393923157629
ddelta: 0.463565698445
---
header: 
  seq: 1537
  stamp: 
    secs: 1603810192
    nsecs: 356255392
  frame_id: ''
D: 0.497912025662
delta: 0.296113258601
dD: -0.0656332065444
ddelta: 0.181604085888
---
header: 
  seq: 1538
  stamp: 
    secs: 1603810192
    nsecs: 376247465
  frame_id: ''
D: 0.495247421585
delta: 0.300858114097
dD: -0.133230203815
ddelta: 0.237242774782
---
header: 
  seq: 1539
  stamp: 
    secs: 1603810192
    nsecs: 396249365
  frame_id: ''
D: 0.493992081254
delta: 0.309571616042
dD: -0.0627670165422
ddelta: 0.435675097281
---
header: 
  seq: 1540
  stamp: 
    secs: 1603810192
    nsecs: 416250523
  frame_id: ''
D: 0.492818992914
delta: 0.315777032178
dD: -0.0586544170372
ddelta: 0.310270806764
---
header: 
  seq: 1541
  stamp: 
    secs: 1603810192
    nsecs: 436247945
  frame_id: ''
D: 0.492586428193
delta: 0.318620463186
dD: -0.0116282360338
ddelta: 0.142171550436
---
header: 
  seq: 1542
  stamp: 
    secs: 1603810192
    nsecs: 456252151
  frame_id: ''
D: 0.488332090414
delta: 0.327825391281
dD: -0.212716888933
ddelta: 0.460246404728
---
header: 
  seq: 1543
  stamp: 
    secs: 1603810192
    nsecs: 476242719
  frame_id: ''
D: 0.483122028572
delta: 0.343443735193
dD: -0.260503092125
ddelta: 0.780917195596
---
header: 
  seq: 1544
  stamp: 
    secs: 1603810192
    nsecs: 496258356
  frame_id: ''
D: 0.480135711296
delta: 0.356061922711
dD: -0.149315863791
ddelta: 0.630909375902
---
header: 
  seq: 1545
  stamp: 
    secs: 1603810192
    nsecs: 516251346
  frame_id: ''
D: 0.477823325182
delta: 0.363770383214
dD: -0.115619305683
ddelta: 0.385423025177
---
header: 
  seq: 1546
  stamp: 
    secs: 1603810192
    nsecs: 536252542
  frame_id: ''
D: 0.477815659074
delta: 0.369441128724
dD: -0.000383305409661
ddelta: 0.283537275474
---
header: 
  seq: 1547
  stamp: 
    secs: 1603810192
    nsecs: 556249790
  frame_id: ''
D: 0.474538118606
delta: 0.372780731192
dD: -0.163877023412
ddelta: 0.166980123398
---
header: 
  seq: 1548
  stamp: 
    secs: 1603810192
    nsecs: 576246936
  frame_id: ''
D: 0.472416794313
delta: 0.376207670971
dD: -0.106066214631
ddelta: 0.171346988962
---
header: 
  seq: 1549
  stamp: 
    secs: 1603810192
    nsecs: 596243367
  frame_id: ''
D: 0.473536176314
delta: 0.374412769239
dD: 0.0559691000553
ddelta: -0.0897450865899
---
header: 
  seq: 1550
  stamp: 
    secs: 1603810192
    nsecs: 616253853
  frame_id: ''
D: 0.474215033901
delta: 0.377330770028
dD: 0.0339428793455
ddelta: 0.145900039428
---
header: 
  seq: 1551
  stamp: 
    secs: 1603810192
    nsecs: 636242814
  frame_id: ''
D: 0.477551121936
delta: 0.368661190687
dD: 0.166804401749
ddelta: -0.433478967019
---
header: 
  seq: 1552
  stamp: 
    secs: 1603810192
    nsecs: 656248716
  frame_id: ''
D: 0.480150592651
delta: 0.360837257489
dD: 0.129973535742
ddelta: -0.39119665992
---
header: 
  seq: 1553
  stamp: 
    secs: 1603810192
    nsecs: 676248623
  frame_id: ''
D: 0.484980028822
delta: 0.352752367928
dD: 0.241471808551
ddelta: -0.404244478065
---
header: 
  seq: 1554
  stamp: 
    secs: 1603810192
    nsecs: 696254293
  frame_id: ''
D: 0.491687426574
delta: 0.349539144634
dD: 0.335369887579
ddelta: -0.160661164658
---
header: 
  seq: 1555
  stamp: 
    secs: 1603810192
    nsecs: 716252082
  frame_id: ''
D: 0.499357741316
delta: 0.341990333366
dD: 0.38351573711
ddelta: -0.377440563423
---
header: 
  seq: 1556
  stamp: 
    secs: 1603810192
    nsecs: 736248550
  frame_id: ''
D: 0.504010160028
delta: 0.332597754426
dD: 0.232620935596
ddelta: -0.469628947009
---
header: 
  seq: 1557
  stamp: 
    secs: 1603810192
    nsecs: 756247759
  frame_id: ''
D: 0.507787683805
delta: 0.321456386626
dD: 0.188876188868
ddelta: -0.557068389971
---
header: 
  seq: 1558
  stamp: 
    secs: 1603810192
    nsecs: 776254167
  frame_id: ''
D: 0.513749305748
delta: 0.314089851403
dD: 0.298081097157
ddelta: -0.368326761155
---
header: 
  seq: 1559
  stamp: 
    secs: 1603810192
    nsecs: 796254228
  frame_id: ''
D: 0.520347216859
delta: 0.309644624412
dD: 0.329895555513
ddelta: -0.22226134959
---
header: 
  seq: 1560
  stamp: 
    secs: 1603810192
    nsecs: 816247456
  frame_id: ''
D: 0.527663470878
delta: 0.313361636979
dD: 0.365812700979
ddelta: 0.185850628388
---
header: 
  seq: 1561
  stamp: 
    secs: 1603810192
    nsecs: 836246225
  frame_id: ''
D: 0.532643117295
delta: 0.319499874952
dD: 0.24898232085
ddelta: 0.306911898655
---
header: 
  seq: 1562
  stamp: 
    secs: 1603810192
    nsecs: 856257594
  frame_id: ''
D: 0.537982126934
delta: 0.318303057327
dD: 0.266950481917
ddelta: -0.0598408812762
---
header: 
  seq: 1563
  stamp: 
    secs: 1603810192
    nsecs: 876243428
  frame_id: ''
D: 0.542937664121
delta: 0.308828779765
dD: 0.247776859399
ddelta: -0.473713878097
---
header: 
  seq: 1564
  stamp: 
    secs: 1603810192
    nsecs: 896247860
  frame_id: ''
D: 0.548902779017
delta: 0.293632674185
dD: 0.298255744779
ddelta: -0.759805279007
---
header: 
  seq: 1565
  stamp: 
    secs: 1603810192
    nsecs: 916247766
  frame_id: ''
D: 0.551284325822
delta: 0.289806824455
dD: 0.119077340224
ddelta: -0.191292486473
---
header: 
  seq: 1566
  stamp: 
    secs: 1603810192
    nsecs: 936251123
  frame_id: ''
D: 0.551380772395
delta: 0.296432217447
dD: 0.00482232869412
ddelta: 0.331269649583
---
header: 
  seq: 1567
  stamp: 
    secs: 1603810192
    nsecs: 956250494
  frame_id: ''
D: 0.54742876156
delta: 0.312400168116
dD: -0.19760054176
ddelta: 0.79839753345
---
header: 
  seq: 1568
  stamp: 
    secs: 1603810192
    nsecs: 976232271
  frame_id: ''
D: 0.547620247055
delta: 0.30979902795
dD: 0.00957427473948
ddelta: -0.130057008314
---
header: 
  seq: 1569
  stamp: 
    secs: 1603810192
    nsecs: 996242031
  frame_id: ''
D: 0.550831872321
delta: 0.298650440111
dD: 0.160581263316
ddelta: -0.557429391951
---
header: 
  seq: 1570
  stamp: 
    secs: 1603810193
    nsecs:  16249277
  frame_id: ''
D: 0.552557852988
delta: 0.284587615485
dD: 0.0862990333132
ddelta: -0.703141231259
---
header: 
  seq: 1571
  stamp: 
    secs: 1603810193
    nsecs:  36222685
  frame_id: ''
D: 0.55153517567
delta: 0.271642180772
dD: -0.0511338658697
ddelta: -0.647271735666
---
header: 
  seq: 1572
  stamp: 
    secs: 1603810193
    nsecs:  56254954
  frame_id: ''
D: 0.553934808097
delta: 0.260417590057
dD: 0.119981621338
ddelta: -0.561229535754
---
header: 
  seq: 1573
  stamp: 
    secs: 1603810193
    nsecs:  76250651
  frame_id: ''
D: 0.55531909749
delta: 0.262223215942
dD: 0.0692144696626
ddelta: 0.09028129425
---
header: 
  seq: 1574
  stamp: 
    secs: 1603810193
    nsecs:  96251113
  frame_id: ''
D: 0.553532305086
delta: 0.261854889992
dD: -0.089339620228
ddelta: -0.0184162975202
---
header: 
  seq: 1575
  stamp: 
    secs: 1603810193
    nsecs: 116249925
  frame_id: ''
D: 0.550693111887
delta: 0.261285540463
dD: -0.141959659911
ddelta: -0.0284674764335
---
header: 
  seq: 1576
  stamp: 
    secs: 1603810193
    nsecs: 136250604
  frame_id: ''
D: 0.549147684764
delta: 0.257307259827
dD: -0.0772713561933
ddelta: -0.198914031784
---
header: 
  seq: 1577
  stamp: 
    secs: 1603810193
    nsecs: 156249496
  frame_id: ''
D: 0.548306089921
delta: 0.256072843153
dD: -0.0420797421344
ddelta: -0.0617208337413
---
header: 
  seq: 1578
  stamp: 
    secs: 1603810193
    nsecs: 176253845
  frame_id: ''
D: 0.547853143891
delta: 0.254104429772
dD: -0.0226473015066
ddelta: -0.0984206690081
---
header: 
  seq: 1579
  stamp: 
    secs: 1603810193
    nsecs: 196248253
  frame_id: ''
D: 0.545825995892
delta: 0.256653636307
dD: -0.101357399945
ddelta: 0.127460326711
---
header: 
  seq: 1580
  stamp: 
    secs: 1603810193
    nsecs: 216249214
  frame_id: ''
D: 0.542408021488
delta: 0.26147946362
dD: -0.170898720211
ddelta: 0.241291365656
---
header: 
  seq: 1581
  stamp: 
    secs: 1603810193
    nsecs: 236249343
  frame_id: ''
D: 0.540043304058
delta: 0.267423087962
dD: -0.118235871476
ddelta: 0.297181217116
---
header: 
  seq: 1582
  stamp: 
    secs: 1603810193
    nsecs: 256275493
  frame_id: ''
D: 0.538977993857
delta: 0.271098024996
dD: -0.0532655100415
ddelta: 0.183746851703
---
header: 
  seq: 1583
  stamp: 
    secs: 1603810193
    nsecs: 276254416
  frame_id: ''
D: 0.539074541756
delta: 0.270008316758
dD: 0.00482739494879
ddelta: -0.0544854118946
---
header: 
  seq: 1584
  stamp: 
    secs: 1603810193
    nsecs: 306246437
  frame_id: ''
D: 0.535677406909
delta: 0.272656006357
dD: -0.169856742378
ddelta: 0.132384479904
---
header: 
  seq: 1585
  stamp: 
    secs: 1603810193
    nsecs: 326253146
  frame_id: ''
D: 0.533653014386
delta: 0.278666401395
dD: -0.101219626146
ddelta: 0.300519751939
---
header: 
  seq: 1586
  stamp: 
    secs: 1603810193
    nsecs: 346254381
  frame_id: ''
D: 0.533519357645
delta: 0.285941176183
dD: -0.0066828370283
ddelta: 0.36373873937
---
header: 
  seq: 1587
  stamp: 
    secs: 1603810193
    nsecs: 366265507
  frame_id: ''
D: 0.535120795045
delta: 0.286779990357
dD: 0.0800718699769
ddelta: 0.0419407087096
---
header: 
  seq: 1588
  stamp: 
    secs: 1603810193
    nsecs: 376249720
  frame_id: ''
D: 0.535008661116
delta: 0.281487484184
dD: -0.00560669645473
ddelta: -0.264625308624
---
header: 
  seq: 1589
  stamp: 
    secs: 1603810193
    nsecs: 406247073
  frame_id: ''
D: 0.530927982178
delta: 0.270372020187
dD: -0.204033946911
ddelta: -0.555773199897
---
header: 
  seq: 1590
  stamp: 
    secs: 1603810193
    nsecs: 416253325
  frame_id: ''
D: 0.529273139559
delta: 0.262781579964
dD: -0.0827421309384
ddelta: -0.379522011138
---
header: 
  seq: 1591
  stamp: 
    secs: 1603810193
    nsecs: 436250017
  frame_id: ''
D: 0.529284901411
delta: 0.25938465215
dD: 0.00058809261543
ddelta: -0.16984639067
---
header: 
  seq: 1592
  stamp: 
    secs: 1603810193
    nsecs: 456246202
  frame_id: ''
D: 0.529501738227
delta: 0.254616915045
dD: 0.0108418408204
ddelta: -0.238386855281
---
header: 
  seq: 1593
  stamp: 
    secs: 1603810193
    nsecs: 476251607
  frame_id: ''
D: 0.526088033378
delta: 0.257424360911
dD: -0.170685242484
ddelta: 0.140372293314
---
header: 
  seq: 1594
  stamp: 
    secs: 1603810193
    nsecs: 496249670
  frame_id: ''
D: 0.523037618939
delta: 0.265293757823
dD: -0.152520721943
ddelta: 0.393469845596
---
header: 
  seq: 1595
  stamp: 
    secs: 1603810193
    nsecs: 516268219
  frame_id: ''
D: 0.520221159798
delta: 0.261586355078
dD: -0.140822957022
ddelta: -0.185370137264
---
header: 
  seq: 1596
  stamp: 
    secs: 1603810193
    nsecs: 536251815
  frame_id: ''
D: 0.519380071237
delta: 0.254481755986
dD: -0.0420544280724
ddelta: -0.355229954579
---
header: 
  seq: 1597
  stamp: 
    secs: 1603810193
    nsecs: 556246940
  frame_id: ''
D: 0.518226727055
delta: 0.240199803546
dD: -0.0576672090816
ddelta: -0.714097621997
---
header: 
  seq: 1598
  stamp: 
    secs: 1603810193
    nsecs: 576274134
  frame_id: ''
D: 0.513729124474
delta: 0.227612486137
dD: -0.22488012908
ddelta: -0.629365870447
---
header: 
  seq: 1599
  stamp: 
    secs: 1603810193
    nsecs: 596253390
  frame_id: ''
D: 0.510370174866
delta: 0.216497553373
dD: -0.167947480386
ddelta: -0.555746638202
---
header: 
  seq: 1600
  stamp: 
    secs: 1603810193
    nsecs: 616246306
  frame_id: ''
D: 0.507616344323
delta: 0.199277062245
dD: -0.137691527154
ddelta: -0.861024556409
---
header: 
  seq: 1601
  stamp: 
    secs: 1603810193
    nsecs: 636259958
  frame_id: ''
D: 0.506750381034
delta: 0.177985042805
dD: -0.0432981644643
ddelta: -1.06460097201
---
header: 
  seq: 1602
  stamp: 
    secs: 1603810193
    nsecs: 656275303
  frame_id: ''
D: 0.503676537898
delta: 0.159985964475
dD: -0.153692156786
ddelta: -0.899953916492
---
header: 
  seq: 1603
  stamp: 
    secs: 1603810193
    nsecs: 676248363
  frame_id: ''
D: 0.499769528872
delta: 0.143544702736
dD: -0.19535045128
ddelta: -0.822063086944
---
header: 
  seq: 1604
  stamp: 
    secs: 1603810193
    nsecs: 696267476
  frame_id: ''
D: 0.496360692171
delta: 0.125928073968
dD: -0.17044183508
ddelta: -0.8808314384
---
header: 
  seq: 1605
  stamp: 
    secs: 1603810193
    nsecs: 716252461
  frame_id: ''
D: 0.493904474249
delta: 0.101287106988
dD: -0.122810896067
ddelta: -1.23204834899
---
header: 
  seq: 1606
  stamp: 
    secs: 1603810193
    nsecs: 736252679
  frame_id: ''
D: 0.491687167901
delta: 0.0688787672213
dD: -0.110865317445
ddelta: -1.62041698834
---
header: 
  seq: 1607
  stamp: 
    secs: 1603810193
    nsecs: 756246586
  frame_id: ''
D: 0.485591830952
delta: 0.0288787672214
dD: -0.304766847412
ddelta: -2.0
---
header: 
  seq: 1608
  stamp: 
    secs: 1603810193
    nsecs: 776249081
  frame_id: ''
D: 0.481491243766
delta: -0.0111212327759
dD: -0.205029359331
ddelta: -1.99999999986
---
header: 
  seq: 1609
  stamp: 
    secs: 1603810193
    nsecs: 796245469
  frame_id: ''
D: 0.479116230609
delta: -0.037040315048
dD: -0.118750657852
ddelta: -1.2959541136
---
header: 
  seq: 1610
  stamp: 
    secs: 1603810193
    nsecs: 816245821
  frame_id: ''
D: 0.47834086819
delta: -0.0553606739783
dD: -0.0387681209348
ddelta: -0.916017946517
---
header: 
  seq: 1611
  stamp: 
    secs: 1603810193
    nsecs: 836248214
  frame_id: ''
D: 0.475453433916
delta: -0.0772230717028
dD: -0.144371713701
ddelta: -1.09311988622
---
header: 
  seq: 1612
  stamp: 
    secs: 1603810193
    nsecs: 856252215
  frame_id: ''
D: 0.470334900213
delta: -0.10400095206
dD: -0.25592668517
ddelta: -1.33889401787
---
header: 
  seq: 1613
  stamp: 
    secs: 1603810193
    nsecs: 876243718
  frame_id: ''
D: 0.46635585933
delta: -0.131575848419
dD: -0.198952044144
ddelta: -1.37874481793
---
header: 
  seq: 1614
  stamp: 
    secs: 1603810193
    nsecs: 896249159
  frame_id: ''
D: 0.465295299281
delta: -0.155751730595
dD: -0.0530280024599
ddelta: -1.20879410879
---
header: 
  seq: 1615
  stamp: 
    secs: 1603810193
    nsecs: 916243148
  frame_id: ''
D: 0.465014899888
delta: -0.178537371778
dD: -0.0140199696261
ddelta: -1.13928205919
---
header: 
  seq: 1616
  stamp: 
    secs: 1603810193
    nsecs: 936244975
  frame_id: ''
D: 0.464683751485
delta: -0.206606818123
dD: -0.016557420132
ddelta: -1.40347231722
---
header: 
  seq: 1617
  stamp: 
    secs: 1603810193
    nsecs: 956253023
  frame_id: ''
D: 0.464723267818
delta: -0.23484559928
dD: 0.00197581663172
ddelta: -1.41193905784
---
header: 
  seq: 1618
  stamp: 
    secs: 1603810193
    nsecs: 976251463
  frame_id: ''
D: 0.464248689332
delta: -0.255816824441
dD: -0.0237289243153
ddelta: -1.04856125805
---
header: 
  seq: 1619
  stamp: 
    secs: 1603810193
    nsecs: 996272966
  frame_id: ''
D: 0.465092798351
delta: -0.269528575405
dD: 0.0422054509788
ddelta: -0.685587548219
---
header: 
  seq: 1620
  stamp: 
    secs: 1603810194
    nsecs:  16253403
  frame_id: ''
D: 0.466866366271
delta: -0.284868627038
dD: 0.0886783959946
ddelta: -0.76700258165
---
header: 
  seq: 1621
  stamp: 
    secs: 1603810194
    nsecs:  36271560
  frame_id: ''
D: 0.466651065895
delta: -0.29678281502
dD: -0.010765018833
ddelta: -0.595709399128
---
header: 
  seq: 1622
  stamp: 
    secs: 1603810194
    nsecs:  56246765
  frame_id: ''
D: 0.467973731073
delta: -0.307498775893
dD: 0.0661332589476
ddelta: -0.535798043607
---
header: 
  seq: 1623
  stamp: 
    secs: 1603810194
    nsecs:  76246506
  frame_id: ''
D: 0.469762474298
delta: -0.311908704623
dD: 0.0894371612197
ddelta: -0.220496436527
---
header: 
  seq: 1624
  stamp: 
    secs: 1603810194
    nsecs:  96249563
  frame_id: ''
D: 0.473768385752
delta: -0.319036387846
dD: 0.200295572711
ddelta: -0.356384161145
---
header: 
  seq: 1625
  stamp: 
    secs: 1603810194
    nsecs: 116247911
  frame_id: ''
D: 0.478088489366
delta: -0.328087736901
dD: 0.216005180682
ddelta: -0.452567452762
---
header: 
  seq: 1626
  stamp: 
    secs: 1603810194
    nsecs: 136250279
  frame_id: ''
D: 0.48336974206
delta: -0.315650292352
dD: 0.264062634708
ddelta: 0.621872227446
---
header: 
  seq: 1627
  stamp: 
    secs: 1603810194
    nsecs: 156252554
  frame_id: ''
D: 0.485522152956
delta: -0.312976381215
dD: 0.107620544826
ddelta: 0.133695556852
---
header: 
  seq: 1628
  stamp: 
    secs: 1603810194
    nsecs: 176251912
  frame_id: ''
D: 0.487742157827
delta: -0.322346569006
dD: 0.111000243554
ddelta: -0.468509389537
---
header: 
  seq: 1629
  stamp: 
    secs: 1603810194
    nsecs: 196253162
  frame_id: ''
D: 0.491257203053
delta: -0.328488212124
dD: 0.175752261276
ddelta: -0.307082155888
---
header: 
  seq: 1630
  stamp: 
    secs: 1603810194
    nsecs: 216254360
  frame_id: ''
D: 0.491595224798
delta: -0.329345961107
dD: 0.0169010872449
ddelta: -0.0428874491757
---
header: 
  seq: 1631
  stamp: 
    secs: 1603810194
    nsecs: 236245977
  frame_id: ''
D: 0.492164812495
delta: -0.32979214494
dD: 0.0284793848437
ddelta: -0.0223091916377
---
header: 
  seq: 1632
  stamp: 
    secs: 1603810194
    nsecs: 256253855
  frame_id: ''
D: 0.493300427522
delta: -0.331195392768
dD: 0.0567807513553
ddelta: -0.0701623913938
---
header: 
  seq: 1633
  stamp: 
    secs: 1603810194
    nsecs: 276242727
  frame_id: ''
D: 0.493948849304
delta: -0.340273472451
dD: 0.0324210891038
ddelta: -0.453903984156
---
header: 
  seq: 1634
  stamp: 
    secs: 1603810194
    nsecs: 296251732
  frame_id: ''
D: 0.496267204393
delta: -0.346325112944
dD: 0.115917754462
ddelta: -0.302582024661
---
header: 
  seq: 1635
  stamp: 
    secs: 1603810194
    nsecs: 316253383
  frame_id: ''
D: 0.495761235745
delta: -0.358281327172
dD: -0.0252984324175
ddelta: -0.597810711382
---
header: 
  seq: 1636
  stamp: 
    secs: 1603810194
    nsecs: 336252401
  frame_id: ''
D: 0.495686571133
delta: -0.371201972994
dD: -0.00373323057858
ddelta: -0.64603229109
---
header: 
  seq: 1637
  stamp: 
    secs: 1603810194
    nsecs: 356251198
  frame_id: ''
D: 0.493293475752
delta: -0.383321492065
dD: -0.119654769085
ddelta: -0.605975953582
---
header: 
  seq: 1638
  stamp: 
    secs: 1603810194
    nsecs: 376255736
  frame_id: ''
D: 0.494208469206
delta: -0.385161715741
dD: 0.0457496727377
ddelta: -0.0920111837617
---
header: 
  seq: 1639
  stamp: 
    secs: 1603810194
    nsecs: 396251415
  frame_id: ''
D: 0.490471611287
delta: -0.389640318235
dD: -0.186842895973
ddelta: -0.223930124695
---
header: 
  seq: 1640
  stamp: 
    secs: 1603810194
    nsecs: 416246618
  frame_id: ''
D: 0.485923006611
delta: -0.397525536681
dD: -0.227430233792
ddelta: -0.394260922302
---
header: 
  seq: 1641
  stamp: 
    secs: 1603810194
    nsecs: 436246548
  frame_id: ''
D: 0.478471877229
delta: -0.4
dD: -0.372556469115
ddelta: -0.123723165958
---
header: 
  seq: 1642
  stamp: 
    secs: 1603810194
    nsecs: 456253633
  frame_id: ''
D: 0.472787058767
delta: -0.4
dD: -0.284240923081
ddelta: -1.17803128363e-11
---
header: 
  seq: 1643
  stamp: 
    secs: 1603810194
    nsecs: 476248452
  frame_id: ''
D: 0.473981898935
delta: -0.399999999996
dD: 0.0597420084175
ddelta: 2.20107398949e-10
---
header: 
  seq: 1644
  stamp: 
    secs: 1603810194
    nsecs: 496244938
  frame_id: ''
D: 0.472969648457
delta: -0.4
dD: -0.0506125238983
ddelta: -2.18236819936e-10
---
header: 
  seq: 1645
  stamp: 
    secs: 1603810194
    nsecs: 516244219
  frame_id: ''
D: 0.472022149151
delta: -0.399999999999
dD: -0.0473749653075
ddelta: 5.81977412914e-11
---
header: 
  seq: 1646
  stamp: 
    secs: 1603810194
    nsecs: 536251432
  frame_id: ''
D: 0.47453576066
delta: -0.398529156168
dD: 0.125680575425
ddelta: 0.0735421915628
---
header: 
  seq: 1647
  stamp: 
    secs: 1603810194
    nsecs: 556245937
  frame_id: ''
D: 0.477905963061
delta: -0.393120597332
dD: 0.168510120054
ddelta: 0.27042794178
---
header: 
  seq: 1648
  stamp: 
    secs: 1603810194
    nsecs: 576254464
  frame_id: ''
D: 0.479148701582
delta: -0.381275676424
dD: 0.0621369260454
ddelta: 0.592246045386
---
header: 
  seq: 1649
  stamp: 
    secs: 1603810194
    nsecs: 596248407
  frame_id: ''
D: 0.479682127742
delta: -0.366001283266
dD: 0.0266713080157
ddelta: 0.763719657909
---
header: 
  seq: 1650
  stamp: 
    secs: 1603810194
    nsecs: 616250767
  frame_id: ''
D: 0.481921638765
delta: -0.352352032645
dD: 0.111975551125
ddelta: 0.682462531037
---
header: 
  seq: 1651
  stamp: 
    secs: 1603810194
    nsecs: 636247352
  frame_id: ''
D: 0.485821074958
delta: -0.342219289046
dD: 0.194971809661
ddelta: 0.506637179981
---
header: 
  seq: 1652
  stamp: 
    secs: 1603810194
    nsecs: 656246717
  frame_id: ''
D: 0.491222419705
delta: -0.333913547798
dD: 0.27006723735
ddelta: 0.415287062386
---
header: 
  seq: 1653
  stamp: 
    secs: 1603810194
    nsecs: 676252378
  frame_id: ''
D: 0.503796704586
delta: -0.328956727201
dD: 0.628714244038
ddelta: 0.247841029865
---
header: 
  seq: 1654
  stamp: 
    secs: 1603810194
    nsecs: 696247642
  frame_id: ''
D: 0.518636140339
delta: -0.32689487748
dD: 0.741971787681
ddelta: 0.10309248604
---
header: 
  seq: 1655
  stamp: 
    secs: 1603810194
    nsecs: 716245423
  frame_id: ''
D: 0.523419782151
delta: -0.332890882046
dD: 0.239182090583
ddelta: -0.299800228317
---
header: 
  seq: 1656
  stamp: 
    secs: 1603810194
    nsecs: 736257244
  frame_id: ''
D: 0.520748495863
delta: -0.327406180434
dD: -0.133564314403
ddelta: 0.274235080625
---
header: 
  seq: 1657
  stamp: 
    secs: 1603810194
    nsecs: 756252167
  frame_id: ''
D: 0.52055153793
delta: -0.329756391668
dD: -0.00984789663869
ddelta: -0.117510561733
---
header: 
  seq: 1658
  stamp: 
    secs: 1603810194
    nsecs: 776247750
  frame_id: ''
D: 0.52057926019
delta: -0.317638571488
dD: 0.00138611298403
ddelta: 0.605891008963
---
header: 
  seq: 1659
  stamp: 
    secs: 1603810194
    nsecs: 796243867
  frame_id: ''
D: 0.514744839242
delta: -0.304865811417
dD: -0.291721047384
ddelta: 0.638638003531
---
header: 
  seq: 1660
  stamp: 
    secs: 1603810194
    nsecs: 816250683
  frame_id: ''
D: 0.508890847991
delta: -0.295394740924
dD: -0.292699562564
ddelta: 0.473553524688
---
header: 
  seq: 1661
  stamp: 
    secs: 1603810194
    nsecs: 836252220
  frame_id: ''
D: 0.506018472744
delta: -0.292446087393
dD: -0.143618762333
ddelta: 0.147432676514
---
header: 
  seq: 1662
  stamp: 
    secs: 1603810194
    nsecs: 856252333
  frame_id: ''
D: 0.501906548712
delta: -0.297649000792
dD: -0.205596201628
ddelta: -0.260145669933
---
header: 
  seq: 1663
  stamp: 
    secs: 1603810194
    nsecs: 876240876
  frame_id: ''
D: 0.503964899748
delta: -0.30716491489
dD: 0.102917551831
ddelta: -0.475795704925
---
header: 
  seq: 1664
  stamp: 
    secs: 1603810194
    nsecs: 896248149
  frame_id: ''
D: 0.51016661495
delta: -0.319759479801
dD: 0.310085760071
ddelta: -0.629728245539
---
header: 
  seq: 1665
  stamp: 
    secs: 1603810194
    nsecs: 916248881
  frame_id: ''
D: 0.511233334583
delta: -0.340403990296
dD: 0.0533359816603
ddelta: -1.03222552474
---
header: 
  seq: 1666
  stamp: 
    secs: 1603810194
    nsecs: 936250910
  frame_id: ''
D: 0.513501407642
delta: -0.363384696193
dD: 0.113403652938
ddelta: -1.14903529485
---
header: 
  seq: 1667
  stamp: 
    secs: 1603810194
    nsecs: 956243183
  frame_id: ''
D: 0.524037892345
delta: -0.384140062433
dD: 0.526824235198
ddelta: -1.03776831199
---
header: 
  seq: 1668
  stamp: 
    secs: 1603810194
    nsecs: 976250180
  frame_id: ''
D: 0.537194943264
delta: -0.396230302249
dD: 0.657852545942
ddelta: -0.604511990823
---
header: 
  seq: 1669
  stamp: 
    secs: 1603810194
    nsecs: 996246482
  frame_id: ''
D: 0.558886299327
delta: -0.39999999995
dD: 1.08456780314
ddelta: -0.188484885026
---
header: 
  seq: 1670
  stamp: 
    secs: 1603810195
    nsecs:  16246310
  frame_id: ''
D: 0.591436390067
delta: -0.399999910428
dD: 1.62750453698
ddelta: 4.47611716706e-06
---
header: 
  seq: 1671
  stamp: 
    secs: 1603810195
    nsecs:  36248653
  frame_id: ''
D: 0.596137418351
delta: -0.397509958825
dD: 0.235051414193
ddelta: 0.124497580121
---
header: 
  seq: 1672
  stamp: 
    secs: 1603810195
    nsecs:  56255399
  frame_id: ''
D: 0.570911925259
delta: -0.385352845948
dD: -1.26127465459
ddelta: 0.607855643834
---
header: 
  seq: 1673
  stamp: 
    secs: 1603810195
    nsecs:  76247018
  frame_id: ''
D: 0.541928028033
delta: -0.376217583424
dD: -1.44919486128
ddelta: 0.456763126215
---
header: 
  seq: 1674
  stamp: 
    secs: 1603810195
    nsecs:  96253190
  frame_id: ''
D: 0.503427128724
delta: -0.362366478716
dD: -1.92504496545
ddelta: 0.692555235406
---
header: 
  seq: 1675
  stamp: 
    secs: 1603810195
    nsecs: 116244299
  frame_id: ''
D: 0.474263321087
delta: -0.343547117281
dD: -1.45819038186
ddelta: 0.940968071741
---
header: 
  seq: 1676
  stamp: 
    secs: 1603810195
    nsecs: 136244592
  frame_id: ''
D: 0.45522078291
delta: -0.32830350108
dD: -0.952126908847
ddelta: 0.762180810027
---
header: 
  seq: 1677
  stamp: 
    secs: 1603810195
    nsecs: 156245879
  frame_id: ''
D: 0.443484275737
delta: -0.316206907677
dD: -0.58682535864
ddelta: 0.604829670169
---
header: 
  seq: 1678
  stamp: 
    secs: 1603810195
    nsecs: 176248238
  frame_id: ''
D: 0.440062087779
delta: -0.315010003725
dD: -0.171109397926
ddelta: 0.0598451976007
---
header: 
  seq: 1679
  stamp: 
    secs: 1603810195
    nsecs: 196243660
  frame_id: ''
D: 0.443062500747
delta: -0.314157550082
dD: 0.150020648392
ddelta: 0.04262268216
---
header: 
  seq: 1680
  stamp: 
    secs: 1603810195
    nsecs: 216247867
  frame_id: ''
D: 0.450067697867
delta: -0.3137626423
dD: 0.350259856027
ddelta: 0.0197453890981
---
header: 
  seq: 1681
  stamp: 
    secs: 1603810195
    nsecs: 236240807
  frame_id: ''
D: 0.457329287031
delta: -0.316731444817
dD: 0.363079458193
ddelta: -0.148440125878
---
header: 
  seq: 1682
  stamp: 
    secs: 1603810195
    nsecs: 256254281
  frame_id: ''
D: 0.466150189062
delta: -0.322868756249
dD: 0.441045101547
ddelta: -0.306865571587
---
header: 
  seq: 1683
  stamp: 
    secs: 1603810195
    nsecs: 276250411
  frame_id: ''
D: 0.475154089043
delta: -0.327507624977
dD: 0.450194999062
ddelta: -0.231943436396
---
header: 
  seq: 1684
  stamp: 
    secs: 1603810195
    nsecs: 296247067
  frame_id: ''
D: 0.484273757684
delta: -0.330646654102
dD: 0.455983432023
ddelta: -0.156951456263
---
header: 
  seq: 1685
  stamp: 
    secs: 1603810195
    nsecs: 316247128
  frame_id: ''
D: 0.493659244418
delta: -0.322092002296
dD: 0.469274336739
ddelta: 0.427732590316
---
header: 
  seq: 1686
  stamp: 
    secs: 1603810195
    nsecs: 336252835
  frame_id: ''
D: 0.502867148354
delta: -0.314827149994
dD: 0.460395196777
ddelta: 0.363242615099
---
header: 
  seq: 1687
  stamp: 
    secs: 1603810195
    nsecs: 356246717
  frame_id: ''
