header: 
  seq: 5950
  stamp: 
    secs: 1604261642
    nsecs: 185325822
  frame_id: ''
s: 1.14712679082
n: 0.00662705668299
alpha: 0.165442233268
v: 0.385465128735
---
header: 
  seq: 5951
  stamp: 
    secs: 1604261642
    nsecs: 195322656
  frame_id: ''
s: 1.15113744344
n: 0.00710003525329
alpha: 0.174110975968
v: 0.387731449251
---
header: 
  seq: 5952
  stamp: 
    secs: 1604261642
    nsecs: 205322587
  frame_id: ''
s: 1.15469442442
n: 0.00752920895988
alpha: 0.183751830816
v: 0.384015264333
---
header: 
  seq: 5953
  stamp: 
    secs: 1604261642
    nsecs: 215326561
  frame_id: ''
s: 1.15834646995
n: 0.00758130171554
alpha: 0.195955064232
v: 0.381287725989
---
header: 
  seq: 5954
  stamp: 
    secs: 1604261642
    nsecs: 225321371
  frame_id: ''
s: 1.16198247318
n: 0.00765430950683
alpha: 0.185518073159
v: 0.37881823011
---
header: 
  seq: 5955
  stamp: 
    secs: 1604261642
    nsecs: 235329743
  frame_id: ''
s: 1.16656908119
n: 0.0076233481051
alpha: 0.208771103705
v: 0.388449271671
---
header: 
  seq: 5956
  stamp: 
    secs: 1604261642
    nsecs: 245321523
  frame_id: ''
s: 1.17063454192
n: 0.00762629140902
alpha: 0.23046729494
v: 0.390501578226
---
header: 
  seq: 5957
  stamp: 
    secs: 1604261642
    nsecs: 255322689
  frame_id: ''
s: 1.17398612679
n: 0.00799962455607
alpha: 0.210124555562
v: 0.393159879289
---
header: 
  seq: 5958
  stamp: 
    secs: 1604261642
    nsecs: 265323874
  frame_id: ''
s: 1.17766758355
n: 0.00830740812826
alpha: 0.213108076122
v: 0.390000322607
---
header: 
  seq: 5959
  stamp: 
    secs: 1604261642
    nsecs: 275318626
  frame_id: ''
s: 1.18162867277
n: 0.00873711287518
alpha: 0.220803448381
v: 0.390990394787
---
header: 
  seq: 5960
  stamp: 
    secs: 1604261642
    nsecs: 285321689
  frame_id: ''
s: 1.18551777549
n: 0.0092116923348
alpha: 0.231156317201
v: 0.391074513453
---
header: 
  seq: 5961
  stamp: 
    secs: 1604261642
    nsecs: 295326512
  frame_id: ''
s: 1.18982103284
n: 0.00982509156748
alpha: 0.245493395075
v: 0.396564210812
---
header: 
  seq: 5962
  stamp: 
    secs: 1604261642
    nsecs: 305328766
  frame_id: ''
s: 1.19375520648
n: 0.0100799807007
alpha: 0.245110928886
v: 0.396124612017
---
header: 
  seq: 5963
  stamp: 
    secs: 1604261642
    nsecs: 315323537
  frame_id: ''
s: 1.19631448554
n: 0.0104315446992
alpha: 0.243293998332
v: 0.391374372009
---
header: 
  seq: 5964
  stamp: 
    secs: 1604261642
    nsecs: 325322588
  frame_id: ''
s: 1.2007449734
n: 0.0109625421707
alpha: 0.225111040043
v: 0.397950045181
---
header: 
  seq: 5965
  stamp: 
    secs: 1604261642
    nsecs: 335320662
  frame_id: ''
s: 1.20523566473
n: 0.0115621218841
alpha: 0.225020098262
v: 0.404705482239
---
header: 
  seq: 5966
  stamp: 
    secs: 1604261642
    nsecs: 345332006
  frame_id: ''
s: 1.20956852155
n: 0.0124465121764
alpha: 0.184849317293
v: 0.409439504093
---
header: 
  seq: 5967
  stamp: 
    secs: 1604261642
    nsecs: 355323677
  frame_id: ''
s: 1.21364494773
n: 0.0131733056687
alpha: 0.156371962022
v: 0.410037689808
---
header: 
  seq: 5968
  stamp: 
    secs: 1604261642
    nsecs: 365326111
  frame_id: ''
s: 1.21816250673
n: 0.0137964849598
alpha: 0.141036088386
v: 0.415756971784
---
header: 
  seq: 5969
  stamp: 
    secs: 1604261642
    nsecs: 375323348
  frame_id: ''
s: 1.22100487839
n: 0.0140814701926
alpha: 0.163676264148
v: 0.416003784157
---
header: 
  seq: 5970
  stamp: 
    secs: 1604261642
    nsecs: 385321532
  frame_id: ''
s: 1.22502281943
n: 0.0142687440789
alpha: 0.157728346172
v: 0.413161795448
---
header: 
  seq: 5971
  stamp: 
    secs: 1604261642
    nsecs: 395316445
  frame_id: ''
s: 1.22947523368
n: 0.0145269524734
alpha: 0.160347407111
v: 0.416458537453
---
header: 
  seq: 5972
  stamp: 
    secs: 1604261642
    nsecs: 405330261
  frame_id: ''
s: 1.23298150133
n: 0.0146525940111
alpha: 0.164760534811
v: 0.407583933357
---
header: 
  seq: 5973
  stamp: 
    secs: 1604261642
    nsecs: 415330539
  frame_id: ''
s: 1.23698058423
n: 0.0148759021502
alpha: 0.175538890762
v: 0.406269974199
---
header: 
  seq: 5974
  stamp: 
    secs: 1604261642
    nsecs: 425324435
  frame_id: ''
s: 1.24141771002
n: 0.0151918743608
alpha: 0.19138895729
v: 0.41085221333
---
header: 
  seq: 5975
  stamp: 
    secs: 1604261642
    nsecs: 435325036
  frame_id: ''
s: 1.24469760552
n: 0.0156870722469
alpha: 0.204993862593
v: 0.419866723799
---
header: 
  seq: 5976
  stamp: 
    secs: 1604261642
    nsecs: 445322272
  frame_id: ''
s: 1.24912307911
n: 0.0165370563672
alpha: 0.224787603378
v: 0.423629319783
---
header: 
  seq: 5977
  stamp: 
    secs: 1604261642
    nsecs: 455323408
  frame_id: ''
s: 1.2532502721
n: 0.0173410580167
alpha: 0.244362066974
v: 0.423186686787
---
header: 
  seq: 5978
  stamp: 
    secs: 1604261642
    nsecs: 465332809
  frame_id: ''
s: 1.25794996365
n: 0.0175037518645
alpha: 0.238118627302
v: 0.428060135575
---
header: 
  seq: 5979
  stamp: 
    secs: 1604261642
    nsecs: 475328425
  frame_id: ''
s: 1.26164312098
n: 0.0176646130306
alpha: 0.261882441679
v: 0.420183253409
---
header: 
  seq: 5980
  stamp: 
    secs: 1604261642
    nsecs: 485323854
  frame_id: ''
s: 1.26576711486
n: 0.0180452224583
alpha: 0.286943048337
v: 0.419241170265
---
header: 
  seq: 5981
  stamp: 
    secs: 1604261642
    nsecs: 495318176
  frame_id: ''
s: 1.27044296359
n: 0.0179760459002
alpha: 0.313409624592
v: 0.424395433784
---
header: 
  seq: 5982
  stamp: 
    secs: 1604261642
    nsecs: 505317968
  frame_id: ''
s: 1.27252140191
n: 0.0178941794645
alpha: 0.299877416365
v: 0.41771035064
---
header: 
  seq: 5983
  stamp: 
    secs: 1604261642
    nsecs: 515319134
  frame_id: ''
s: 1.27753547316
n: 0.018064497464
alpha: 0.296011909652
v: 0.427331344443
---
header: 
  seq: 5984
  stamp: 
    secs: 1604261642
    nsecs: 525327173
  frame_id: ''
s: 1.28206734872
n: 0.018403092683
alpha: 0.330234460158
v: 0.430413461867
---
header: 
  seq: 5985
  stamp: 
    secs: 1604261642
    nsecs: 535323225
  frame_id: ''
s: 1.286885347
n: 0.0190715237889
alpha: 0.363731603172
v: 0.437447540973
---
header: 
  seq: 5986
  stamp: 
    secs: 1604261642
    nsecs: 545318490
  frame_id: ''
s: 1.29103364163
n: 0.0188748836545
alpha: 0.347667883607
v: 0.433596756793
---
header: 
  seq: 5987
  stamp: 
    secs: 1604261642
    nsecs: 555320726
  frame_id: ''
s: 1.2936769265
n: 0.0190148481316
alpha: 0.331732620651
v: 0.435335986366
---
header: 
  seq: 5988
  stamp: 
    secs: 1604261642
    nsecs: 565323426
  frame_id: ''
s: 1.29833457348
n: 0.0195066444641
alpha: 0.32964843028
v: 0.439100871141
---
header: 
  seq: 5989
  stamp: 
    secs: 1604261642
    nsecs: 575324423
  frame_id: ''
s: 1.30217884537
n: 0.0198934941962
alpha: 0.374261651272
v: 0.432233518265
---
header: 
  seq: 5990
  stamp: 
    secs: 1604261642
    nsecs: 585330065
  frame_id: ''
s: 1.30646549631
n: 0.0202086361682
alpha: 0.354543910078
v: 0.431587462675
---
header: 
  seq: 5991
  stamp: 
    secs: 1604261642
    nsecs: 595323960
  frame_id: ''
s: 1.31063576216
n: 0.0202725856717
alpha: 0.326793918429
v: 0.42914971518
---
header: 
  seq: 5992
  stamp: 
    secs: 1604261642
    nsecs: 605323071
  frame_id: ''
s: 1.3155324221
n: 0.0202514526363
alpha: 0.311590602938
v: 0.436047982385
---
header: 
  seq: 5993
  stamp: 
    secs: 1604261642
    nsecs: 615320717
  frame_id: ''
s: 1.31940607912
n: 0.0200982288932
alpha: 0.315973694105
v: 0.429314332916
---
header: 
  seq: 5994
  stamp: 
    secs: 1604261642
    nsecs: 625320779
  frame_id: ''
s: 1.3217275264
n: 0.0203079927331
alpha: 0.279625898337
v: 0.428697709147
---
header: 
  seq: 5995
  stamp: 
    secs: 1604261642
    nsecs: 635329892
  frame_id: ''
s: 1.32591327819
n: 0.0205419968849
alpha: 0.26163719219
v: 0.427064096728
---
header: 
  seq: 5996
  stamp: 
    secs: 1604261642
    nsecs: 645329973
  frame_id: ''
s: 1.32999452159
n: 0.0208491439649
alpha: 0.25276126597
v: 0.42460964963
---
header: 
  seq: 5997
  stamp: 
    secs: 1604261642
    nsecs: 655326688
  frame_id: ''
s: 1.33407980704
n: 0.0208134773606
alpha: 0.25192822236
v: 0.421926757878
---
header: 
  seq: 5998
  stamp: 
    secs: 1604261642
    nsecs: 665318734
  frame_id: ''
s: 1.33813957344
n: 0.0209407142714
alpha: 0.231289476616
v: 0.419690617575
---
header: 
  seq: 5999
  stamp: 
    secs: 1604261642
    nsecs: 675316420
  frame_id: ''
s: 1.34204872623
n: 0.0211297248189
alpha: 0.246247608463
v: 0.416023729083
---
header: 
  seq: 6000
  stamp: 
    secs: 1604261642
    nsecs: 685321569
  frame_id: ''
s: 1.3440151522
n: 0.0212690847592
alpha: 0.23076355341
v: 0.41413287126
---
header: 
  seq: 6001
  stamp: 
    secs: 1604261642
    nsecs: 695356009
  frame_id: ''
s: 1.34715552525
n: 0.0213158374712
alpha: 0.234809786534
v: 0.400945801366
---
header: 
  seq: 6002
  stamp: 
    secs: 1604261642
    nsecs: 705319855
  frame_id: ''
s: 1.35146575153
n: 0.0211038561817
alpha: 0.221738889843
v: 0.4035122728
---
header: 
  seq: 6003
  stamp: 
    secs: 1604261642
    nsecs: 715323394
  frame_id: ''
s: 1.35514939419
n: 0.0208960043378
alpha: 0.214312690243
v: 0.398284919395
---
header: 
  seq: 6004
  stamp: 
    secs: 1604261642
    nsecs: 725324198
  frame_id: ''
s: 1.35824413338
n: 0.0206088135879
alpha: 0.187218054686
v: 0.386451157049
---
header: 
  seq: 6005
  stamp: 
    secs: 1604261642
    nsecs: 735323421
  frame_id: ''
s: 1.36189374092
n: 0.0200242832377
alpha: 0.19669698848
v: 0.382901003574
---
header: 
  seq: 6006
  stamp: 
    secs: 1604261642
    nsecs: 745327364
  frame_id: ''
s: 1.36526793341
n: 0.0194807368516
alpha: 0.185044487947
v: 0.376686651871
---
header: 
  seq: 6007
  stamp: 
    secs: 1604261642
    nsecs: 755332019
  frame_id: ''
s: 1.36853588661
n: 0.019044656501
alpha: 0.180392947637
v: 0.370176987125
---
header: 
  seq: 6008
  stamp: 
    secs: 1604261642
    nsecs: 765326727
  frame_id: ''
s: 1.3700779511
n: 0.0191514907255
alpha: 0.174975269458
v: 0.36640659295
---
header: 
  seq: 6009
  stamp: 
    secs: 1604261642
    nsecs: 775324480
  frame_id: ''
s: 1.37316397012
n: 0.0188961135137
alpha: 0.16562240526
v: 0.358604549715
---
header: 
  seq: 6010
  stamp: 
    secs: 1604261642
    nsecs: 785321837
  frame_id: ''
s: 1.37673382996
n: 0.0192287979274
alpha: 0.16010526706
v: 0.358604549715
---
header: 
  seq: 6011
  stamp: 
    secs: 1604261642
    nsecs: 795317603
  frame_id: ''
s: 1.38114118563
n: 0.0173690810681
alpha: 0.0596755689704
v: 0.367018014098
---
header: 
  seq: 6012
  stamp: 
    secs: 1604261642
    nsecs: 805322450
  frame_id: ''
s: 1.38527656117
n: 0.0166456616551
alpha: 0.0309894109837
v: 0.372776796246
---
header: 
  seq: 6013
  stamp: 
    secs: 1604261642
    nsecs: 815322005
  frame_id: ''
s: 1.38853844014
n: 0.0160037690775
alpha: 0.0119201595498
v: 0.367044235623
---
header: 
  seq: 6014
  stamp: 
    secs: 1604261642
    nsecs: 825332596
  frame_id: ''
s: 1.39292713422
n: 0.0153562530037
alpha: 0.00825042380034
v: 0.376293776286
---
header: 
  seq: 6015
  stamp: 
    secs: 1604261642
    nsecs: 835324111
  frame_id: ''
s: 1.39493219752
n: 0.0152016914766
alpha: 0.00376285114116
v: 0.373067536012
---
header: 
  seq: 6016
  stamp: 
    secs: 1604261642
    nsecs: 845317689
  frame_id: ''
s: 1.39764645585
n: 0.0150089367687
alpha: 0.00882868115711
v: 0.360199557977
---
header: 
  seq: 6017
  stamp: 
    secs: 1604261642
    nsecs: 855346242
  frame_id: ''
s: 1.4015542523
n: 0.0149293264913
alpha: 0.0236133188183
v: 0.363991219939
---
header: 
  seq: 6018
  stamp: 
    secs: 1604261642
    nsecs: 865322275
  frame_id: ''
s: 1.40462365623
n: 0.014846500371
alpha: 0.0384776633305
v: 0.356800725006
---
header: 
  seq: 6019
  stamp: 
    secs: 1604261642
    nsecs: 875321558
  frame_id: ''
s: 1.40695529792
n: 0.0147645379346
alpha: 0.0525873263157
v: 0.341264932093
---
header: 
  seq: 6020
  stamp: 
    secs: 1604261642
    nsecs: 885323988
  frame_id: ''
s: 1.41054384651
n: 0.0147874513155
alpha: 0.0729463771967
v: 0.343474167747
---
header: 
  seq: 6021
  stamp: 
    secs: 1604261642
    nsecs: 895325784
  frame_id: ''
s: 1.41429992844
n: 0.0148510566295
alpha: 0.0944534716678
v: 0.347516884919
---
header: 
  seq: 6022
  stamp: 
    secs: 1604261642
    nsecs: 905320491
  frame_id: ''
s: 1.4167219903
n: 0.0150665219955
alpha: 0.110563482386
v: 0.352874077819
---
header: 
  seq: 6023
  stamp: 
    secs: 1604261642
    nsecs: 915319954
  frame_id: ''
s: 1.41977262487
n: 0.0154672755221
alpha: 0.128766105166
v: 0.347200696815
---
header: 
  seq: 6024
  stamp: 
    secs: 1604261642
    nsecs: 925319595
  frame_id: ''
s: 1.42412393024
n: 0.0151303847897
alpha: 0.151526983082
v: 0.357525252909
---
header: 
  seq: 6025
  stamp: 
    secs: 1604261642
    nsecs: 935322627
  frame_id: ''
s: 1.42744923514
n: 0.0157305360068
alpha: 0.16942096758
v: 0.354919578173
---
header: 
  seq: 6026
  stamp: 
    secs: 1604261642
    nsecs: 945325248
  frame_id: ''
s: 1.43109772267
n: 0.0154303210598
alpha: 0.187813742862
v: 0.355672848313
---
header: 
  seq: 6027
  stamp: 
    secs: 1604261642
    nsecs: 955320746
  frame_id: ''
s: 1.43473739779
n: 0.0162114663877
alpha: 0.205401396553
v: 0.357402676018
---
header: 
  seq: 6028
  stamp: 
    secs: 1604261642
    nsecs: 965317836
  frame_id: ''
s: 1.43787171987
n: 0.0149957613345
alpha: 0.220259677332
v: 0.350785827751
---
header: 
  seq: 6029
  stamp: 
    secs: 1604261642
    nsecs: 975323154
  frame_id: ''
s: 1.44214391688
n: 0.0141835164484
alpha: 0.23904917934
v: 0.360130258242
---
header: 
  seq: 6030
  stamp: 
    secs: 1604261642
    nsecs: 985323206
  frame_id: ''
s: 1.44511380599
n: 0.0141045130996
alpha: 0.252100607119
v: 0.36936744058
---
header: 
  seq: 6031
  stamp: 
    secs: 1604261642
    nsecs: 995318009
  frame_id: ''
s: 1.44879405195
n: 0.0144146662949
alpha: 0.268384056498
v: 0.36936744058
---
header: 
  seq: 6032
  stamp: 
    secs: 1604261643
    nsecs:   5326379
  frame_id: ''
s: 1.45316214889
n: 0.0145780268558
alpha: 0.172512300293
v: 0.376725561338
---
header: 
  seq: 6033
  stamp: 
    secs: 1604261643
    nsecs:  15332038
  frame_id: ''
s: 1.45766444391
n: 0.0150026725974
alpha: 0.213206344929
v: 0.38621175913
---
header: 
  seq: 6034
  stamp: 
    secs: 1604261643
    nsecs:  25320200
  frame_id: ''
s: 1.46123915047
n: 0.0153424074903
alpha: 0.248283229465
v: 0.382820848381
---
header: 
  seq: 6035
  stamp: 
    secs: 1604261643
    nsecs:  35320310
  frame_id: ''
s: 1.46512002246
n: 0.0151897132972
alpha: 0.237289859153
v: 0.38321410866
---
header: 
  seq: 6036
  stamp: 
    secs: 1604261643
    nsecs:  45317429
  frame_id: ''
s: 1.46762597909
n: 0.0150687100658
alpha: 0.193784678775
v: 0.384642875204
---
header: 
  seq: 6037
  stamp: 
    secs: 1604261643
    nsecs:  55322342
  frame_id: ''
s: 1.47094366308
n: 0.0150649641846
alpha: 0.179603430438
v: 0.377616841276
---
header: 
  seq: 6038
  stamp: 
    secs: 1604261643
    nsecs:  65317375
  frame_id: ''
s: 1.47468849072
n: 0.0155441993755
alpha: 0.175568811164
v: 0.377616841276
---
header: 
  seq: 6039
  stamp: 
    secs: 1604261643
    nsecs:  75325753
  frame_id: ''
s: 1.47920409959
n: 0.0153178093552
alpha: 0.247301097409
v: 0.385238583244
---
header: 
  seq: 6040
  stamp: 
    secs: 1604261643
    nsecs:  85327042
  frame_id: ''
s: 1.48448373824
n: 0.0143272536963
alpha: 0.159432301839
v: 0.401080016923
---
header: 
  seq: 6041
  stamp: 
    secs: 1604261643
    nsecs:  95321719
  frame_id: ''
s: 1.4882102578
n: 0.0137301888226
alpha: 0.116076196211
v: 0.397113247795
---
header: 
  seq: 6042
  stamp: 
    secs: 1604261643
    nsecs: 105320103
  frame_id: ''
s: 1.49101188874
n: 0.0133125104506
alpha: 0.0830433914294
v: 0.398609961169
---
header: 
  seq: 6043
  stamp: 
    secs: 1604261643
    nsecs: 115322581
  frame_id: ''
s: 1.49548356722
n: 0.0132015747606
alpha: 0.0689303963755
v: 0.404279494341
---
header: 
  seq: 6044
  stamp: 
    secs: 1604261643
    nsecs: 125323978
  frame_id: ''
s: 1.49907839403
n: 0.0126041725617
alpha: 0.0353706708103
v: 0.397949776853
---
header: 
  seq: 6045
  stamp: 
    secs: 1604261643
    nsecs: 135325360
  frame_id: ''
s: 1.50353050579
n: 0.0120173628171
alpha: 0.0184556773705
v: 0.403454574097
---
header: 
  seq: 6046
  stamp: 
    secs: 1604261643
    nsecs: 145330054
  frame_id: ''
s: 1.507464563
n: 0.0114711968501
alpha: 0.01058325262
v: 0.402006166086
---
header: 
  seq: 6047
  stamp: 
    secs: 1604261643
    nsecs: 155330074
  frame_id: ''
s: 1.51130302033
n: 0.0116261327855
alpha: 0.0444225080135
v: 0.399756264163
---
header: 
  seq: 6048
  stamp: 
    secs: 1604261643
    nsecs: 165326314
  frame_id: ''
s: 1.51500578026
n: 0.0111731870982
alpha: 0.0280248272524
v: 0.40975165004
---
header: 
  seq: 6049
  stamp: 
    secs: 1604261643
    nsecs: 175324534
  frame_id: ''
s: 1.51958424803
n: 0.0115484446138
alpha: 0.0415013201229
v: 0.415975551265
---
header: 
  seq: 6050
  stamp: 
    secs: 1604261643
    nsecs: 185326463
  frame_id: ''
s: 1.52368901405
n: 0.0110246046697
alpha: 0.0572262535232
v: 0.414583024361
---
header: 
  seq: 6051
  stamp: 
    secs: 1604261643
    nsecs: 195324090
  frame_id: ''
s: 1.52811124227
n: 0.0110536402694
alpha: 0.0771003073604
v: 0.417968453162
---
header: 
  seq: 6052
  stamp: 
    secs: 1604261643
    nsecs: 205325755
  frame_id: ''
s: 1.53203768256
n: 0.0106622347697
alpha: 0.0968314714983
v: 0.414484216759
---
header: 
  seq: 6053
  stamp: 
    secs: 1604261643
    nsecs: 215327270
  frame_id: ''
s: 1.53591369283
n: 0.0103636828026
alpha: 0.11738179742
v: 0.410956888856
---
header: 
  seq: 6054
  stamp: 
    secs: 1604261643
    nsecs: 225324989
  frame_id: ''
s: 1.54020754818
n: 0.00976673476219
alpha: 0.115789431076
v: 0.413138253869
---
header: 
  seq: 6055
  stamp: 
    secs: 1604261643
    nsecs: 235337914
  frame_id: ''
s: 1.54312162844
n: 0.00967443693237
alpha: 0.113130288837
v: 0.409572146494
---
header: 
  seq: 6056
  stamp: 
    secs: 1604261643
    nsecs: 245320185
  frame_id: ''
s: 1.54774825554
n: 0.00931561629627
alpha: 0.106219292452
v: 0.415727476862
---
header: 
  seq: 6057
  stamp: 
    secs: 1604261643
    nsecs: 255317593
  frame_id: ''
s: 1.5524097444
n: 0.00894471439505
alpha: 0.120540292869
v: 0.421715332498
---
header: 
  seq: 6058
  stamp: 
    secs: 1604261643
    nsecs: 265324715
  frame_id: ''
s: 1.5574568822
n: 0.00848380028519
alpha: 0.123922496106
v: 0.431894298248
---
header: 
  seq: 6059
  stamp: 
    secs: 1604261643
    nsecs: 275324173
  frame_id: ''
s: 1.56171183274
n: 0.00814845740795
alpha: 0.111259887073
v: 0.431004035657
---
header: 
  seq: 6060
  stamp: 
    secs: 1604261643
    nsecs: 285321519
  frame_id: ''
s: 1.56553369287
n: 0.00738244994943
alpha: 0.0592629328752
v: 0.433909795104
---
header: 
  seq: 6061
  stamp: 
    secs: 1604261643
    nsecs: 295318853
  frame_id: ''
s: 1.57049377027
n: 0.00683571571434
alpha: 0.0263874354115
v: 0.441097107585
---
header: 
  seq: 6062
  stamp: 
    secs: 1604261643
    nsecs: 305322403
  frame_id: ''
s: 1.57441360752
n: 0.00632121390424
alpha: 0.00246278506349
v: 0.434603698734
---
header: 
  seq: 6063
  stamp: 
    secs: 1604261643
    nsecs: 315329783
  frame_id: ''
s: 1.57875644556
n: 0.00579085803753
alpha: -0.00843181565656
v: 0.434391799548
---
header: 
  seq: 6064
  stamp: 
    secs: 1604261643
    nsecs: 325333630
  frame_id: ''
s: 1.58347571457
n: 0.00525575363282
alpha: -0.00837409124789
v: 0.439064370218
---
header: 
  seq: 6065
  stamp: 
    secs: 1604261643
    nsecs: 335331937
  frame_id: ''
s: 1.58718291227
n: 0.00478170739633
alpha: -0.00477788222875
v: 0.430541541516
---
header: 
  seq: 6066
  stamp: 
    secs: 1604261643
    nsecs: 345318625
  frame_id: ''
s: 1.59224412111
n: 0.00464116781261
alpha: 0.0101011484002
v: 0.445656975269
---
header: 
  seq: 6067
  stamp: 
    secs: 1604261643
    nsecs: 355323142
  frame_id: ''
s: 1.59666092743
n: 0.00462459966396
alpha: 0.0267366230191
v: 0.445027750828
---
header: 
  seq: 6068
  stamp: 
    secs: 1604261643
    nsecs: 365319695
  frame_id: ''
s: 1.60143361798
n: 0.00465480761384
alpha: 0.04782593166
v: 0.449001527324
---
header: 
  seq: 6069
  stamp: 
    secs: 1604261643
    nsecs: 375323327
  frame_id: ''
s: 1.60651843937
n: 0.00472922417901
alpha: 0.0721198270994
v: 0.456434514102
---
header: 
  seq: 6070
  stamp: 
    secs: 1604261643
    nsecs: 385349055
  frame_id: ''
s: 1.61053196121
n: 0.004769879303
alpha: 0.0932304790159
v: 0.449495083902
---
header: 
  seq: 6071
  stamp: 
    secs: 1604261643
    nsecs: 395324622
  frame_id: ''
s: 1.6144542724
n: 0.00501728668103
alpha: 0.114430852378
v: 0.44841438379
---
header: 
  seq: 6072
  stamp: 
    secs: 1604261643
    nsecs: 405321195
  frame_id: ''
s: 1.61917884096
n: 0.00562406080946
alpha: 0.138824858477
v: 0.451917706215
---
header: 
  seq: 6073
  stamp: 
    secs: 1604261643
    nsecs: 415345351
  frame_id: ''
s: 1.62354439675
n: 0.00619602034967
alpha: 0.161443885466
v: 0.450463009897
---
header: 
  seq: 6074
  stamp: 
    secs: 1604261643
    nsecs: 425319372
  frame_id: ''
s: 1.62759237067
n: 0.00673742194303
alpha: 0.182253635996
v: 0.445191465402
---
header: 
  seq: 6075
  stamp: 
    secs: 1604261643
    nsecs: 435323417
  frame_id: ''
s: 1.63276084439
n: 0.00636849572069
alpha: 0.178310222487
v: 0.453155447092
---
header: 
  seq: 6076
  stamp: 
    secs: 1604261643
    nsecs: 445326750
  frame_id: ''
s: 1.63771904168
n: 0.00607865357615
alpha: 0.171862130094
v: 0.457886463875
---
header: 
  seq: 6077
  stamp: 
    secs: 1604261643
    nsecs: 455327324
  frame_id: ''
s: 1.64220559751
n: 0.0063219234396
alpha: 0.16906998659
v: 0.463832980595
---
header: 
  seq: 6078
  stamp: 
    secs: 1604261643
    nsecs: 465319377
  frame_id: ''
s: 1.64695071529
n: 0.00657068004948
alpha: 0.172343340579
v: 0.464929894187
---
header: 
  seq: 6079
  stamp: 
    secs: 1604261643
    nsecs: 475320451
  frame_id: ''
s: 1.65146138465
n: 0.00649323239373
alpha: 0.151702100808
v: 0.462507471003
---
header: 
  seq: 6080
  stamp: 
    secs: 1604261643
    nsecs: 485324096
  frame_id: ''
s: 1.65548719592
n: 0.00638525906086
alpha: 0.137885201357
v: 0.454458153415
---
header: 
  seq: 6081
  stamp: 
    secs: 1604261643
    nsecs: 495322347
  frame_id: ''
s: 1.65954099655
n: 0.00629540894347
alpha: 0.149467372029
v: 0.447907440958
---
header: 
  seq: 6082
  stamp: 
    secs: 1604261643
    nsecs: 505324559
  frame_id: ''
s: 1.66319606785
n: 0.00609334495989
alpha: 0.145340567575
v: 0.444448102775
---
header: 
  seq: 6083
  stamp: 
    secs: 1604261643
    nsecs: 515326160
  frame_id: ''
s: 1.66723687993
n: 0.00646418606379
alpha: 0.148410013502
v: 0.439439820863
---
header: 
  seq: 6084
  stamp: 
    secs: 1604261643
    nsecs: 525322665
  frame_id: ''
s: 1.67112746046
n: 0.0068328607626
alpha: 0.155528592767
v: 0.433231599183
---
header: 
  seq: 6085
  stamp: 
    secs: 1604261643
    nsecs: 535323587
  frame_id: ''
s: 1.67597763233
n: 0.00681616676244
alpha: 0.155166703011
v: 0.439061417561
---
header: 
  seq: 6086
  stamp: 
    secs: 1604261643
    nsecs: 545322834
  frame_id: ''
s: 1.68088116609
n: 0.0069225557725
alpha: 0.175626260491
v: 0.445182297101
---
header: 
  seq: 6087
  stamp: 
    secs: 1604261643
    nsecs: 555324201
  frame_id: ''
s: 1.68530985373
n: 0.00677688515451
alpha: 0.181063965718
v: 0.444365345641
---
header: 
  seq: 6088
  stamp: 
    secs: 1604261643
    nsecs: 565325109
  frame_id: ''
s: 1.68941376544
n: 0.00652127877399
alpha: 0.164909898505
v: 0.447151137444
---
header: 
  seq: 6089
  stamp: 
    secs: 1604261643
    nsecs: 575325812
  frame_id: ''
s: 1.6935792298
n: 0.00640849995558
alpha: 0.156690456903
v: 0.442434945295
---
header: 
  seq: 6090
  stamp: 
    secs: 1604261643
    nsecs: 585320569
  frame_id: ''
s: 1.69763766095
n: 0.00634262121871
alpha: 0.154788905893
v: 0.437253976442
---
header: 
  seq: 6091
  stamp: 
    secs: 1604261643
    nsecs: 595317665
  frame_id: ''
s: 1.70160539749
n: 0.00632831552706
alpha: 0.158223714156
v: 0.431796263753
---
header: 
  seq: 6092
  stamp: 
    secs: 1604261643
    nsecs: 605322947
  frame_id: ''
s: 1.7054974395
n: 0.00636764992345
alpha: 0.165998648136
v: 0.426231465685
---
header: 
  seq: 6093
  stamp: 
    secs: 1604261643
    nsecs: 615327137
  frame_id: ''
s: 1.70932783028
n: 0.00646057095686
alpha: 0.177170173855
v: 0.420706998104
---
header: 
  seq: 6094
  stamp: 
    secs: 1604261643
    nsecs: 625323413
  frame_id: ''
s: 1.71322099016
n: 0.00632613388173
alpha: 0.158257172876
v: 0.423889564689
---
header: 
  seq: 6095
  stamp: 
    secs: 1604261643
    nsecs: 635321193
  frame_id: ''
s: 1.71784290677
n: 0.00659924476496
alpha: 0.157232051444
v: 0.428501333463
---
header: 
  seq: 6096
  stamp: 
    secs: 1604261643
    nsecs: 645318524
  frame_id: ''
s: 1.72185546468
n: 0.00639396169173
alpha: 0.141089489396
v: 0.424224469783
---
header: 
  seq: 6097
  stamp: 
    secs: 1604261643
    nsecs: 655322833
  frame_id: ''
s: 1.72587703942
n: 0.0061748751889
alpha: 0.151783230725
v: 0.420786379694
---
header: 
  seq: 6098
  stamp: 
    secs: 1604261643
    nsecs: 665318970
  frame_id: ''
s: 1.72958551725
n: 0.00573044003328
alpha: 0.14633121386
v: 0.413789540913
---
header: 
  seq: 6099
  stamp: 
    secs: 1604261643
    nsecs: 675330282
  frame_id: ''
s: 1.73356971439
n: 0.00574458839154
alpha: 0.166557783683
v: 0.411731400256
---
header: 
  seq: 6100
  stamp: 
    secs: 1604261643
    nsecs: 685327705
  frame_id: ''
s: 1.73685424327
n: 0.00527774622586
alpha: 0.153287459288
v: 0.407195363438
---
header: 
  seq: 6101
  stamp: 
    secs: 1604261643
    nsecs: 695318861
  frame_id: ''
s: 1.7408526264
n: 0.00580449671093
alpha: 0.163282429303
v: 0.40670373012
---
header: 
  seq: 6102
  stamp: 
    secs: 1604261643
    nsecs: 705317661
  frame_id: ''
s: 1.74454986186
n: 0.00631599071265
alpha: 0.175286483402
v: 0.402508962332
---
header: 
  seq: 6103
  stamp: 
    secs: 1604261643
    nsecs: 715318573
  frame_id: ''
s: 1.74897878517
n: 0.00638725819901
alpha: 0.153364321484
v: 0.407209381736
---
header: 
  seq: 6104
  stamp: 
    secs: 1604261643
    nsecs: 725327552
  frame_id: ''
s: 1.75335258916
n: 0.0066468291076
alpha: 0.165681919463
v: 0.410999976538
---
header: 
  seq: 6105
  stamp: 
    secs: 1604261643
    nsecs: 735325999
  frame_id: ''
s: 1.75704526056
n: 0.00685887688244
alpha: 0.178477718327
v: 0.405778606262
---
header: 
  seq: 6106
  stamp: 
    secs: 1604261643
    nsecs: 745324734
  frame_id: ''
s: 1.76039559229
n: 0.00695278447182
alpha: 0.19282884702
v: 0.405256361777
---
header: 
  seq: 6107
  stamp: 
    secs: 1604261643
    nsecs: 755323064
  frame_id: ''
s: 1.7641824399
n: 0.00721747392165
alpha: 0.184212857202
v: 0.401703000828
---
header: 
  seq: 6108
  stamp: 
    secs: 1604261643
    nsecs: 765318787
  frame_id: ''
s: 1.76802599414
n: 0.00753094817507
alpha: 0.189018671248
v: 0.399474479997
---
header: 
  seq: 6109
  stamp: 
    secs: 1604261643
    nsecs: 775323561
  frame_id: ''
s: 1.77114858536
n: 0.00835996458854
alpha: 0.207906843642
v: 0.38973832278
---
header: 
  seq: 6110
  stamp: 
    secs: 1604261643
    nsecs: 785317380
  frame_id: ''
s: 1.77497474732
n: 0.00945825935565
alpha: 0.210490900774
v: 0.390562379992
---
header: 
  seq: 6111
  stamp: 
    secs: 1604261643
    nsecs: 795326390
  frame_id: ''
s: 1.77826472187
n: 0.0101600493697
alpha: 0.212874677884
v: 0.383758421936
---
header: 
  seq: 6112
  stamp: 
    secs: 1604261643
    nsecs: 805326862
  frame_id: ''
s: 1.78242227061
n: 0.0108490889589
alpha: 0.189462654218
v: 0.388465950658
---
header: 
  seq: 6113
  stamp: 
    secs: 1604261643
    nsecs: 815322856
  frame_id: ''
s: 1.78685566557
n: 0.0111865475381
alpha: 0.163387921795
v: 0.395205329923
---
header: 
  seq: 6114
  stamp: 
    secs: 1604261643
    nsecs: 825320876
  frame_id: ''
s: 1.79128371525
n: 0.0115528020251
alpha: 0.130852838796
v: 0.40117659814
---
header: 
  seq: 6115
  stamp: 
    secs: 1604261643
    nsecs: 835324098
  frame_id: ''
s: 1.79572856271
n: 0.0117639433799
alpha: 0.0918138685488
v: 0.40637730161
---
header: 
  seq: 6116
  stamp: 
    secs: 1604261643
    nsecs: 845324437
  frame_id: ''
s: 1.80015242493
n: 0.0120263359121
alpha: 0.0681382499798
v: 0.410834321236
---
header: 
  seq: 6117
  stamp: 
    secs: 1604261643
    nsecs: 855326412
  frame_id: ''
s: 1.80376165236
n: 0.0127057794561
alpha: 0.0758059917701
v: 0.405335375591
---
header: 
  seq: 6118
  stamp: 
    secs: 1604261643
    nsecs: 865325458
  frame_id: ''
s: 1.8073187962
n: 0.0138345687292
alpha: 0.0808942533911
v: 0.400766739583
---
header: 
  seq: 6119
  stamp: 
    secs: 1604261643
    nsecs: 875319967
  frame_id: ''
s: 1.81239733203
n: 0.0148520630395
alpha: 0.0768347782395
v: 0.397586229433
---
header: 
  seq: 6120
  stamp: 
    secs: 1604261643
    nsecs: 885320329
  frame_id: ''
s: 1.81615510174
n: 0.0156549001447
alpha: 0.0749969257239
v: 0.395561438743
---
header: 
  seq: 6121
  stamp: 
    secs: 1604261643
    nsecs: 895347755
  frame_id: ''
s: 1.82026032954
n: 0.0160699722646
alpha: 0.0331978349993
v: 0.397712633593
---
header: 
  seq: 6122
  stamp: 
    secs: 1604261643
    nsecs: 905317177
  frame_id: ''
s: 1.82534619427
n: 0.0162797310634
alpha: 0.00169695557438
v: 0.41161449265
---
header: 
  seq: 6123
  stamp: 
    secs: 1604261643
    nsecs: 915329025
  frame_id: ''
s: 1.83034114772
n: 0.0164711051692
alpha: -0.0272885872417
v: 0.42264550608
---
header: 
  seq: 6124
  stamp: 
    secs: 1604261643
    nsecs: 925320404
  frame_id: ''
s: 1.83618475068
n: 0.0167998964442
alpha: -0.0321444311074
v: 0.422377313403
---
header: 
  seq: 6125
  stamp: 
    secs: 1604261643
    nsecs: 935324470
  frame_id: ''
s: 1.8403654977
n: 0.0168208553706
alpha: -0.0333025807979
v: 0.421828462324
---
header: 
  seq: 6126
  stamp: 
    secs: 1604261643
    nsecs: 945323038
  frame_id: ''
s: 1.84452507424
n: 0.0168775586132
alpha: -0.0373276355956
v: 0.421080485096
---
header: 
  seq: 6127
  stamp: 
    secs: 1604261643
    nsecs: 955321420
  frame_id: ''
s: 1.84865044544
n: 0.0173541589681
alpha: -0.0439883472179
v: 0.420006874893
---
header: 
  seq: 6128
  stamp: 
    secs: 1604261643
    nsecs: 965332069
  frame_id: ''
s: 1.85276285642
n: 0.0178051530254
alpha: -0.0530819515631
v: 0.418984738695
---
header: 
  seq: 6129
  stamp: 
    secs: 1604261643
    nsecs: 975323076
  frame_id: ''
s: 1.85694283787
n: 0.0177990720267
alpha: -0.0901023300155
v: 0.418855513301
---
header: 
  seq: 6130
  stamp: 
    secs: 1604261643
    nsecs: 985320943
  frame_id: ''
s: 1.86304493987
n: 0.0174912637737
alpha: -0.131842227257
v: 0.42107213879
---
header: 
  seq: 6131
  stamp: 
    secs: 1604261643
    nsecs: 995320980
  frame_id: ''
s: 1.86787773608
n: 0.0171572300886
alpha: -0.139919544399
v: 0.429009147821
---
header: 
  seq: 6132
  stamp: 
    secs: 1604261644
    nsecs:   5320358
  frame_id: ''
s: 1.87234958105
n: 0.0168561121556
alpha: -0.148351880266
v: 0.431399953321
---
header: 
  seq: 6133
  stamp: 
    secs: 1604261644
    nsecs:  15319130
  frame_id: ''
s: 1.87674224908
n: 0.0169195415531
alpha: -0.126027573666
v: 0.432168192005
---
header: 
  seq: 6134
  stamp: 
    secs: 1604261644
    nsecs:  25322703
  frame_id: ''
s: 1.88137653905
n: 0.0175806233862
alpha: -0.112354487964
v: 0.435568825838
---
header: 
  seq: 6135
  stamp: 
    secs: 1604261644
    nsecs:  35327377
  frame_id: ''
s: 1.88732412093
n: 0.0179906234471
alpha: -0.111116709081
v: 0.43293882136
---
header: 
  seq: 6136
  stamp: 
    secs: 1604261644
    nsecs:  45323124
  frame_id: ''
s: 1.89180056455
n: 0.0178365464066
alpha: -0.110399186584
v: 0.434658962744
---
header: 
  seq: 6137
  stamp: 
    secs: 1604261644
    nsecs:  55322563
  frame_id: ''
s: 1.89592564946
n: 0.017569546535
alpha: -0.13230319531
v: 0.431939119112
---
header: 
  seq: 6138
  stamp: 
    secs: 1604261644
    nsecs:  65325274
  frame_id: ''
s: 1.90030785592
n: 0.0172382842256
alpha: -0.15633311281
v: 0.432852323815
---
header: 
  seq: 6139
  stamp: 
    secs: 1604261644
    nsecs:  75317298
  frame_id: ''
s: 1.90488815664
n: 0.016954764955
alpha: -0.162988605214
v: 0.436070136599
---
header: 
  seq: 6140
  stamp: 
    secs: 1604261644
    nsecs:  85326145
  frame_id: ''
s: 1.911379192
n: 0.0166105996668
alpha: -0.199110367542
v: 0.442072689467
---
header: 
  seq: 6141
  stamp: 
    secs: 1604261644
    nsecs:  95320907
  frame_id: ''
s: 1.91643666672
n: 0.0166189216632
alpha: -0.184044993424
v: 0.449163332281
---
header: 
  seq: 6142
  stamp: 
    secs: 1604261644
    nsecs: 105322210
  frame_id: ''
s: 1.92083394304
n: 0.0162454810597
alpha: -0.173625152865
v: 0.44804343679
---
header: 
  seq: 6143
  stamp: 
    secs: 1604261644
    nsecs: 115316521
  frame_id: ''
s: 1.92509718933
n: 0.0159223769284
alpha: -0.169327029551
v: 0.445332594193
---
header: 
  seq: 6144
  stamp: 
    secs: 1604261644
    nsecs: 125320241
  frame_id: ''
s: 1.92924353976
n: 0.0156393469497
alpha: -0.170391683568
v: 0.441465481397
---
header: 
  seq: 6145
  stamp: 
    secs: 1604261644
    nsecs: 135326580
  frame_id: ''
s: 1.93480096802
n: 0.0152942161728
alpha: -0.182019595312
v: 0.436811030784
---
header: 
  seq: 6146
  stamp: 
    secs: 1604261644
    nsecs: 145327548
  frame_id: ''
s: 1.93914227905
n: 0.0146280557064
alpha: -0.192779193435
v: 0.436998947454
---
header: 
  seq: 6147
  stamp: 
    secs: 1604261644
    nsecs: 155323259
  frame_id: ''
s: 1.94294497124
n: 0.0140633782541
alpha: -0.204514538594
v: 0.430303948132
---
header: 
  seq: 6148
  stamp: 
    secs: 1604261644
    nsecs: 165320478
  frame_id: ''
s: 1.94676407911
n: 0.0139315907229
alpha: -0.218666549003
v: 0.423642565456
---
header: 
  seq: 6149
  stamp: 
    secs: 1604261644
    nsecs: 175319456
  frame_id: ''
s: 1.95083098863
n: 0.0137932900436
alpha: -0.211273612114
v: 0.421020141972
---
header: 
  seq: 6150
  stamp: 
    secs: 1604261644
    nsecs: 185317270
  frame_id: ''
s: 1.95571013868
n: 0.0129327934769
alpha: -0.236965359288
v: 0.430317974688
---
header: 
  seq: 6151
  stamp: 
    secs: 1604261644
    nsecs: 195324782
  frame_id: ''
s: 1.96114103477
n: 0.012734335819
alpha: -0.226061786558
v: 0.4277238064
---
header: 
  seq: 6152
  stamp: 
    secs: 1604261644
    nsecs: 205327777
  frame_id: ''
s: 1.96541333635
n: 0.0124288878061
alpha: -0.217713785255
v: 0.427116394341
---
header: 
  seq: 6153
  stamp: 
    secs: 1604261644
    nsecs: 215324925
  frame_id: ''
s: 1.96926928687
n: 0.0121843375572
alpha: -0.21413906848
v: 0.42146422958
---
header: 
  seq: 6154
  stamp: 
    secs: 1604261644
    nsecs: 225321834
  frame_id: ''
s: 1.97339350424
n: 0.0120316945829
alpha: -0.199674597876
v: 0.41973153429
---
header: 
  seq: 6155
  stamp: 
    secs: 1604261644
    nsecs: 235324984
  frame_id: ''
s: 1.97753066411
n: 0.0117069536366
alpha: -0.210618203749
v: 0.418870654029
---
header: 
  seq: 6156
  stamp: 
    secs: 1604261644
    nsecs: 245321593
  frame_id: ''
s: 1.98254758195
n: 0.0120088618852
alpha: -0.211074150832
v: 0.413252334133
---
header: 
  seq: 6157
  stamp: 
    secs: 1604261644
    nsecs: 255353531
  frame_id: ''
s: 1.98619863848
n: 0.0115533150641
alpha: -0.167087394237
v: 0.40730180794
---
header: 
  seq: 6158
  stamp: 
    secs: 1604261644
    nsecs: 265330372
  frame_id: ''
s: 1.98971494076
n: 0.0109222488097
alpha: -0.18042182615
v: 0.400967265155
---
header: 
  seq: 6159
  stamp: 
    secs: 1604261644
    nsecs: 275324178
  frame_id: ''
s: 1.99376728582
n: 0.0106127029788
alpha: -0.189403943628
v: 0.401185020367
---
header: 
  seq: 6160
  stamp: 
    secs: 1604261644
    nsecs: 285336778
  frame_id: ''
s: 1.99821199636
n: 0.0104517540174
alpha: -0.169030068189
v: 0.405983649368
---
header: 
  seq: 6161
  stamp: 
    secs: 1604261644
    nsecs: 295325373
  frame_id: ''
s: 2.00238978588
n: 0.0103578181962
alpha: -0.191898156538
v: 0.406904093934
---
header: 
  seq: 6162
  stamp: 
    secs: 1604261644
    nsecs: 305320653
  frame_id: ''
s: 2.0073950956
n: 0.010183007196
alpha: -0.219737949151
v: 0.405691156774
---
header: 
  seq: 6163
  stamp: 
    secs: 1604261644
    nsecs: 315335271
  frame_id: ''
s: 2.01167173866
n: 0.00969027400048
alpha: -0.245333193875
v: 0.408433238261
---
header: 
  seq: 6164
  stamp: 
    secs: 1604261644
    nsecs: 325320662
  frame_id: ''
s: 2.01535470178
n: 0.00942123655269
alpha: -0.268507075252
v: 0.403048416638
---
header: 
  seq: 6165
  stamp: 
    secs: 1604261644
    nsecs: 335318653
  frame_id: ''
s: 2.01928591101
n: 0.0090684061922
alpha: -0.257239812337
v: 0.401692291797
---
header: 
  seq: 6166
  stamp: 
    secs: 1604261644
    nsecs: 345328073
  frame_id: ''
s: 2.02358150017
n: 0.00859746352409
alpha: -0.287989276336
v: 0.405335968169
---
header: 
  seq: 6167
  stamp: 
    secs: 1604261644
    nsecs: 355326143
  frame_id: ''
s: 2.02704698347
n: 0.00831235195981
alpha: -0.279166935775
v: 0.39790227213
---
header: 
  seq: 6168
  stamp: 
    secs: 1604261644
    nsecs: 365319801
  frame_id: ''
s: 2.03180076604
n: 0.00788751521344
alpha: -0.280342843251
v: 0.397903438372
---
header: 
  seq: 6169
  stamp: 
    secs: 1604261644
    nsecs: 375319913
  frame_id: ''
s: 2.03616262192
n: 0.00702069362888
alpha: -0.284329234186
v: 0.403683343563
---
header: 
  seq: 6170
  stamp: 
    secs: 1604261644
    nsecs: 385321547
  frame_id: ''
s: 2.04091032784
n: 0.00604345015175
alpha: -0.29365973219
v: 0.413788953108
---
header: 
  seq: 6171
  stamp: 
    secs: 1604261644
    nsecs: 395310087
  frame_id: ''
s: 2.04468440166
n: 0.00528468552187
alpha: -0.302271662616
v: 0.410122076506
---
header: 
  seq: 6172
  stamp: 
    secs: 1604261644
    nsecs: 405327387
  frame_id: ''
s: 2.04905878147
n: 0.00505194590168
alpha: -0.315847813654
v: 0.412812402712
---
header: 
  seq: 6173
  stamp: 
    secs: 1604261644
    nsecs: 415321815
  frame_id: ''
s: 2.05249886969
n: 0.00494156955265
alpha: -0.327673306474
v: 0.403562942653
---
header: 
  seq: 6174
  stamp: 
    secs: 1604261644
    nsecs: 425321332
  frame_id: ''
s: 2.05701614237
n: 0.00506183797074
alpha: -0.316692274908
v: 0.401865596175
---
header: 
  seq: 6175
  stamp: 
    secs: 1604261644
    nsecs: 435322175
  frame_id: ''
s: 2.06025356682
n: 0.00488356729691
alpha: -0.300641907721
v: 0.391367456172
---
header: 
  seq: 6176
  stamp: 
    secs: 1604261644
    nsecs: 445317650
  frame_id: ''
s: 2.06395345266
n: 0.00461837529051
alpha: -0.328222165103
v: 0.388235648178
---
header: 
  seq: 6177
  stamp: 
    secs: 1604261644
    nsecs: 455330003
  frame_id: ''
s: 2.06827315906
n: 0.00448022508687
alpha: -0.313062794151
v: 0.392940550805
---
header: 
  seq: 6178
  stamp: 
    secs: 1604261644
    nsecs: 465324408
  frame_id: ''
s: 2.07298893114
n: 0.00418415800646
alpha: -0.306763376909
v: 0.402493491214
---
header: 
  seq: 6179
  stamp: 
    secs: 1604261644
    nsecs: 475325551
  frame_id: ''
s: 2.07677670605
n: 0.00425753747422
alpha: -0.285726637002
v: 0.398743882191
---
header: 
  seq: 6180
  stamp: 
    secs: 1604261644
    nsecs: 485322620
  frame_id: ''
s: 2.08144607096
n: 0.00434761118061
alpha: -0.262016987575
v: 0.400930962773
---
header: 
  seq: 6181
  stamp: 
    secs: 1604261644
    nsecs: 495322293
  frame_id: ''
s: 2.08506631579
n: 0.00419903699819
alpha: -0.25956999531
v: 0.395435871308
---
header: 
  seq: 6182
  stamp: 
    secs: 1604261644
    nsecs: 505323890
  frame_id: ''
s: 2.08884685046
n: 0.00416060512082
alpha: -0.242314264933
v: 0.392501675632
---
header: 
  seq: 6183
  stamp: 
    secs: 1604261644
    nsecs: 515332603
  frame_id: ''
s: 2.09215694496
n: 0.00430384505269
alpha: -0.238852271387
v: 0.383918250933
---
header: 
  seq: 6184
  stamp: 
    secs: 1604261644
    nsecs: 525326987
  frame_id: ''
s: 2.09595989202
n: 0.00461473318541
alpha: -0.219434422039
v: 0.382461910378
---
header: 
  seq: 6185
  stamp: 
    secs: 1604261644
    nsecs: 535323293
  frame_id: ''
s: 2.09976244034
n: 0.00484756211985
alpha: -0.209444437723
v: 0.381550025855
---
header: 
  seq: 6186
  stamp: 
    secs: 1604261644
    nsecs: 545319529
  frame_id: ''
s: 2.10351723392
n: 0.00458104683023
alpha: -0.207220489496
v: 0.380881815227
---
header: 
  seq: 6187
  stamp: 
    secs: 1604261644
    nsecs: 555323618
  frame_id: ''
s: 2.10788398712
n: 0.00498140473362
alpha: -0.187698297485
v: 0.380654733805
---
header: 
  seq: 6188
  stamp: 
    secs: 1604261644
    nsecs: 565317020
  frame_id: ''
s: 2.11181923431
n: 0.00524860012381
alpha: -0.176403546732
v: 0.381277812106
---
header: 
  seq: 6189
  stamp: 
    secs: 1604261644
    nsecs: 575319418
  frame_id: ''
s: 2.11528914783
n: 0.00565840224284
alpha: -0.179363462824
v: 0.376094951088
---
header: 
  seq: 6190
  stamp: 
    secs: 1604261644
    nsecs: 585326646
  frame_id: ''
s: 2.1187451732
n: 0.00544001576936
alpha: -0.180022990913
v: 0.372323839874
---
header: 
  seq: 6191
  stamp: 
    secs: 1604261644
    nsecs: 595326160
  frame_id: ''
s: 2.1217551156
n: 0.0052407430324
alpha: -0.184383541771
v: 0.363435016941
---
header: 
  seq: 6192
  stamp: 
    secs: 1604261644
    nsecs: 605320536
  frame_id: ''
s: 2.12459741916
n: 0.00538244990566
alpha: -0.192286846194
v: 0.353207080472
---
header: 
  seq: 6193
  stamp: 
    secs: 1604261644
    nsecs: 615319059
  frame_id: ''
s: 2.12793040382
n: 0.00545571505392
alpha: -0.186713853443
v: 0.35052716625
---
header: 
  seq: 6194
  stamp: 
    secs: 1604261644
    nsecs: 625316737
  frame_id: ''
s: 2.13109132944
n: 0.00565584507995
alpha: -0.186039571172
v: 0.338768837541
---
header: 
  seq: 6195
  stamp: 
    secs: 1604261644
    nsecs: 635320576
  frame_id: ''
s: 2.13433681412
n: 0.00595046451959
alpha: -0.176618263425
v: 0.336169319197
---
header: 
  seq: 6196
  stamp: 
    secs: 1604261644
    nsecs: 645324518
  frame_id: ''
s: 2.13803816423
n: 0.00616943047515
alpha: -0.164742527815
v: 0.339900759218
---
header: 
  seq: 6197
  stamp: 
    secs: 1604261644
    nsecs: 655327133
  frame_id: ''
s: 2.14189927354
n: 0.00674309181352
alpha: -0.171200235767
v: 0.345033015803
---
header: 
  seq: 6198
  stamp: 
    secs: 1604261644
    nsecs: 665319929
  frame_id: ''
s: 2.14518959572
n: 0.0072825857169
alpha: -0.168989719125
v: 0.342686373667
---
header: 
  seq: 6199
  stamp: 
    secs: 1604261644
    nsecs: 675322642
  frame_id: ''
s: 2.14935958415
n: 0.00785434726755
alpha: -0.175368912778
v: 0.351876370986
---
header: 
  seq: 6200
  stamp: 
    secs: 1604261644
    nsecs: 685315703
  frame_id: ''
s: 2.15353499734
n: 0.00848596571859
alpha: -0.170847143602
v: 0.349698600961
---
header: 
  seq: 6201
  stamp: 
    secs: 1604261644
    nsecs: 695321101
  frame_id: ''
s: 2.1565252136
n: 0.0087108441171
alpha: -0.167542360063
v: 0.343036460398
---
header: 
  seq: 6202
  stamp: 
    secs: 1604261644
    nsecs: 705332951
  frame_id: ''
s: 2.15953842987
n: 0.00892685478203
alpha: -0.159148980583
v: 0.33758840974
---
header: 
  seq: 6203
  stamp: 
    secs: 1604261644
    nsecs: 715329174
  frame_id: ''
s: 2.16268491289
n: 0.00967191144714
alpha: -0.105122951136
v: 0.334396320498
---
header: 
  seq: 6204
  stamp: 
    secs: 1604261644
    nsecs: 725319564
  frame_id: ''
s: 2.16511016127
n: 0.0103389700941
alpha: -0.0628222572044
v: 0.322860352006
---
header: 
  seq: 6205
  stamp: 
    secs: 1604261644
    nsecs: 735327067
  frame_id: ''
s: 2.16880252456
n: 0.0110312273356
alpha: -0.0386933583435
v: 0.328889523408
---
header: 
  seq: 6206
  stamp: 
    secs: 1604261644
    nsecs: 745322946
  frame_id: ''
s: 2.17171953377
n: 0.0116313117105
alpha: -0.0227487678892
v: 0.324545885021
---
header: 
  seq: 6207
  stamp: 
    secs: 1604261644
    nsecs: 755318732
  frame_id: ''
s: 2.1749000289
n: 0.0121941234411
alpha: -0.0172309694517
v: 0.324116308651
---
header: 
  seq: 6208
  stamp: 
    secs: 1604261644
    nsecs: 765328121
  frame_id: ''
s: 2.17952664931
n: 0.0117040613918
alpha: -0.0250033663686
v: 0.326612751534
---
header: 
  seq: 6209
  stamp: 
    secs: 1604261644
    nsecs: 775327445
  frame_id: ''
s: 2.18219868688
n: 0.0110591174321
alpha: -0.0307310900998
v: 0.319588823922
---
header: 
  seq: 6210
  stamp: 
    secs: 1604261644
    nsecs: 785317783
  frame_id: ''
s: 2.18516793494
n: 0.0104706173025
alpha: -0.0418987209561
v: 0.317206432923
---
header: 
  seq: 6211
  stamp: 
    secs: 1604261644
    nsecs: 795317960
  frame_id: ''
s: 2.18840457998
n: 0.00993703459317
alpha: -0.0570888919905
v: 0.318451686509
---
header: 
  seq: 6212
  stamp: 
    secs: 1604261644
    nsecs: 805320994
  frame_id: ''
s: 2.19092930932
n: 0.00949615766016
alpha: -0.0713182158164
v: 0.310560530883
---
header: 
  seq: 6213
  stamp: 
    secs: 1604261644
    nsecs: 815321267
  frame_id: ''
s: 2.19377864962
n: 0.00909940605035
alpha: -0.0878931881306
v: 0.307662505738
---
header: 
  seq: 6214
  stamp: 
    secs: 1604261644
    nsecs: 825329787
  frame_id: ''
s: 2.1969856855
n: 0.00942175815515
alpha: -0.0615544031503
v: 0.308737507853
---
header: 
  seq: 6215
  stamp: 
    secs: 1604261644
    nsecs: 835327843
  frame_id: ''
s: 2.20136455571
n: 0.00991761433366
alpha: -0.0929330465477
v: 0.324435978521
---
header: 
  seq: 6216
  stamp: 
    secs: 1604261644
    nsecs: 845319614
  frame_id: ''
s: 2.20590695897
n: 0.0101152765409
alpha: -0.124144029982
v: 0.327828209513
---
header: 
  seq: 6217
  stamp: 
    secs: 1604261644
    nsecs: 855323466
  frame_id: ''
s: 2.2087117767
n: 0.0102671974896
alpha: -0.147062623194
v: 0.321457785635
---
header: 
  seq: 6218
  stamp: 
    secs: 1604261644
    nsecs: 865322945
  frame_id: ''
s: 2.21272984413
n: 0.0101723359067
alpha: -0.173222564369
v: 0.331420141686
---
header: 
  seq: 6219
  stamp: 
    secs: 1604261644
    nsecs: 875329271
  frame_id: ''
s: 2.21593515847
n: 0.0101196250038
alpha: -0.194424929117
v: 0.3299575123
---
header: 
  seq: 6220
  stamp: 
    secs: 1604261644
    nsecs: 885330029
  frame_id: ''
s: 2.21841870473
n: 0.010101798288
alpha: -0.211072632427
v: 0.319637196508
---
header: 
  seq: 6221
  stamp: 
    secs: 1604261644
    nsecs: 895327151
  frame_id: ''
s: 2.22215217593
n: 0.00984427647466
alpha: -0.231181457935
v: 0.326479507716
---
header: 
  seq: 6222
  stamp: 
    secs: 1604261644
    nsecs: 905324428
  frame_id: ''
s: 2.22510921916
n: 0.00964123498708
alpha: -0.246820701692
v: 0.322696423428
---
header: 
  seq: 6223
  stamp: 
    secs: 1604261644
    nsecs: 915322467
  frame_id: ''
s: 2.22831122097
n: 0.00942169478388
alpha: -0.262280569645
v: 0.310754627957
---
header: 
  seq: 6224
  stamp: 
    secs: 1604261644
    nsecs: 925322199
  frame_id: ''
s: 2.23207314464
n: 0.010027827893
alpha: -0.234275991509
v: 0.317391287674
---
header: 
  seq: 6225
  stamp: 
    secs: 1604261644
    nsecs: 935323424
  frame_id: ''
s: 2.23522978481
n: 0.0105711387358
alpha: -0.193920601975
v: 0.316278973051
---
header: 
  seq: 6226
  stamp: 
    secs: 1604261644
    nsecs: 945332347
  frame_id: ''
s: 2.23935972794
n: 0.0110127781451
alpha: -0.168017032251
v: 0.327917430856
---
header: 
  seq: 6227
  stamp: 
    secs: 1604261644
    nsecs: 955326898
  frame_id: ''
s: 2.24266742691
n: 0.0114228897543
alpha: -0.148578345094
v: 0.328022257969
---
header: 
  seq: 6228
  stamp: 
    secs: 1604261644
    nsecs: 965323309
  frame_id: ''
s: 2.24561540802
n: 0.011781721267
alpha: -0.136325273301
v: 0.323746092194
---
header: 
  seq: 6229
  stamp: 
    secs: 1604261644
    nsecs: 975321990
  frame_id: ''
s: 2.24931091245
n: 0.0120749646398
alpha: -0.119393607472
v: 0.329471970816
---
header: 
  seq: 6230
  stamp: 
    secs: 1604261644
    nsecs: 985324764
  frame_id: ''
s: 2.25366971326
n: 0.0122196274656
alpha: -0.113927698998
v: 0.327667470702
---
header: 
  seq: 6231
  stamp: 
    secs: 1604261644
    nsecs: 995324885
  frame_id: ''
s: 2.25637130675
n: 0.012235514083
alpha: -0.0987182158709
v: 0.320319040377
---
header: 
  seq: 6232
  stamp: 
    secs: 1604261645
    nsecs:   5353712
  frame_id: ''
s: 2.25995162934
n: 0.0126044044732
alpha: -0.08126465187
v: 0.32466041186
---
header: 
  seq: 6233
  stamp: 
    secs: 1604261645
    nsecs:  15347955
  frame_id: ''
s: 2.26337440025
n: 0.0129401172773
alpha: -0.0722459200685
v: 0.326655450629
---
header: 
  seq: 6234
  stamp: 
    secs: 1604261645
    nsecs:  25320023
  frame_id: ''
s: 2.26755505592
n: 0.013223891444
alpha: -0.0738193809746
v: 0.338025702551
---
header: 
  seq: 6235
  stamp: 
    secs: 1604261645
    nsecs:  35316885
  frame_id: ''
s: 2.27089604089
n: 0.013480223236
alpha: -0.0781109362875
v: 0.337497991899
---
header: 
  seq: 6236
  stamp: 
    secs: 1604261645
    nsecs:  45318454
  frame_id: ''
s: 2.27409119038
n: 0.0136979950388
alpha: -0.0865208560047
v: 0.335243649913
---
header: 
  seq: 6237
  stamp: 
    secs: 1604261645
    nsecs:  55327321
  frame_id: ''
s: 2.2790819994
n: 0.0139617683473
alpha: -0.0939200083317
v: 0.338505210538
---
header: 
  seq: 6238
  stamp: 
    secs: 1604261645
    nsecs:  65329203
  frame_id: ''
s: 2.28260259894
n: 0.0140347996589
alpha: -0.111720098004
v: 0.340031753164
---
header: 
  seq: 6239
  stamp: 
    secs: 1604261645
    nsecs:  75324608
  frame_id: ''
s: 2.28535501672
n: 0.0141222871488
alpha: -0.127902864776
v: 0.331774376284
---
header: 
  seq: 6240
  stamp: 
    secs: 1604261645
    nsecs:  85324858
  frame_id: ''
s: 2.28895852503
n: 0.0143459964521
alpha: -0.148180645813
v: 0.33518048247
---
header: 
  seq: 6241
  stamp: 
    secs: 1604261645
    nsecs:  95323571
  frame_id: ''
s: 2.29196180724
n: 0.0144773758263
alpha: -0.121425980192
v: 0.33072892145
---
header: 
  seq: 6242
  stamp: 
    secs: 1604261645
    nsecs: 105317645
  frame_id: ''
s: 2.2950998037
n: 0.0150491824012
alpha: -0.103265853383
v: 0.328492972793
---
header: 
  seq: 6243
  stamp: 
    secs: 1604261645
    nsecs: 115326148
  frame_id: ''
s: 2.29879714976
n: 0.0155888238257
alpha: -0.0946888178138
v: 0.333730053675
---
header: 
  seq: 6244
  stamp: 
    secs: 1604261645
    nsecs: 125324156
  frame_id: ''
s: 2.30368373185
n: 0.0154763054246
alpha: -0.0972913831034
v: 0.333940819797
---
header: 
  seq: 6245
  stamp: 
    secs: 1604261645
    nsecs: 135324436
  frame_id: ''
s: 2.30716306703
n: 0.0156456028997
alpha: -0.0996682619394
v: 0.335438860053
---
header: 
  seq: 6246
  stamp: 
    secs: 1604261645
    nsecs: 145319823
  frame_id: ''
s: 2.31073101068
n: 0.0157577483177
alpha: -0.106788247608
v: 0.337967818064
---
header: 
  seq: 6247
  stamp: 
    secs: 1604261645
    nsecs: 155322070
  frame_id: ''
s: 2.31395102589
n: 0.015844215837
alpha: -0.115946783933
v: 0.335872436686
---
header: 
  seq: 6248
  stamp: 
    secs: 1604261645
    nsecs: 165322065
  frame_id: ''
s: 2.31771109577
n: 0.0158435094009
alpha: -0.112333278399
v: 0.340871258523
---
header: 
  seq: 6249
  stamp: 
    secs: 1604261645
    nsecs: 175329343
  frame_id: ''
s: 2.32067500431
n: 0.0158545523624
alpha: -0.110619775504
v: 0.335261141347
---
header: 
  seq: 6250
  stamp: 
    secs: 1604261645
    nsecs: 185348637
  frame_id: ''
s: 2.32579138151
n: 0.0157708026939
alpha: -0.115100653687
v: 0.337962019907
---
header: 
  seq: 6251
  stamp: 
    secs: 1604261645
    nsecs: 195319470
  frame_id: ''
s: 2.32991857697
n: 0.0159328271616
alpha: -0.120362077987
v: 0.346766519736
---
header: 
  seq: 6252
  stamp: 
    secs: 1604261645
    nsecs: 205317938
  frame_id: ''
s: 2.3335285708
n: 0.0160839627253
alpha: -0.127468580298
v: 0.348174128535
---
header: 
  seq: 6253
  stamp: 
    secs: 1604261645
    nsecs: 215321984
  frame_id: ''
s: 2.33759862804
n: 0.0158447759631
alpha: -0.124525948996
v: 0.355621513048
---
header: 
  seq: 6254
  stamp: 
    secs: 1604261645
    nsecs: 225318541
  frame_id: ''
s: 2.34082288026
n: 0.0156619742268
alpha: -0.123376917651
v: 0.35149990381
---
header: 
  seq: 6255
  stamp: 
    secs: 1604261645
    nsecs: 235330860
  frame_id: ''
s: 2.34436261192
n: 0.0157426520593
alpha: -0.127872412911
v: 0.35161711259
---
header: 
  seq: 6256
  stamp: 
    secs: 1604261645
    nsecs: 245327498
  frame_id: ''
s: 2.34764529385
n: 0.015813711682
alpha: -0.134915364168
v: 0.348552851898
---
header: 
  seq: 6257
  stamp: 
    secs: 1604261645
    nsecs: 255320552
  frame_id: ''
s: 2.35276093994
n: 0.0156028189917
alpha: -0.134600372818
v: 0.349566154349
---
header: 
  seq: 6258
  stamp: 
    secs: 1604261645
    nsecs: 265318875
  frame_id: ''
s: 2.35553297618
n: 0.0153292316351
alpha: -0.130284340903
v: 0.340614547084
---
header: 
  seq: 6259
  stamp: 
    secs: 1604261645
    nsecs: 275319667
  frame_id: ''
s: 2.35877316333
n: 0.015228849161
alpha: -0.132440871969
v: 0.338329244897
---
header: 
  seq: 6260
  stamp: 
    secs: 1604261645
    nsecs: 285342919
  frame_id: ''
s: 2.36204853179
n: 0.0154264392884
alpha: -0.156034698109
v: 0.33640605421
---
header: 
  seq: 6261
  stamp: 
    secs: 1604261645
    nsecs: 295331377
  frame_id: ''
s: 2.36652583895
n: 0.0153469211455
alpha: -0.15683881479
v: 0.35019375251
---
header: 
  seq: 6262
  stamp: 
    secs: 1604261645
    nsecs: 305337722
  frame_id: ''
s: 2.3702665634
n: 0.0153002512709
alpha: -0.152702479779
v: 0.353057104279
---
header: 
  seq: 6263
  stamp: 
    secs: 1604261645
    nsecs: 315335914
  frame_id: ''
s: 2.37607839155
n: 0.0159684381533
alpha: -0.13314978945
v: 0.361262972942
---
header: 
  seq: 6264
  stamp: 
    secs: 1604261645
    nsecs: 325320809
  frame_id: ''
s: 2.37949400102
n: 0.0163173404637
alpha: -0.113523342722
v: 0.357912911392
---
header: 
  seq: 6265
  stamp: 
    secs: 1604261645
    nsecs: 335347412
  frame_id: ''
s: 2.38347619593
n: 0.0166119479095
alpha: -0.104661645002
v: 0.362369015567
---
header: 
  seq: 6266
  stamp: 
    secs: 1604261645
    nsecs: 345324157
  frame_id: ''
s: 2.38658752072
n: 0.0162358630241
alpha: -0.099609776804
v: 0.356192126289
---
header: 
  seq: 6267
  stamp: 
    secs: 1604261645
    nsecs: 355359575
  frame_id: ''
s: 2.39030027954
n: 0.015876271382
alpha: -0.103001315653
v: 0.358286759154
---
header: 
  seq: 6268
  stamp: 
    secs: 1604261645
    nsecs: 365325496
  frame_id: ''
s: 2.39320403543
n: 0.0155913878922
alpha: -0.107971357547
v: 0.349923897339
---
header: 
  seq: 6269
  stamp: 
    secs: 1604261645
    nsecs: 375321138
  frame_id: ''
s: 2.39673904706
n: 0.0153117328325
alpha: -0.119160534154
v: 0.350489986705
---
header: 
  seq: 6270
  stamp: 
    secs: 1604261645
    nsecs: 385317541
  frame_id: ''
s: 2.4023055162
n: 0.0148118998173
alpha: -0.141183206069
v: 0.35798980783
---
header: 
  seq: 6271
  stamp: 
    secs: 1604261645
    nsecs: 395319528
  frame_id: ''
s: 2.40560857053
n: 0.0149631216346
alpha: -0.156015081219
v: 0.353604018349
---
header: 
  seq: 6272
  stamp: 
    secs: 1604261645
    nsecs: 405326334
  frame_id: ''
s: 2.40940984368
n: 0.0148964888475
alpha: -0.139121615584
v: 0.356534356619
---
header: 
  seq: 6273
  stamp: 
    secs: 1604261645
    nsecs: 415331555
  frame_id: ''
s: 2.41298936655
n: 0.0148711010826
alpha: -0.128477424445
v: 0.356366626803
---
header: 
  seq: 6274
  stamp: 
    secs: 1604261645
    nsecs: 425326585
  frame_id: ''
s: 2.41666713888
n: 0.0148663198974
alpha: -0.124599640336
v: 0.357497254055
---
header: 
  seq: 6275
  stamp: 
    secs: 1604261645
    nsecs: 435325320
  frame_id: ''
s: 2.42013407288
n: 0.0148829830978
alpha: -0.125349118231
v: 0.355896590827
---
header: 
  seq: 6276
  stamp: 
    secs: 1604261645
    nsecs: 445316942
  frame_id: ''
s: 2.42501385245
n: 0.0148125638325
alpha: -0.14258661094
v: 0.353970174504
---
header: 
  seq: 6277
  stamp: 
    secs: 1604261645
    nsecs: 455316077
  frame_id: ''
s: 2.42886893053
n: 0.0140972005189
alpha: -0.186755250941
v: 0.358745385447
---
header: 
  seq: 6278
  stamp: 
    secs: 1604261645
    nsecs: 465323681
  frame_id: ''
s: 2.4320611351
n: 0.0141819947836
alpha: -0.189710220627
v: 0.35304616196
---
header: 
  seq: 6279
  stamp: 
    secs: 1604261645
    nsecs: 475327263
  frame_id: ''
s: 2.4360190106
n: 0.0144200798848
alpha: -0.198223140367
v: 0.357497353551
---
header: 
  seq: 6280
  stamp: 
    secs: 1604261645
    nsecs: 485318249
  frame_id: ''
s: 2.44030121941
n: 0.0143790915588
alpha: -0.210177731338
v: 0.366050755043
---
header: 
  seq: 6281
  stamp: 
    secs: 1604261645
    nsecs: 495322069
  frame_id: ''
s: 2.44445766697
n: 0.014434537086
alpha: -0.223405410941
v: 0.371931013584
---
header: 
  seq: 6282
  stamp: 
    secs: 1604261645
    nsecs: 505322178
  frame_id: ''
s: 2.44972772007
n: 0.014685100255
alpha: -0.215151473315
v: 0.372709667783
---
header: 
  seq: 6283
  stamp: 
    secs: 1604261645
    nsecs: 515318708
  frame_id: ''
s: 2.45351086885
n: 0.0146141173094
alpha: -0.207127732523
v: 0.372972534831
---
header: 
  seq: 6284
  stamp: 
    secs: 1604261645
    nsecs: 525329369
  frame_id: ''
s: 2.45724612685
n: 0.014499558838
alpha: -0.204523268197
v: 0.372778993109
---
header: 
  seq: 6285
  stamp: 
    secs: 1604261645
    nsecs: 535324360
  frame_id: ''
s: 2.46093812508
n: 0.0143400421839
alpha: -0.20663259721
v: 0.372200694674
---
header: 
  seq: 6286
  stamp: 
    secs: 1604261645
    nsecs: 545321524
  frame_id: ''
s: 2.46462797097
n: 0.0143958060442
alpha: -0.212833412773
v: 0.371414584188
---
header: 
  seq: 6287
  stamp: 
    secs: 1604261645
    nsecs: 555316802
  frame_id: ''
s: 2.4685405348
n: 0.0143379077824
alpha: -0.22324264443
v: 0.373724814843
---
header: 
  seq: 6288
  stamp: 
    secs: 1604261645
    nsecs: 565324329
  frame_id: ''
s: 2.47461510427
n: 0.0142486637246
alpha: -0.229879531322
v: 0.385125276529
---
header: 
  seq: 6289
  stamp: 
    secs: 1604261645
    nsecs: 575320303
  frame_id: ''
s: 2.47873218925
n: 0.0142415498869
alpha: -0.226693763419
v: 0.387791840635
---
header: 
  seq: 6290
  stamp: 
    secs: 1604261645
    nsecs: 585321769
  frame_id: ''
s: 2.48287523981
n: 0.0140232413316
alpha: -0.228863278761
v: 0.390960241966
---
header: 
  seq: 6291
  stamp: 
    secs: 1604261645
    nsecs: 595328122
  frame_id: ''
s: 2.48692117691
n: 0.0136318047015
alpha: -0.21759381136
v: 0.392851303279
---
header: 
  seq: 6292
  stamp: 
    secs: 1604261645
    nsecs: 605320487
  frame_id: ''
s: 2.49071983264
n: 0.0137257583752
alpha: -0.251454800345
v: 0.39070402619
---
header: 
  seq: 6293
  stamp: 
    secs: 1604261645
    nsecs: 615322070
  frame_id: ''
s: 2.49481220808
n: 0.0141162145418
alpha: -0.24592026969
v: 0.392279445934
---
header: 
  seq: 6294
  stamp: 
    secs: 1604261645
    nsecs: 625324782
  frame_id: ''
s: 2.49976434295
n: 0.013860170712
alpha: -0.249168828429
v: 0.38787506662
---
header: 
  seq: 6295
  stamp: 
    secs: 1604261645
    nsecs: 635322509
  frame_id: ''
s: 2.50341811104
n: 0.0137988691391
alpha: -0.251866486724
v: 0.38454432382
---
header: 
  seq: 6296
  stamp: 
    secs: 1604261645
    nsecs: 645328411
  frame_id: ''
s: 2.5070742137
n: 0.0136310204384
alpha: -0.258463563206
v: 0.381958443428
---
header: 
  seq: 6297
  stamp: 
    secs: 1604261645
    nsecs: 655327943
  frame_id: ''
s: 2.51073441668
n: 0.0133621514178
alpha: -0.268218797959
v: 0.379969620974
---
header: 
  seq: 6298
  stamp: 
    secs: 1604261645
    nsecs: 665327983
  frame_id: ''
s: 2.5148528005
n: 0.0131555279336
alpha: -0.263718556315
v: 0.383855298938
---
header: 
  seq: 6299
  stamp: 
    secs: 1604261645
    nsecs: 675324677
  frame_id: ''
s: 2.51981571787
n: 0.0127535865373
alpha: -0.267863967615
v: 0.398095080838
---
header: 
  seq: 6300
  stamp: 
    secs: 1604261645
    nsecs: 685323462
  frame_id: ''
s: 2.52502627125
n: 0.0120859916369
alpha: -0.251319491271
v: 0.398657060195
---
header: 
  seq: 6301
  stamp: 
    secs: 1604261645
    nsecs: 695323102
  frame_id: ''
s: 2.52936618182
n: 0.011620967504
alpha: -0.258476343808
v: 0.403133137618
---
header: 
  seq: 6302
  stamp: 
    secs: 1604261645
    nsecs: 705330601
  frame_id: ''
s: 2.53334803251
n: 0.0111457792713
alpha: -0.249857812584
v: 0.402716084155
---
header: 
  seq: 6303
  stamp: 
    secs: 1604261645
    nsecs: 715330570
  frame_id: ''
s: 2.53738557255
n: 0.0109502166826
alpha: -0.24813666074
v: 0.402460744301
---
header: 
  seq: 6304
  stamp: 
    secs: 1604261645
    nsecs: 725320801
  frame_id: ''
s: 2.54142208299
n: 0.0106996342314
alpha: -0.252045887951
v: 0.402429251002
---
header: 
  seq: 6305
  stamp: 
    secs: 1604261645
    nsecs: 735324716
  frame_id: ''
s: 2.54684929292
n: 0.0106219235911
