header: 
  seq: 3
  stamp: 
    secs: 0
    nsecs:         0
  frame_id: ''
D: 0.4
delta: 0.000162483164621
dD: 5.0
ddelta: 0.00262153697864
---
header: 
  seq: 4
  stamp: 
    secs: 0
    nsecs:         0
  frame_id: ''
D: 0.5
delta: 0.000209615218712
dD: 5.0
ddelta: 0.00235660270455
---
header: 
  seq: 5
  stamp: 
    secs: 0
    nsecs:         0
  frame_id: ''
D: 0.6
delta: 0.000252299375251
dD: 4.99999999999
ddelta: 0.00213420782691
---
header: 
  seq: 6
  stamp: 
    secs: 0
    nsecs:         0
  frame_id: ''
D: 0.7
delta: 0.000286508115453
dD: 5.0
ddelta: 0.00171043701015
---
header: 
  seq: 7
  stamp: 
    secs: 0
    nsecs:         0
  frame_id: ''
D: 0.8
delta: 0.000311908176717
dD: 5.0
ddelta: 0.00127000306316
---
header: 
  seq: 8
  stamp: 
    secs: 0
    nsecs:         0
  frame_id: ''
D: 0.884340759872
delta: 0.000331174678904
dD: 4.21703799361
ddelta: 0.000963325109347
---
header: 
  seq: 9
  stamp: 
    secs: 0
    nsecs:         0
  frame_id: ''
D: 0.942400866928
delta: 0.000345065492794
dD: 2.90300535281
ddelta: 0.000694540694532
---
header: 
  seq: 10
  stamp: 
    secs: 0
    nsecs:         0
  frame_id: ''
D: 0.982451338851
delta: 0.00035611673524
dD: 2.00252359615
ddelta: 0.000552562122274
---
header: 
  seq: 11
  stamp: 
    secs: 0
    nsecs:         0
  frame_id: ''
D: 1.0
delta: 0.000367143651703
dD: 0.877433057443
ddelta: 0.000551345823169
---
header: 
  seq: 12
  stamp: 
    secs: 0
    nsecs:         0
  frame_id: ''
D: 1.0
delta: 0.00037856603373
dD: 9.9320551783e-13
ddelta: 0.000571119101324
---
header: 
  seq: 13
  stamp: 
    secs: 0
    nsecs:         0
  frame_id: ''
D: 1.0
delta: 0.000387633763495
dD: -1.28080481141e-14
ddelta: 0.000453386488289
---
header: 
  seq: 14
  stamp: 
    secs: 0
    nsecs:         0
  frame_id: ''
D: 1.0
delta: 0.000394295266628
dD: -2.17613300975e-14
ddelta: 0.000333075156622
---
header: 
  seq: 15
  stamp: 
    secs: 0
    nsecs:         0
  frame_id: ''
D: 1.0
delta: 0.000399189963146
dD: -1.17940314093e-14
ddelta: 0.000244734825928
---
header: 
  seq: 16
  stamp: 
    secs: 0
    nsecs:         0
  frame_id: ''
D: 1.0
delta: 0.000402786138431
dD: -1.29283167341e-14
ddelta: 0.000179808764215
---
header: 
  seq: 17
  stamp: 
    secs: 0
    nsecs:         0
  frame_id: ''
D: 1.0
delta: 0.000405428273926
dD: -2.18729352645e-14
ddelta: 0.000132106774749
---
header: 
  seq: 18
  stamp: 
    secs: 0
    nsecs:         0
  frame_id: ''
D: 1.0
delta: 0.000407369469198
dD: -1.19089457487e-14
ddelta: 9.70597636298e-05
---
header: 
  seq: 19
  stamp: 
    secs: 0
    nsecs:         0
  frame_id: ''
D: 1.0
delta: 0.000408795678825
dD: -2.08526230402e-14
ddelta: 7.13104813462e-05
---
header: 
  seq: 20
  stamp: 
    secs: 0
    nsecs:         0
  frame_id: ''
D: 1.0
delta: 0.000409843524955
dD: -1.86962401839e-14
ddelta: 5.23923064821e-05
---
header: 
  seq: 21
  stamp: 
    secs: 0
    nsecs:         0
  frame_id: ''
D: 1.0
delta: 0.00041061338475
dD: -8.73197032665e-15
ddelta: 3.84929897565e-05
---
header: 
  seq: 22
  stamp: 
    secs: 0
    nsecs:         0
  frame_id: ''
D: 1.0
delta: 0.000411179006089
dD: -1.76731756319e-14
ddelta: 2.82810669754e-05
---
header: 
  seq: 23
  stamp: 
    secs: 0
    nsecs:         0
  frame_id: ''
D: 1.0
delta: 0.000411594572017
dD: -7.70888976047e-15
ddelta: 2.07782963874e-05
---
header: 
  seq: 24
  stamp: 
    secs: 0
    nsecs:         0
  frame_id: ''
D: 1.0
delta: 0.000411899891174
dD: -1.665268876e-14
ddelta: 1.52659578506e-05
---
header: 
  seq: 25
  stamp: 
    secs: 0
    nsecs:         0
  frame_id: ''
D: 1.0
delta: 0.000412124211252
dD: -6.69036887853e-15
ddelta: 1.12160038829e-05
---
header: 
  seq: 26
  stamp: 
    secs: 0
    nsecs:         0
  frame_id: ''
D: 1.0
delta: 0.000412289020779
dD: -7.83056805505e-15
ddelta: 8.24047637502e-06
---
header: 
  seq: 27
  stamp: 
    secs: 0
    nsecs:         0
  frame_id: ''
D: 1.0
delta: 0.000412410107491
dD: -8.96872207052e-15
ddelta: 6.05433558181e-06
---
header: 
  seq: 28
  stamp: 
    secs: 0
    nsecs:         0
  frame_id: ''
D: 1.0
delta: 0.000412499070748
dD: -1.01068694156e-14
ddelta: 4.44816283743e-06
---
header: 
  seq: 29
  stamp: 
    secs: 0
    nsecs:         0
  frame_id: ''
D: 1.0
delta: 0.000412564432668
dD: -1.9052543799e-14
ddelta: 3.26809599644e-06
---
header: 
  seq: 30
  stamp: 
    secs: 0
    nsecs:         0
  frame_id: ''
D: 1.0
delta: 0.000412612454541
dD: -9.08814551045e-15
ddelta: 2.40109365412e-06
---
header: 
  seq: 31
  stamp: 
    secs: 0
    nsecs:         0
  frame_id: ''
D: 1.0
delta: 0.000412647736495
dD: -1.02260158493e-14
ddelta: 1.76409772965e-06
---
header: 
  seq: 32
  stamp: 
    secs: 0
    nsecs:         0
  frame_id: ''
D: 1.0
delta: 0.000412673658397
dD: -1.91694421543e-14
ddelta: 1.29609509784e-06
---
header: 
  seq: 33
  stamp: 
    secs: 0
    nsecs:         0
  frame_id: ''
D: 1.0
delta: 0.000412692703411
dD: -9.20504696272e-15
ddelta: 9.52250704773e-07
---
header: 
  seq: 34
  stamp: 
    secs: 0
    nsecs:         0
  frame_id: ''
D: 1.0
delta: 0.000412706695917
dD: -1.03429093077e-14
ddelta: 6.99625266115e-07
---
header: 
  seq: 35
  stamp: 
    secs: 0
    nsecs:         0
  frame_id: ''
D: 1.0
delta: 0.0004127169763
dD: -1.14848213966e-14
ddelta: 5.14019161077e-07
---
header: 
  seq: 36
  stamp: 
    secs: 0
    nsecs:         0
  frame_id: ''
D: 1.0
delta: 0.000412724529381
dD: -2.04282128939e-14
ddelta: 3.77654057071e-07
---
header: 
  seq: 37
  stamp: 
    secs: 0
    nsecs:         0
  frame_id: ''
D: 1.0
delta: 0.00041273007868
dD: -1.04638154259e-14
ddelta: 2.77464966509e-07
---
header: 
  seq: 38
  stamp: 
    secs: 0
    nsecs:         0
  frame_id: ''
D: 1.0
delta: 0.000412734155808
dD: -1.16016717887e-14
ddelta: 2.03856364386e-07
---
header: 
  seq: 39
  stamp: 
    secs: 0
    nsecs:         0
  frame_id: ''
D: 1.0
delta: 0.000412737151283
dD: -2.05450630742e-14
ddelta: 1.49773749185e-07
---
header: 
  seq: 40
  stamp: 
    secs: 0
    nsecs:         0
  frame_id: ''
D: 1.0
delta: 0.000412739352057
dD: -1.83862572007e-14
ddelta: 1.10038696376e-07
---
header: 
  seq: 41
  stamp: 
    secs: 0
    nsecs:         0
  frame_id: ''
D: 1.0
delta: 0.000412740969003
dD: -8.42188678479e-15
ddelta: 8.08473256843e-08
---
header: 
  seq: 42
  stamp: 
    secs: 0
    nsecs:         0
  frame_id: ''
D: 1.0
delta: 0.000412742156984
dD: -1.7365277885e-14
ddelta: 5.93990306541e-08
---
header: 
  seq: 43
  stamp: 
    secs: 0
    nsecs:         0
  frame_id: ''
D: 1.0
delta: 0.000412743029793
dD: -1.5206440539e-14
ddelta: 4.3640455538e-08
---
header: 
  seq: 44
  stamp: 
    secs: 0
    nsecs:         0
  frame_id: ''
D: 1.0
delta: 0.000412743671078
dD: -1.3047625454e-14
ddelta: 3.20642559255e-08
---
header: 
  seq: 45
  stamp: 
    secs: 0
    nsecs:         0
  frame_id: ''
D: 1.0
delta: 0.000412744142205
dD: -1.08888172776e-14
ddelta: 2.35563477826e-08
---
header: 
  seq: 46
  stamp: 
    secs: 0
    nsecs:         0
  frame_id: ''
D: 1.0
delta: 0.000412744488376
dD: -9.28491629336e-16
ddelta: 1.73085425322e-08
---
header: 
  seq: 47
  stamp: 
    secs: 0
    nsecs:         0
  frame_id: ''
D: 1.0
delta: 0.000412744742712
dD: -9.87187801796e-15
ddelta: 1.27167987383e-08
---
header: 
  seq: 48
  stamp: 
    secs: 0
    nsecs:         0
  frame_id: ''
D: 1.0
delta: 0.000412744929555
dD: -7.7130383955e-15
ddelta: 9.3421848053e-09
---
header: 
  seq: 49
  stamp: 
    secs: 0
    nsecs:         0
  frame_id: ''
D: 1.0
delta: 0.000412745066838
dD: 2.25136195773e-15
ddelta: 6.86411396868e-09
---
header: 
  seq: 50
  stamp: 
    secs: 0
    nsecs:         0
  frame_id: ''
D: 1.0
delta: 0.000412745167681
dD: -6.69205939747e-15
ddelta: 5.04218308836e-09
---
header: 
  seq: 51
  stamp: 
    secs: 0
    nsecs:         0
  frame_id: ''
D: 1.0
delta: 0.000412745241774
dD: 3.27233724999e-15
ddelta: 3.70464121802e-09
---
header: 
  seq: 52
  stamp: 
    secs: 0
    nsecs:         0
  frame_id: ''
D: 1.0
delta: 0.00041274529619
dD: -5.67105991184e-15
ddelta: 2.72077777686e-09
---
header: 
  seq: 53
  stamp: 
    secs: 0
    nsecs:         0
  frame_id: ''
D: 1.0
delta: 0.000412745336184
dD: -3.51222304223e-15
ddelta: 1.99972801569e-09
---
header: 
  seq: 54
  stamp: 
    secs: 0
    nsecs:         0
  frame_id: ''
D: 1.0
delta: 0.000412745365563
dD: -1.35341613642e-15
ddelta: 1.46892684006e-09
---
header: 
  seq: 55
  stamp: 
    secs: 0
    nsecs:         0
  frame_id: ''
D: 1.0
delta: 0.000412745387153
dD: 8.61097918756e-15
ddelta: 1.07949440626e-09
---
header: 
  seq: 56
  stamp: 
    secs: 0
    nsecs:         0
  frame_id: ''
D: 1.0
delta: 0.000412745403015
dD: -3.3241445379e-16
ddelta: 7.93123273051e-10
---
header: 
  seq: 57
  stamp: 
    secs: 0
    nsecs:         0
  frame_id: ''
D: 1.0
delta: 0.000412745414683
dD: 1.82642511573e-15
ddelta: 5.8339727082e-10
---
header: 
  seq: 58
  stamp: 
    secs: 0
    nsecs:         0
  frame_id: ''
D: 1.0
delta: 0.000412745423255
dD: 1.17908232455e-14
ddelta: 4.28569950805e-10
---
header: 
  seq: 59
  stamp: 
    secs: 0
    nsecs:         0
  frame_id: ''
D: 1.0
delta: 0.000412745429559
dD: 1.06529926907e-14
ddelta: 3.15209858081e-10
---
header: 
  seq: 60
  stamp: 
    secs: 0
    nsecs:         0
  frame_id: ''
D: 1.0
delta: 0.000412745434177
dD: 1.70501609822e-15
ddelta: 2.3092237379e-10
---
header: 
  seq: 61
  stamp: 
    secs: 0
    nsecs:         0
  frame_id: ''
D: 1.0
delta: 0.000412745437567
dD: 3.86385315311e-15
ddelta: 1.69513838985e-10
---
header: 
  seq: 62
  stamp: 
    secs: 0
    nsecs:         0
  frame_id: ''
D: 1.0
delta: 0.000412745440075
dD: 1.38241759427e-14
ddelta: 1.25374582092e-10
---
header: 
  seq: 63
  stamp: 
    secs: 0
    nsecs:         0
  frame_id: ''
D: 1.0
delta: 0.000412745441918
dD: 4.88078666885e-15
ddelta: 9.21413972171e-11
---
header: 
  seq: 64
  stamp: 
    secs: 0
    nsecs:         0
  frame_id: ''
D: 1.0
delta: 0.000412745443255
dD: 7.03959545401e-15
ddelta: 6.68653639052e-11
---
header: 
  seq: 65
  stamp: 
    secs: 0
    nsecs:         0
  frame_id: ''
D: 1.0
delta: 0.000412745444254
dD: 1.70039666905e-14
ddelta: 4.99312945474e-11
---
header: 
  seq: 66
  stamp: 
    secs: 0
    nsecs:         0
  frame_id: ''
D: 1.0
delta: 0.000412745444986
dD: 8.06057704608e-15
ddelta: 3.66346175693e-11
---
header: 
  seq: 67
  stamp: 
    secs: 0
    nsecs:         0
  frame_id: ''
D: 1.0
delta: 0.000412745445517
dD: 1.80249460856e-14
ddelta: 2.65317765299e-11
---
header: 
  seq: 68
  stamp: 
    secs: 0
    nsecs:         0
  frame_id: ''
D: 1.0
delta: 0.000412745445905
dD: 1.68870846141e-14
ddelta: 1.94065008151e-11
---
header: 
  seq: 69
  stamp: 
    secs: 0
    nsecs:         0
  frame_id: ''
D: 1.0
delta: 0.000412745446209
dD: 1.57492560446e-14
ddelta: 1.52055802161e-11
---
header: 
  seq: 70
  stamp: 
    secs: 0
    nsecs:         0
  frame_id: ''
D: 1.0
delta: 0.000412745446424
dD: 6.80586637369e-15
ddelta: 1.07182597525e-11
---
header: 
  seq: 71
  stamp: 
    secs: 0
    nsecs:         0
  frame_id: ''
D: 1.0
delta: 0.000412745446573
dD: 1.67702637888e-14
ddelta: 7.46172792663e-12
---
header: 
  seq: 72
  stamp: 
    secs: 0
    nsecs:         0
  frame_id: ''
D: 1.0
delta: 0.000412745446701
dD: 1.56324352192e-14
ddelta: 6.38364332911e-12
---
header: 
  seq: 73
  stamp: 
    secs: 0
    nsecs:         0
  frame_id: ''
D: 1.0
delta: 0.00041274544676
dD: 6.68901171999e-15
ddelta: 2.99202873099e-12
---
header: 
  seq: 74
  stamp: 
    secs: 0
    nsecs:         0
  frame_id: ''
D: 1.0
delta: 0.000412745446819
dD: 8.84782214628e-15
ddelta: 2.94328016142e-12
---
header: 
  seq: 75
  stamp: 
    secs: 0
    nsecs:         0
  frame_id: ''
D: 1.0
delta: 0.000412745446865
dD: 1.88122200114e-14
ddelta: 2.28023498305e-12
---
header: 
  seq: 76
  stamp: 
    secs: 0
    nsecs:         0
  frame_id: ''
D: 1.0
delta: 0.0004127454469
dD: 1.7674359784e-14
ddelta: 1.7771242053e-12
---
header: 
  seq: 77
  stamp: 
    secs: 0
    nsecs:         0
  frame_id: ''
D: 1.0
delta: 0.000412745446942
dD: 1.65365315321e-14
ddelta: 2.08131539254e-12
---
header: 
  seq: 78
  stamp: 
    secs: 0
    nsecs:         0
  frame_id: ''
D: 1.0
delta: 0.000412745446945
dD: 7.59313799661e-15
ddelta: 1.22398722991e-13
---
header: 
  seq: 79
  stamp: 
    secs: 0
    nsecs:         0
  frame_id: ''
D: 1.0
delta: 0.000412745446966
dD: 9.75195117576e-15
ddelta: 1.09910806369e-12
---
header: 
  seq: 80
  stamp: 
    secs: 0
    nsecs:         0
  frame_id: ''
D: 1.0
delta: 0.000412745446974
dD: 1.19107905335e-14
ddelta: 3.80422459908e-13
---
header: 
  seq: 81
  stamp: 
    secs: 0
    nsecs:         0
  frame_id: ''
D: 1.0
delta: 0.000412745446988
dD: 2.18751622465e-14
ddelta: 6.93687096053e-13
---
header: 
  seq: 82
  stamp: 
    secs: 0
    nsecs:         0
  frame_id: ''
D: 1.0
delta: 0.00041274544698
dD: 1.29317692139e-14
ddelta: -3.80934225568e-13
---
header: 
  seq: 83
  stamp: 
    secs: 0
    nsecs:         0
  frame_id: ''
D: 1.0
delta: 0.00041274544699
dD: 2.28961687466e-14
ddelta: 4.73368892929e-13
---
header: 
  seq: 84
  stamp: 
    secs: 0
    nsecs:         0
  frame_id: ''
D: 1.0
delta: 0.000412745446976
dD: 1.39481903806e-14
ddelta: -6.95326666177e-13
---
header: 
  seq: 85
  stamp: 
    secs: 0
    nsecs:         0
  frame_id: ''
D: 1.0
delta: 0.000412745446981
dD: 1.61070298972e-14
ddelta: 2.40892573062e-13
---
header: 
  seq: 86
  stamp: 
    secs: 0
    nsecs:         0
  frame_id: ''
D: 1.0
delta: 0.000412745446973
dD: 2.60713971367e-14
ddelta: -4.0535450731e-13
---
header: 
  seq: 87
  stamp: 
    secs: 0
    nsecs:         0
  frame_id: ''
D: 1.0
delta: 0.000412745446985
dD: -1.61787111721e-14
ddelta: 6.16482602856e-13
---
header: 
  seq: 88
  stamp: 
    secs: 0
    nsecs:         0
  frame_id: ''
D: 1.0
delta: 0.000412745446973
dD: -1.40199036045e-14
ddelta: -6.17643805617e-13
---
header: 
  seq: 89
  stamp: 
    secs: 0
    nsecs:         0
  frame_id: ''
D: 1.0
delta: 0.000412745446991
dD: -1.18610613086e-14
ddelta: 8.97411460837e-13
---
header: 
  seq: 90
  stamp: 
    secs: 0
    nsecs:         0
  frame_id: ''
D: 1.0
delta: 0.000412745446986
dD: -9.70680746958e-15
ddelta: -2.46374042807e-13
---
header: 
  seq: 91
  stamp: 
    secs: 0
    nsecs:         0
  frame_id: ''
D: 1.0
delta: 0.000412745446998
dD: -7.54796583541e-15
ddelta: 6.33932409918e-13
---
header: 
  seq: 92
  stamp: 
    secs: 0
    nsecs:         0
  frame_id: ''
D: 1.0
delta: 0.000412745446982
dD: 2.41642848271e-15
ddelta: -8.33748275845e-13
---
header: 
  seq: 93
  stamp: 
    secs: 1611879464
    nsecs: 956686729
  frame_id: ''
D: 1.0
delta: -0.00162167032568
dD: -1.38047951936e-11
ddelta: -0.101720788633
---
header: 
  seq: 94
  stamp: 
    secs: 1611879465
    nsecs:   6655149
  frame_id: ''
D: 0.944633152586
delta: -0.0208132902934
dD: -2.76834237067
ddelta: -0.959580998386
---
header: 
  seq: 95
  stamp: 
    secs: 1611879465
    nsecs:  26661563
  frame_id: ''
D: 0.844633152586
delta: -0.0608132902934
dD: -5.0
ddelta: -2.0
---
header: 
  seq: 96
  stamp: 
    secs: 1611879465
    nsecs:  46681758
  frame_id: ''
D: 0.768395197
delta: -0.0945445018364
dD: -3.81191360396
ddelta: -1.68656771094
---
header: 
  seq: 97
  stamp: 
    secs: 1611879465
    nsecs:  76657549
  frame_id: ''
D: 0.754150367952
delta: -0.134544501836
dD: -0.712241452422
ddelta: -1.99999999999
---
header: 
  seq: 98
  stamp: 
    secs: 1611879465
    nsecs:  86654961
  frame_id: ''
D: 0.754213448612
delta: -0.165572933195
dD: 0.00315403300138
ddelta: -1.55142156796
---
header: 
  seq: 99
  stamp: 
    secs: 1611879465
    nsecs: 106665917
  frame_id: ''
D: 0.768484329723
delta: -0.152016319075
dD: 0.713544055584
ddelta: 0.677830706015
---
header: 
  seq: 100
  stamp: 
    secs: 1611879465
    nsecs: 126659727
  frame_id: ''
D: 0.798948336881
delta: -0.146127239915
dD: 1.52320035788
ddelta: 0.294453957987
---
header: 
  seq: 101
  stamp: 
    secs: 1611879465
    nsecs: 146659609
  frame_id: ''
D: 0.838917737265
delta: -0.140038551349
dD: 1.99847001919
ddelta: 0.304434428325
---
header: 
  seq: 102
  stamp: 
    secs: 1611879465
    nsecs: 166661227
  frame_id: ''
D: 0.882167751453
delta: -0.13412036435
dD: 2.16250070941
ddelta: 0.29590934994
---
header: 
  seq: 103
  stamp: 
    secs: 1611879465
    nsecs: 186665235
  frame_id: ''
D: 0.929090735906
delta: -0.12833752741
dD: 2.34614922266
ddelta: 0.289141847002
---
header: 
  seq: 104
  stamp: 
    secs: 1611879465
    nsecs: 206660321
  frame_id: ''
D: 0.969550209688
delta: -0.122540088326
dD: 2.02297368909
ddelta: 0.289871954219
---
header: 
  seq: 105
  stamp: 
    secs: 1611879465
    nsecs: 226660268
  frame_id: ''
D: 0.999999999988
delta: -0.117673015256
dD: 1.522489515
ddelta: 0.243353653453
---
header: 
  seq: 106
  stamp: 
    secs: 1611879465
    nsecs: 246659473
  frame_id: ''
D: 1.0
delta: -0.112794123561
dD: 6.09834849286e-10
ddelta: 0.243944584781
---
header: 
  seq: 107
  stamp: 
    secs: 1611879465
    nsecs: 266655033
  frame_id: ''
D: 1.0
delta: -0.109548947084
dD: -9.56456426833e-12
ddelta: 0.162258823835
---
header: 
  seq: 108
  stamp: 
    secs: 1611879465
    nsecs: 286655506
  frame_id: ''
D: 0.999999999993
delta: -0.107373545044
dD: -3.37564146291e-10
ddelta: 0.108770102012
---
header: 
  seq: 109
  stamp: 
    secs: 1611879465
    nsecs: 306659516
  frame_id: ''
D: 0.99999999998
delta: -0.105901702616
dD: -6.7368668774e-10
ddelta: 0.0735921213733
---
header: 
  seq: 110
  stamp: 
    secs: 1611879465
    nsecs: 326682706
  frame_id: ''
D: 0.99999999999
delta: -0.104875129092
dD: 5.13433312063e-10
ddelta: 0.0513286762237
---
header: 
  seq: 111
  stamp: 
    secs: 1611879465
    nsecs: 346669552
  frame_id: ''
D: 0.999999999999
delta: -0.104125313774
dD: 4.47781347001e-10
ddelta: 0.0374907659083
---
header: 
  seq: 112
  stamp: 
    secs: 1611879465
    nsecs: 366657984
  frame_id: ''
D: 1.0
delta: -0.103549636274
dD: 5.67535840125e-11
ddelta: 0.0287838750101
---
header: 
  seq: 113
  stamp: 
    secs: 1611879465
    nsecs: 386631757
  frame_id: ''
D: 1.0
delta: -0.103089555504
dD: 2.88704915225e-12
ddelta: 0.0230040384949
---
header: 
  seq: 114
  stamp: 
    secs: 1611879465
    nsecs: 396659411
  frame_id: ''
D: 1.0
delta: -0.102699144765
dD: 4.95030180785e-14
ddelta: 0.0195205369214
---
header: 
  seq: 115
  stamp: 
    secs: 1611879465
    nsecs: 426657227
  frame_id: ''
D: 1.0
delta: -0.102421960083
dD: 2.20109868475e-13
ddelta: 0.0138592341068
---
header: 
  seq: 116
  stamp: 
    secs: 1611879465
    nsecs: 446661660
  frame_id: ''
D: 1.0
delta: -0.102165296275
dD: 3.26130237077e-14
ddelta: 0.0128331904206
---
header: 
  seq: 117
  stamp: 
    secs: 1611879465
    nsecs: 466667906
  frame_id: ''
D: 1.0
delta: -0.101960498563
dD: 7.42689753029e-15
ddelta: 0.010239885584
---
header: 
  seq: 118
  stamp: 
    secs: 1611879465
    nsecs: 486661537
  frame_id: ''
D: 1.0
delta: -0.101685403405
dD: -4.87727908556e-15
ddelta: 0.0137547579067
---
header: 
  seq: 119
  stamp: 
    secs: 1611879465
    nsecs: 506658166
  frame_id: ''
D: 1.0
delta: -0.101541163121
dD: 6.79506088688e-15
ddelta: 0.0072120142001
---
header: 
  seq: 120
  stamp: 
    secs: 1611879465
    nsecs: 526663074
  frame_id: ''
D: 1.0
delta: -0.101454710532
dD: 7.39117979203e-15
ddelta: 0.00432262942706
---
header: 
  seq: 121
  stamp: 
    secs: 1611879465
    nsecs: 546654390
  frame_id: ''
D: 1.0
delta: -0.101414871326
dD: 7.98585469791e-15
ddelta: 0.0019919603062
---
header: 
  seq: 122
  stamp: 
    secs: 1611879465
    nsecs: 566656707
  frame_id: ''
D: 1.0
delta: -0.101405260932
dD: 8.96333682033e-15
ddelta: 0.000480519714254
---
header: 
  seq: 123
  stamp: 
    secs: 1611879465
    nsecs: 586658402
  frame_id: ''
D: 1.0
delta: -0.101411525025
dD: 1.35192264594e-14
ddelta: -0.000313204675239
---
header: 
  seq: 124
  stamp: 
    secs: 1611879465
    nsecs: 606657212
  frame_id: ''
D: 1.0
delta: -0.100848207653
dD: 9.81698652427e-15
ddelta: 0.028165868628
---
header: 
  seq: 125
  stamp: 
    secs: 1611879465
    nsecs: 626658810
  frame_id: ''
D: 1.0
delta: -0.10069367863
dD: 1.53279657654e-14
ddelta: 0.00772645114808
---
header: 
  seq: 126
  stamp: 
    secs: 1611879465
    nsecs: 646678686
  frame_id: ''
D: 1.0
delta: -0.100042719913
dD: -1.48935843605e-14
ddelta: 0.0325479358496
---
header: 
  seq: 127
  stamp: 
    secs: 1611879465
    nsecs: 666660141
  frame_id: ''
D: 1.0
delta: -0.0999520413609
dD: -2.16555862529e-15
ddelta: 0.00453392760024
---
header: 
  seq: 128
  stamp: 
    secs: 1611879465
    nsecs: 686658317
  frame_id: ''
D: 1.0
delta: -0.100048083368
dD: -4.59428553008e-17
ddelta: -0.00480210037408
---
header: 
  seq: 129
  stamp: 
    secs: 1611879465
    nsecs: 706654509
  frame_id: ''
D: 1.0
delta: -0.100207330442
dD: 5.64534585768e-15
ddelta: -0.00796235368101
---
header: 
  seq: 130
  stamp: 
    secs: 1611879465
    nsecs: 726664459
  frame_id: ''
D: 1.0
delta: -0.100481389558
dD: 7.63904593166e-15
ddelta: -0.0137029558047
---
header: 
  seq: 131
  stamp: 
    secs: 1611879465
    nsecs: 746663570
  frame_id: ''
D: 1.0
delta: -0.10073776256
dD: 1.79935947294e-14
ddelta: -0.0128186500703
---
header: 
  seq: 132
  stamp: 
    secs: 1611879465
    nsecs: 766660502
  frame_id: ''
D: 1.0
delta: -0.100943073198
dD: 1.86027107926e-14
ddelta: -0.010265531935
---
header: 
  seq: 133
  stamp: 
    secs: 1611879465
    nsecs: 786670977
  frame_id: ''
D: 1.0
delta: -0.101104587643
dD: 1.56418735949e-14
ddelta: -0.00807572225149
---
header: 
  seq: 134
  stamp: 
    secs: 1611879465
    nsecs: 806661316
  frame_id: ''
D: 1.0
delta: -0.101224276051
dD: 2.08969572277e-14
ddelta: -0.00598442037338
---
header: 
  seq: 135
  stamp: 
    secs: 1611879465
    nsecs: 826660133
  frame_id: ''
D: 1.0
delta: -0.101220112284
dD: 1.8063969317e-14
ddelta: 0.000208188326055
---
header: 
  seq: 136
  stamp: 
    secs: 1611879465
    nsecs: 846671570
  frame_id: ''
D: 1.0
delta: -0.101235601944
dD: 2.29769284412e-14
ddelta: -0.000774482997642
---
header: 
  seq: 137
  stamp: 
    secs: 1611879465
    nsecs: 866662394
  frame_id: ''
D: 1.0
delta: -0.10125194025
dD: 2.35264521897e-14
ddelta: -0.000816915311701
---
header: 
  seq: 138
  stamp: 
    secs: 1611879465
    nsecs: 886652487
  frame_id: ''
D: 1.0
delta: -0.101280360338
dD: 2.36910248547e-14
ddelta: -0.00142100438768
---
header: 
  seq: 139
  stamp: 
    secs: 1611879465
    nsecs: 906659388
  frame_id: ''
D: 1.0
delta: -0.101313172396
dD: 2.38281285788e-14
ddelta: -0.00164060291369
---
header: 
  seq: 140
  stamp: 
    secs: 1611879465
    nsecs: 926662658
  frame_id: ''
D: 1.0
delta: -0.101344997006
dD: 2.41473199351e-14
ddelta: -0.00159123049912
---
header: 
  seq: 141
  stamp: 
    secs: 1611879465
    nsecs: 946658591
  frame_id: ''
D: 1.0
delta: -0.101372593605
dD: 2.20642440481e-14
ddelta: -0.00137982994745
---
header: 
  seq: 142
  stamp: 
    secs: 1611879465
    nsecs: 966660327
  frame_id: ''
D: 1.0
delta: -0.101394390644
dD: 2.29959707345e-14
ddelta: -0.00108985194087
---
header: 
  seq: 143
  stamp: 
    secs: 1611879465
    nsecs: 986656458
  frame_id: ''
D: 1.0
delta: -0.101410032941
dD: 2.42326179263e-14
ddelta: -0.000782114838735
---
header: 
  seq: 144
  stamp: 
    secs: 1611879466
    nsecs:   6668111
  frame_id: ''
D: 1.0
delta: -0.101419972902
dD: 2.57368339125e-14
ddelta: -0.000496998067094
---
header: 
  seq: 145
  stamp: 
    secs: 1611879466
    nsecs:  26663122
  frame_id: ''
D: 1.0
delta: -0.101425124968
dD: 1.08070760836e-14
ddelta: -0.000257603260954
---
header: 
  seq: 146
  stamp: 
    secs: 1611879466
    nsecs:  46658517
  frame_id: ''
D: 1.0
delta: -0.101426595356
dD: 1.26937550535e-14
ddelta: -7.35194140941e-05
---
header: 
  seq: 147
  stamp: 
    secs: 1611879466
    nsecs:  66669537
  frame_id: ''
D: 1.0
delta: -0.100773716047
dD: -2.11485274085e-12
ddelta: 0.0326439654471
---
header: 
  seq: 148
  stamp: 
    secs: 1611879466
    nsecs:  86660317
  frame_id: ''
D: 1.0
delta: -0.100723131598
dD: 2.06050447955e-12
ddelta: 0.00252922245754
---
header: 
  seq: 149
  stamp: 
    secs: 1611879466
    nsecs: 106658724
  frame_id: ''
D: 1.0
delta: -0.100802654417
dD: 3.6024587439e-14
ddelta: -0.00397614094673
---
header: 
  seq: 150
  stamp: 
    secs: 1611879466
    nsecs: 126656586
  frame_id: ''
D: 1.0
delta: -0.100343413108
dD: -2.0566632755e-15
ddelta: 0.0229620654522
---
header: 
  seq: 151
  stamp: 
    secs: 1611879466
    nsecs: 146688844
  frame_id: ''
D: 1.0
delta: -0.100320356382
dD: -6.29632804635e-15
ddelta: 0.00115283629495
---
header: 
  seq: 152
  stamp: 
    secs: 1611879466
    nsecs: 166656861
  frame_id: ''
D: 1.0
delta: -0.0998060075736
dD: 2.4977261425e-15
ddelta: 0.0257174404035
---
header: 
  seq: 153
  stamp: 
    secs: 1611879466
    nsecs: 186660714
  frame_id: ''
D: 1.0
delta: -0.0998307788215
dD: -1.83172033558e-15
ddelta: -0.00123856239538
---
header: 
  seq: 154
  stamp: 
    secs: 1611879466
    nsecs: 206662365
  frame_id: ''
D: 1.0
delta: -0.100103361288
dD: -1.61651986341e-14
ddelta: -0.0136291233205
---
header: 
  seq: 155
  stamp: 
    secs: 1611879466
    nsecs: 226654377
  frame_id: ''
D: 1.0
delta: -0.100454482524
dD: 5.11064535123e-16
ddelta: -0.0175560617786
---
header: 
  seq: 156
  stamp: 
    secs: 1611879466
    nsecs: 246660407
  frame_id: ''
D: 1.0
delta: -0.100784187099
dD: 1.25141756446e-14
ddelta: -0.0164852287943
---
header: 
  seq: 157
  stamp: 
    secs: 1611879466
    nsecs: 266660222
  frame_id: ''
D: 1.0
delta: -0.0945484764502
dD: -1.29166786181e-12
ddelta: 0.311785532459
---
header: 
  seq: 158
  stamp: 
    secs: 1611879466
    nsecs: 286655408
  frame_id: ''
D: 1.0
delta: -0.0918750703888
dD: 1.23046650451e-12
ddelta: 0.133670303071
---
header: 
  seq: 159
  stamp: 
    secs: 1611879466
    nsecs: 306698526
  frame_id: ''
D: 1.0
delta: -0.0919076414665
dD: 8.2016002338e-14
ddelta: -0.00162855388648
---
header: 
  seq: 160
  stamp: 
    secs: 1611879466
    nsecs: 326660733
  frame_id: ''
D: 1.0
delta: -0.0933210698559
dD: -2.33061313629e-14
ddelta: -0.0706714194661
---
header: 
  seq: 161
  stamp: 
    secs: 1611879466
    nsecs: 346656267
  frame_id: ''
D: 1.0
delta: -0.095207855929
dD: -2.90974839426e-14
ddelta: -0.0943393036576
---
header: 
  seq: 162
  stamp: 
    secs: 1611879466
    nsecs: 366679864
  frame_id: ''
D: 1.0
delta: -0.097083814438
dD: 4.36842443954e-15
ddelta: -0.0937979254484
---
header: 
  seq: 163
  stamp: 
    secs: 1611879466
    nsecs: 386662891
  frame_id: ''
D: 1.0
delta: -0.0986552108274
dD: 4.05892613127e-15
ddelta: -0.0785698194691
---
header: 
  seq: 164
  stamp: 
    secs: 1611879466
    nsecs: 406659694
  frame_id: ''
D: 1.0
delta: -0.0998267802343
dD: 5.07272078113e-15
ddelta: -0.0585784703493
---
header: 
  seq: 165
  stamp: 
    secs: 1611879466
    nsecs: 426666655
  frame_id: ''
D: 1.0
delta: -0.100618681985
dD: 1.20568996075e-14
ddelta: -0.0395950875506
---
header: 
  seq: 166
  stamp: 
    secs: 1611879466
    nsecs: 446660902
  frame_id: ''
D: 1.0
delta: -0.101011144202
dD: 2.07564995444e-14
ddelta: -0.0196231108135
---
header: 
  seq: 167
  stamp: 
    secs: 1611879466
    nsecs: 466660337
  frame_id: ''
D: 1.0
delta: -0.100636585229
dD: -1.0052725005e-14
ddelta: 0.0187279486188
---
header: 
  seq: 168
  stamp: 
    secs: 1611879466
    nsecs: 486665407
  frame_id: ''
D: 1.0
delta: -0.100566690541
dD: 1.97921868057e-14
ddelta: 0.00349473442163
---
header: 
  seq: 169
  stamp: 
    secs: 1611879466
    nsecs: 506659325
  frame_id: ''
D: 1.0
delta: -0.100658008597
dD: 2.49472878937e-14
ddelta: -0.00456590280919
---
header: 
  seq: 170
  stamp: 
    secs: 1611879466
    nsecs: 526655335
  frame_id: ''
D: 1.0
delta: -0.10082057507
dD: 2.21046805738e-14
ddelta: -0.00812832366482
---
header: 
  seq: 171
  stamp: 
    secs: 1611879466
    nsecs: 546663720
  frame_id: ''
D: 1.0
delta: -0.100994172458
dD: 2.53030439682e-14
ddelta: -0.00867986937752
---
header: 
  seq: 172
  stamp: 
    secs: 1611879466
    nsecs: 566671941
  frame_id: ''
D: 1.0
delta: -0.101145516864
dD: 3.89019331021e-15
ddelta: -0.00756722029697
---
header: 
  seq: 173
  stamp: 
    secs: 1611879466
    nsecs: 586666056
  frame_id: ''
D: 1.0
delta: -0.10126118837
dD: 5.05408577174e-15
ddelta: -0.00578357533438
---
header: 
  seq: 174
  stamp: 
    secs: 1611879466
    nsecs: 606661878
  frame_id: ''
D: 1.0
delta: -0.101340290822
dD: 1.42853545849e-15
ddelta: -0.00395512256906
---
header: 
  seq: 175
  stamp: 
    secs: 1611879466
    nsecs: 626656332
  frame_id: ''
D: 1.0
delta: -0.101388437862
dD: 6.18006243789e-15
ddelta: -0.00240735198786
---
header: 
  seq: 176
  stamp: 
    secs: 1611879466
    nsecs: 646662712
  frame_id: ''
D: 1.0
delta: -0.10141355437
dD: 8.06691487085e-15
ddelta: -0.0012558254399
---
header: 
  seq: 177
  stamp: 
    secs: 1611879466
    nsecs: 666656976
  frame_id: ''
D: 1.0
delta: -0.10142336491
dD: 1.00686388615e-14
ddelta: -0.000490526978191
---
header: 
  seq: 178
  stamp: 
    secs: 1611879466
    nsecs: 686656399
  frame_id: ''
D: 1.0
delta: -0.101327508177
dD: 3.35137731552e-15
ddelta: 0.00479283663303
---
header: 
  seq: 179
  stamp: 
    secs: 1611879466
    nsecs: 706666736
  frame_id: ''
D: 1.0
delta: -0.101303282818
dD: 9.26614343597e-15
ddelta: 0.00121126798485
---
header: 
  seq: 180
  stamp: 
    secs: 1611879466
    nsecs: 726657536
  frame_id: ''
D: 1.0
delta: -0.101295797762
dD: 5.96973196114e-15
ddelta: 0.000374252778453
---
header: 
  seq: 181
  stamp: 
    secs: 1611879466
    nsecs: 746657087
  frame_id: ''
D: 1.0
delta: -0.101188126907
dD: -5.35803594803e-16
ddelta: 0.00538354276201
---
header: 
  seq: 182
  stamp: 
    secs: 1611879466
    nsecs: 766658392
  frame_id: ''
D: 1.0
delta: -0.101177319382
dD: 8.29702573744e-15
ddelta: 0.00054037623745
---
header: 
  seq: 183
  stamp: 
    secs: 1611879466
    nsecs: 786658346
  frame_id: ''
D: 1.0
delta: -0.101188491464
dD: 1.03931616152e-14
ddelta: -0.000558604076792
---
header: 
  seq: 184
  stamp: 
    secs: 1611879466
    nsecs: 806694125
  frame_id: ''
D: 1.0
delta: -0.101209407877
dD: 1.09367369689e-14
ddelta: -0.0010458206711
---
header: 
  seq: 185
  stamp: 
    secs: 1611879466
    nsecs: 826662695
  frame_id: ''
D: 1.0
delta: -0.0947560491376
dD: -1.08293193639e-12
ddelta: 0.322667936972
---
header: 
  seq: 186
  stamp: 
    secs: 1611879466
    nsecs: 846653815
  frame_id: ''
D: 1.0
delta: -0.0926552905434
dD: 6.263530828e-13
ddelta: 0.10503792971
---
header: 
  seq: 187
  stamp: 
    secs: 1611879466
    nsecs: 866679908
  frame_id: ''
D: 1.0
delta: -0.092848377039
dD: 4.70508421618e-13
ddelta: -0.00965432477853
---
header: 
  seq: 188
  stamp: 
    secs: 1611879466
    nsecs: 886659213
  frame_id: ''
D: 1.0
delta: -0.0934890432266
dD: 3.5574184439e-15
ddelta: -0.0320333093846
---
header: 
  seq: 189
  stamp: 
    secs: 1611879466
    nsecs: 906653991
  frame_id: ''
D: 1.0
delta: -0.0942783996456
dD: -2.23883644479e-15
ddelta: -0.0394678209471
---
header: 
  seq: 190
  stamp: 
    secs: 1611879466
    nsecs: 926665363
  frame_id: ''
D: 1.0
delta: -0.0957538136244
dD: -4.08741487743e-14
ddelta: -0.0737706989389
---
header: 
  seq: 191
  stamp: 
    secs: 1611879466
    nsecs: 946660835
  frame_id: ''
D: 1.0
delta: -0.0967612688844
dD: 2.01920569186e-14
ddelta: -0.0503727629999
---
header: 
  seq: 192
  stamp: 
    secs: 1611879466
    nsecs: 966659875
  frame_id: ''
D: 1.0
delta: -0.0979028764406
dD: 3.91495736662e-14
ddelta: -0.057080377812
---
header: 
  seq: 193
  stamp: 
    secs: 1611879466
    nsecs: 986665807
  frame_id: ''
D: 1.0
delta: -0.0989706292755
dD: 2.95378902995e-15
ddelta: -0.0533876417438
---
header: 
  seq: 194
  stamp: 
    secs: 1611879467
    nsecs:   6660267
  frame_id: ''
D: 1.0
delta: -0.0997637363995
dD: 3.02722395421e-15
ddelta: -0.0396553562002
---
header: 
  seq: 195
  stamp: 
    secs: 1611879467
    nsecs:  26666471
  frame_id: ''
D: 1.0
delta: -0.100357082111
dD: 9.99722360786e-15
ddelta: -0.0296672855764
---
header: 
  seq: 196
  stamp: 
    secs: 1611879467
    nsecs:  46656458
  frame_id: ''
D: 1.0
delta: -0.100780224622
dD: 1.08123592729e-14
ddelta: -0.0211571255398
---
header: 
  seq: 197
  stamp: 
    secs: 1611879467
    nsecs:  66659965
  frame_id: ''
D: 1.0
delta: -0.101061347178
dD: 1.17018223107e-14
ddelta: -0.0140561277866
---
header: 
  seq: 198
  stamp: 
    secs: 1611879467
    nsecs:  86667807
  frame_id: ''
D: 1.0
delta: -0.100529577378
dD: 1.32603599294e-14
ddelta: 0.026588489964
---
header: 
  seq: 199
  stamp: 
    secs: 1611879467
    nsecs: 106661165
  frame_id: ''
D: 1.0
delta: -0.100387833467
dD: 1.21988028982e-14
ddelta: 0.00708719553872
---
header: 
  seq: 200
  stamp: 
    secs: 1611879467
    nsecs: 126655666
  frame_id: ''
D: 1.0
delta: -0.100463937126
dD: 1.7637916026e-14
ddelta: -0.0038051829214
---
header: 
  seq: 201
  stamp: 
    secs: 1611879467
    nsecs: 146666516
  frame_id: ''
D: 1.0
delta: -0.100070799812
dD: 1.27534348443e-14
ddelta: 0.0196568656931
---
header: 
  seq: 202
  stamp: 
    secs: 1611879467
    nsecs: 166655096
  frame_id: ''
D: 1.0
delta: -0.100110243073
dD: -4.61616025521e-15
ddelta: -0.00197216306505
---
header: 
  seq: 203
  stamp: 
    secs: 1611879467
    nsecs: 186652025
  frame_id: ''
D: 1.0
delta: -0.094310684891
dD: -1.52162888157e-13
ddelta: 0.289977909119
---
header: 
  seq: 204
  stamp: 
    secs: 1611879467
    nsecs: 206666697
  frame_id: ''
D: 1.0
delta: -0.0928373687091
dD: -1.15703914112e-14
ddelta: 0.0736658090926
---
header: 
  seq: 205
  stamp: 
    secs: 1611879467
    nsecs: 226659511
  frame_id: ''
D: 1.0
delta: -0.0934844473437
dD: 1.33632036245e-13
ddelta: -0.0323539317277
---
header: 
  seq: 206
  stamp: 
    secs: 1611879467
    nsecs: 246655774
  frame_id: ''
D: 1.0
delta: -0.0950611517601
dD: 4.99026986678e-14
ddelta: -0.0788352208228
---
header: 
  seq: 207
  stamp: 
    secs: 1611879467
    nsecs: 266663403
  frame_id: ''
D: 1.0
delta: -0.0968629539905
dD: 6.79869713315e-15
ddelta: -0.0900901115199
---
header: 
  seq: 208
  stamp: 
    secs: 1611879467
    nsecs: 286656673
  frame_id: ''
D: 1.0
delta: -0.097778965205
dD: 7.12302464575e-15
ddelta: -0.0458005607224
---
header: 
  seq: 209
  stamp: 
    secs: 1611879467
    nsecs: 306658098
  frame_id: ''
D: 0.999999999999
delta: -0.086985819216
dD: -3.32825121754e-11
ddelta: 0.53965729945
---
header: 
  seq: 210
  stamp: 
    secs: 1611879467
    nsecs: 326684233
  frame_id: ''
D: 1.0
delta: -0.0841377073567
dD: 3.21285084634e-11
ddelta: 0.142405592963
---
header: 
  seq: 211
  stamp: 
    secs: 1611879467
    nsecs: 346671560
  frame_id: ''
D: 1.0
delta: -0.0853161426082
dD: 1.11874363253e-12
ddelta: -0.0589217625745
---
header: 
  seq: 212
  stamp: 
    secs: 1611879467
    nsecs: 366660707
  frame_id: ''
D: 1.0
delta: -0.0883079916836
dD: 2.47419232601e-14
ddelta: -0.14959245377
---
header: 
  seq: 213
  stamp: 
    secs: 1611879467
    nsecs: 386658636
  frame_id: ''
D: 1.0
delta: -0.0905423658546
dD: 5.54314479456e-15
ddelta: -0.11171870855
---
header: 
  seq: 214
  stamp: 
    secs: 1611879467
    nsecs: 406667131
  frame_id: ''
D: 1.0
delta: -0.0932777109986
dD: -3.37649176961e-15
ddelta: -0.136767257202
---
header: 
  seq: 215
  stamp: 
    secs: 1611879467
    nsecs: 426659867
  frame_id: ''
D: 1.0
delta: -0.0958505893189
dD: -9.14253415774e-16
ddelta: -0.128643916014
---
header: 
  seq: 216
  stamp: 
    secs: 1611879467
    nsecs: 446659322
  frame_id: ''
D: 1.0
delta: -0.0979582241262
dD: 1.32371827455e-14
ddelta: -0.105381740364
---
header: 
  seq: 217
  stamp: 
    secs: 1611879467
    nsecs: 466666860
  frame_id: ''
D: 1.0
delta: -0.0995036983609
dD: 2.39528317868e-14
ddelta: -0.0772737117333
---
header: 
  seq: 218
  stamp: 
    secs: 1611879467
    nsecs: 486661619
  frame_id: ''
D: 1.0
delta: -0.0999560482415
dD: 2.16015240574e-14
ddelta: -0.0226174940325
---
header: 
  seq: 219
  stamp: 
    secs: 1611879467
    nsecs: 506660384
  frame_id: ''
D: 1.0
delta: -0.100404522783
dD: 3.85367428937e-14
ddelta: -0.0224237270862
---
header: 
  seq: 220
  stamp: 
    secs: 1611879467
    nsecs: 526663078
  frame_id: ''
D: 1.0
delta: -0.100685300867
dD: 2.25129429899e-14
ddelta: -0.0140389041918
---
header: 
  seq: 221
  stamp: 
    secs: 1611879467
    nsecs: 546660095
  frame_id: ''
D: 1.0
delta: -0.100898294457
dD: 2.23540674089e-14
ddelta: -0.0106496794872
---
header: 
  seq: 222
  stamp: 
    secs: 1611879467
    nsecs: 566669421
  frame_id: ''
D: 1.0
delta: -0.101072139349
dD: 2.2545877636e-14
ddelta: -0.00869224462576
---
header: 
  seq: 223
  stamp: 
    secs: 1611879467
    nsecs: 586662133
  frame_id: ''
D: 1.0
delta: -0.101202217191
dD: 2.04020707969e-14
ddelta: -0.00650389210782
---
header: 
  seq: 224
  stamp: 
    secs: 1611879467
    nsecs: 606660995
  frame_id: ''
D: 1.0
delta: -0.101292483479
dD: 2.13071536848e-14
ddelta: -0.00451331438471
---
header: 
  seq: 225
  stamp: 
    secs: 1611879467
    nsecs: 626676514
  frame_id: ''
D: 1.0
delta: -0.100724005321
dD: 1.37415024234e-14
ddelta: 0.0284239079301
---
header: 
  seq: 226
  stamp: 
    secs: 1611879467
    nsecs: 646661613
  frame_id: ''
D: 1.0
delta: -0.100580040789
dD: 1.58859634896e-14
ddelta: 0.00719822656996
---
header: 
  seq: 227
  stamp: 
    secs: 1611879467
    nsecs: 666660108
  frame_id: ''
D: 1.0
delta: -0.100640309956
dD: 2.2552209783e-14
ddelta: -0.00301345833243
---
header: 
  seq: 228
  stamp: 
    secs: 1611879467
    nsecs: 686666905
  frame_id: ''
D: 1.0
delta: -0.100796252324
dD: 2.222807323e-14
ddelta: -0.00779711841524
---
header: 
  seq: 229
  stamp: 
    secs: 1611879467
    nsecs: 706656558
  frame_id: ''
D: 1.0
delta: -0.0996892152028
dD: 2.01467509593e-14
ddelta: 0.0553518560683
---
header: 
  seq: 230
  stamp: 
    secs: 1611879467
    nsecs: 726655122
  frame_id: ''
D: 1.0
delta: -0.0882823180556
dD: -4.84330965063e-13
ddelta: 0.57034485736
---
header: 
  seq: 231
  stamp: 
    secs: 1611879467
    nsecs: 746659746
  frame_id: ''
D: 0.999999993387
delta: -0.0808320602057
dD: -3.30622192882e-07
ddelta: 0.372512892496
---
header: 
  seq: 232
  stamp: 
    secs: 1611879467
    nsecs: 766658290
  frame_id: ''
D: 1.0
delta: -0.0810461076292
dD: 3.30622464241e-07
ddelta: -0.0107023711745
---
header: 
  seq: 233
  stamp: 
    secs: 1611879467
    nsecs: 786659143
  frame_id: ''
D: 0.999999999999
delta: -0.0843447466307
dD: -3.52141147633e-11
ddelta: -0.164931950079
---
header: 
  seq: 234
  stamp: 
    secs: 1611879467
    nsecs: 806657979
  frame_id: ''
D: 0.999999997018
delta: -0.0826418107963
dD: -1.49065064585e-07
ddelta: 0.0851467917213
---
header: 
  seq: 235
  stamp: 
    secs: 1611879467
    nsecs: 826656658
  frame_id: ''
D: 0.999999999529
delta: -0.0785315112933
dD: 1.25562665081e-07
ddelta: 0.205514975149
---
header: 
  seq: 236
  stamp: 
    secs: 1611879467
    nsecs: 846660267
  frame_id: ''
D: 0.997723569239
delta: -0.0749986474513
dD: -0.113821514483
ddelta: 0.176643192102
---
header: 
  seq: 237
  stamp: 
    secs: 1611879467
    nsecs: 866656062
  frame_id: ''
D: 0.993860115326
delta: -0.0779722060333
dD: -0.193172695677
ddelta: -0.148677929101
---
header: 
  seq: 238
  stamp: 
    secs: 1611879467
    nsecs: 886654954
  frame_id: ''
D: 0.893860115326
delta: -0.0379722060333
dD: -5.0
ddelta: 2.0
---
header: 
  seq: 239
  stamp: 
    secs: 1611879467
    nsecs: 906662669
  frame_id: ''
D: 0.880483204717
delta: 0.00695765499224
dD: -1.24453155305
ddelta: 1.94597797819
---
header: 
  seq: 240
  stamp: 
    secs: 1611879467
    nsecs: 936654859
  frame_id: ''
D: 0.980483204717
delta: 0.0469576549922
dD: 5.0
ddelta: 2.0
---
header: 
  seq: 241
  stamp: 
    secs: 1611879467
    nsecs: 956661322
  frame_id: ''
D: 1.0
delta: 0.00695765499222
dD: 0.975839764142
ddelta: -2.0
---
header: 
  seq: 242
  stamp: 
    secs: 1611879467
    nsecs: 966661706
  frame_id: ''
D: 0.9
delta: 0.0265578205438
dD: -5.0
ddelta: 0.98000827758
---
header: 
  seq: 243
  stamp: 
    secs: 1611879467
    nsecs: 986658466
  frame_id: ''
D: 0.90300862899
delta: 0.0106455559398
dD: 0.150431449508
ddelta: -0.7956132302
---
header: 
  seq: 244
  stamp: 
    secs: 1611879468
    nsecs:   6656263
  frame_id: ''
D: 0.900610819742
delta: -0.00799339732573
dD: -0.119890462412
ddelta: -0.931947663277
---
header: 
  seq: 245
  stamp: 
    secs: 1611879468
    nsecs:  26658440
  frame_id: ''
D: 0.902036614048
delta: -0.0198227063708
dD: 0.0712897153176
ddelta: -0.591465452253
---
header: 
  seq: 246
  stamp: 
    secs: 1611879468
    nsecs:  46656353
  frame_id: ''
D: 0.900410192995
delta: -0.028362778882
dD: -0.0813210526444
ddelta: -0.427003625561
---
header: 
  seq: 247
  stamp: 
    secs: 1611879468
    nsecs:  56654500
  frame_id: ''
D: 0.896268072501
delta: -0.0346424330852
dD: -0.207106024718
ddelta: -0.31398271016
---
header: 
  seq: 248
  stamp: 
    secs: 1611879468
    nsecs:  86656435
  frame_id: ''
D: 0.889783736332
delta: -0.0396879596461
dD: -0.324216808428
ddelta: -0.252276328045
---
header: 
  seq: 249
  stamp: 
    secs: 1611879468
    nsecs: 106655705
  frame_id: ''
D: 0.881859209438
delta: -0.0439520057153
dD: -0.396226344718
ddelta: -0.213202303461
---
header: 
  seq: 250
  stamp: 
    secs: 1611879468
    nsecs: 126667478
  frame_id: ''
D: 0.875776849118
delta: -0.0472458213266
dD: -0.304118015998
ddelta: -0.164690780565
---
header: 
  seq: 251
  stamp: 
    secs: 1611879468
    nsecs: 146660026
  frame_id: ''
D: 0.866982790522
delta: -0.0496135859502
dD: -0.439702929812
ddelta: -0.118388231178
---
header: 
  seq: 252
  stamp: 
    secs: 1611879468
    nsecs: 166654355
  frame_id: ''
D: 0.856459000479
delta: -0.0515109106748
dD: -0.526189502162
ddelta: -0.0948662362285
---
header: 
  seq: 253
  stamp: 
    secs: 1611879468
    nsecs: 186670372
  frame_id: ''
D: 0.847612610638
delta: -0.0531702689847
dD: -0.44231949205
ddelta: -0.0829679154981
---
header: 
  seq: 254
  stamp: 
    secs: 1611879468
    nsecs: 206661659
  frame_id: ''
D: 0.842022578522
delta: -0.0545979126683
dD: -0.279501605763
ddelta: -0.0713821841784
---
header: 
  seq: 255
  stamp: 
    secs: 1611879468
    nsecs: 226681181
  frame_id: ''
D: 0.833127684479
delta: -0.0556040499668
dD: -0.444744702162
ddelta: -0.050306864923
---
header: 
  seq: 256
  stamp: 
    secs: 1611879468
    nsecs: 246664985
  frame_id: ''
D: 0.823085887251
delta: -0.0567045581672
dD: -0.502089861421
ddelta: -0.0550254100224
---
header: 
  seq: 257
  stamp: 
    secs: 1611879468
    nsecs: 266660484
  frame_id: ''
D: 0.813500190738
delta: -0.0578921132676
dD: -0.479284825626
ddelta: -0.059377755017
---
header: 
  seq: 258
  stamp: 
    secs: 1611879468
    nsecs: 286659231
  frame_id: ''
D: 0.805249836328
delta: -0.0591401712215
dD: -0.412517720502
ddelta: -0.062402897695
---
header: 
  seq: 259
  stamp: 
    secs: 1611879468
    nsecs: 306662820
  frame_id: ''
D: 0.798640285607
delta: -0.0604414091603
dD: -0.330477536077
ddelta: -0.0650618969415
---
header: 
  seq: 260
  stamp: 
    secs: 1611879468
    nsecs: 326656945
  frame_id: ''
D: 0.790203767822
delta: -0.0616810628927
dD: -0.421825889214
ddelta: -0.061982686619
---
header: 
  seq: 261
  stamp: 
    secs: 1611879468
    nsecs: 346660258
  frame_id: ''
D: 0.782153941411
delta: -0.0711753647289
dD: -0.402491320544
ddelta: -0.474715091812
---
header: 
  seq: 262
  stamp: 
    secs: 1611879468
    nsecs: 366661838
  frame_id: ''
D: 0.77164260657
delta: -0.0815130826461
dD: -0.525566742051
ddelta: -0.516885895859
---
header: 
  seq: 263
  stamp: 
    secs: 1611879468
    nsecs: 386665791
  frame_id: ''
D: 0.761894320162
delta: -0.0927368568339
dD: -0.487414320441
ddelta: -0.561188709392
---
header: 
  seq: 264
  stamp: 
    secs: 1611879468
    nsecs: 406653915
  frame_id: ''
D: 0.754892504829
delta: -0.0975391291304
dD: -0.35009076663
ddelta: -0.240113614824
---
header: 
  seq: 265
  stamp: 
    secs: 1611879468
    nsecs: 426659842
  frame_id: ''
D: 0.743032180547
delta: -0.0990471462099
dD: -0.5930162141
ddelta: -0.0754008539749
---
header: 
  seq: 266
  stamp: 
    secs: 1611879468
    nsecs: 446659045
  frame_id: ''
D: 0.73229629618
delta: -0.100000443454
dD: -0.536794218368
ddelta: -0.0476648621936
---
header: 
  seq: 267
  stamp: 
    secs: 1611879468
    nsecs: 466657080
  frame_id: ''
D: 0.723791373797
delta: -0.100975526555
dD: -0.425246119122
ddelta: -0.048754155038
---
header: 
  seq: 268
  stamp: 
    secs: 1611879468
    nsecs: 486670020
  frame_id: ''
D: 0.717863405235
delta: -0.101339303994
dD: -0.296398428089
ddelta: -0.0181888719544
---
header: 
  seq: 269
  stamp: 
    secs: 1611879468
    nsecs: 506661371
  frame_id: ''
D: 0.711161284319
delta: -0.101401506486
dD: -0.335106045831
ddelta: -0.00311012461589
---
header: 
  seq: 270
  stamp: 
    secs: 1611879468
    nsecs: 526661965
  frame_id: ''
D: 0.698713481684
delta: -0.10021363947
dD: -0.622390131718
ddelta: 0.0593933507732
---
header: 
  seq: 271
  stamp: 
    secs: 1611879468
    nsecs: 546659010
  frame_id: ''
D: 0.688252695125
delta: -0.0992178903483
dD: -0.523039327959
ddelta: 0.0497874561102
---
header: 
  seq: 272
  stamp: 
    secs: 1611879468
    nsecs: 566664879
  frame_id: ''
D: 0.681212517444
delta: -0.0972592366202
dD: -0.352008884039
ddelta: 0.0979326864061
---
header: 
  seq: 273
  stamp: 
    secs: 1611879468
    nsecs: 586660312
  frame_id: ''
D: 0.675265405143
delta: -0.0937599429825
dD: -0.297355615064
ddelta: 0.174964681882
---
header: 
  seq: 274
  stamp: 
    secs: 1611879468
    nsecs: 606656988
  frame_id: ''
D: 0.662843604978
delta: -0.0889349984054
dD: -0.621090008284
ddelta: 0.241247228858
---
header: 
  seq: 275
  stamp: 
    secs: 1611879468
    nsecs: 626661409
  frame_id: ''
D: 0.653192787711
delta: -0.0845611013207
dD: -0.482540863307
ddelta: 0.218694854232
---
header: 
  seq: 276
  stamp: 
    secs: 1611879468
    nsecs: 646655762
  frame_id: ''
D: 0.646385206545
delta: -0.0803588319887
dD: -0.340379058318
ddelta: 0.210113466599
---
header: 
  seq: 277
  stamp: 
    secs: 1611879468
    nsecs: 666662505
  frame_id: ''
D: 0.640902627811
delta: -0.0760265329948
dD: -0.274128936705
ddelta: 0.216614949698
---
header: 
  seq: 278
  stamp: 
    secs: 1611879468
    nsecs: 686662239
  frame_id: ''
D: 0.633455571227
delta: -0.0618975422585
dD: -0.37235282921
ddelta: 0.706449536814
---
header: 
  seq: 279
  stamp: 
    secs: 1611879468
    nsecs: 706660366
  frame_id: ''
D: 0.622406137136
delta: -0.0505516459219
dD: -0.552471704542
ddelta: 0.567294816827
---
header: 
  seq: 280
  stamp: 
    secs: 1611879468
    nsecs: 726666811
  frame_id: ''
D: 0.613891768718
delta: -0.04074071317
dD: -0.42571842091
ddelta: 0.490546637598
---
header: 
  seq: 281
  stamp: 
    secs: 1611879468
    nsecs: 746660504
  frame_id: ''
D: 0.60965144522
delta: -0.0154559850601
dD: -0.2120161749
ddelta: 1.26423640549
---
header: 
  seq: 282
  stamp: 
    secs: 1611879468
    nsecs: 766654419
  frame_id: ''
D: 0.606456221396
delta: 0.0150468632208
dD: -0.159761191181
ddelta: 1.52514241404
---
header: 
  seq: 283
  stamp: 
    secs: 1611879468
    nsecs: 786666276
  frame_id: ''
D: 0.601993605053
delta: 0.0296784008419
dD: -0.223130817173
ddelta: 0.731576881057
---
header: 
  seq: 284
  stamp: 
    secs: 1611879468
    nsecs: 806656578
  frame_id: ''
D: 0.596131200496
delta: 0.0568417853888
dD: -0.293120227818
ddelta: 1.35816922735
---
header: 
  seq: 285
  stamp: 
    secs: 1611879468
    nsecs: 826656107
  frame_id: ''
D: 0.590591301434
delta: 0.0865914830196
dD: -0.276994953123
ddelta: 1.48748488154
---
header: 
  seq: 286
  stamp: 
    secs: 1611879468
    nsecs: 846659981
  frame_id: ''
D: 0.587986551385
delta: 0.098862143401
dD: -0.130237502463
ddelta: 0.613533019068
---
header: 
  seq: 287
  stamp: 
    secs: 1611879468
    nsecs: 866658566
  frame_id: ''
D: 0.587746505966
delta: 0.105120128515
dD: -0.0120022709041
ddelta: 0.31289925571
---
header: 
  seq: 288
  stamp: 
    secs: 1611879468
    nsecs: 886658768
  frame_id: ''
D: 0.585229723924
delta: 0.110567219863
dD: -0.125839102129
ddelta: 0.27235456738
---
header: 
  seq: 289
  stamp: 
    secs: 1611879468
    nsecs: 906659561
  frame_id: ''
D: 0.582662485195
delta: 0.135064893536
dD: -0.128361936455
ddelta: 1.22488368364
---
header: 
  seq: 290
  stamp: 
    secs: 1611879468
    nsecs: 926657480
  frame_id: ''
D: 0.580678730207
delta: 0.169804129052
dD: -0.0991877493765
ddelta: 1.73696177585
---
header: 
  seq: 291
  stamp: 
    secs: 1611879468
    nsecs: 946667008
  frame_id: ''
D: 0.580423080344
delta: 0.196855779818
dD: -0.0127824931697
ddelta: 1.35258253828
---
header: 
  seq: 292
  stamp: 
    secs: 1611879468
    nsecs: 966662247
  frame_id: ''
D: 0.577101129951
delta: 0.207846389562
dD: -0.166097519658
ddelta: 0.549530487222
---
header: 
  seq: 293
  stamp: 
    secs: 1611879468
    nsecs: 986659410
  frame_id: ''
D: 0.574769172954
delta: 0.212094973839
dD: -0.116597849833
ddelta: 0.212429213808
---
header: 
  seq: 294
  stamp: 
    secs: 1611879469
    nsecs:   6669970
  frame_id: ''
D: 0.572332356819
delta: 0.213668848731
dD: -0.121840806738
ddelta: 0.0786937446262
---
header: 
  seq: 295
  stamp: 
    secs: 1611879469
    nsecs:  26657534
  frame_id: ''
D: 0.573311951509
delta: 0.214923588523
dD: 0.0489797345022
ddelta: 0.0627369896195
---
header: 
  seq: 296
  stamp: 
    secs: 1611879469
    nsecs:  46660614
  frame_id: ''
D: 0.576904317323
delta: 0.216222150768
dD: 0.179618290709
ddelta: 0.0649281122178
---
header: 
  seq: 297
  stamp: 
    secs: 1611879469
    nsecs:  66660561
  frame_id: ''
D: 0.574714397344
delta: 0.215435861384
dD: -0.109495998998
ddelta: -0.0393144691692
---
header: 
  seq: 298
  stamp: 
    secs: 1611879469
    nsecs:  86659057
  frame_id: ''
D: 0.572555590226
delta: 0.193563117747
dD: -0.107940355865
ddelta: -1.09363718186
---
header: 
  seq: 299
  stamp: 
    secs: 1611879469
    nsecs: 106659991
  frame_id: ''
D: 0.571525725654
delta: 0.177174275108
dD: -0.0514932286216
ddelta: -0.819442131965
---
header: 
  seq: 300
  stamp: 
    secs: 1611879469
    nsecs: 126662833
  frame_id: ''
D: 0.572532669098
delta: 0.149299222726
dD: 0.0503471722138
ddelta: -1.39375261909
---
header: 
  seq: 301
  stamp: 
    secs: 1611879469
    nsecs: 146656662
  frame_id: ''
D: 0.5790195854
delta: 0.117650031936
dD: 0.324345815104
ddelta: -1.5824595395
---
header: 
  seq: 302
  stamp: 
    secs: 1611879469
    nsecs: 166667313
  frame_id: ''
D: 0.579707556817
delta: 0.0826171128896
dD: 0.0343985708253
ddelta: -1.75164595232
---
header: 
  seq: 303
  stamp: 
    secs: 1611879469
    nsecs: 186656157
  frame_id: ''
D: 0.574705473973
delta: 0.0426171128896
dD: -0.250104142162
ddelta: -2.0
---
header: 
  seq: 304
  stamp: 
    secs: 1611879469
    nsecs: 206660328
  frame_id: ''
D: 0.569499234412
delta: 0.00261711289001
dD: -0.260311978057
ddelta: -1.99999999998
---
header: 
  seq: 305
  stamp: 
    secs: 1611879469
    nsecs: 226666085
  frame_id: ''
D: 0.567868678859
delta: -0.03738288711
dD: -0.0815277776647
ddelta: -2.0
---
header: 
  seq: 306
  stamp: 
    secs: 1611879469
    nsecs: 246659223
  frame_id: ''
D: 0.568312895875
delta: -0.0773828871096
dD: 0.0222108508136
ddelta: -1.99999999998
---
header: 
  seq: 307
  stamp: 
    secs: 1611879469
    nsecs: 266655636
  frame_id: ''
D: 0.560437398264
delta: -0.11738288711
dD: -0.393774880567
ddelta: -2.0
---
header: 
  seq: 308
  stamp: 
    secs: 1611879469
    nsecs: 286665254
  frame_id: ''
D: 0.549102190135
delta: -0.15738288711
dD: -0.566760406449
ddelta: -2.0
---
header: 
  seq: 309
  stamp: 
    secs: 1611879469
    nsecs: 306659589
  frame_id: ''
D: 0.539589089268
delta: -0.19738288634
dD: -0.475655043324
ddelta: -1.99999996137
---
header: 
  seq: 310
  stamp: 
    secs: 1611879469
    nsecs: 326657972
  frame_id: ''
D: 0.53091460656
delta: -0.23738288634
dD: -0.433724135415
ddelta: -2.0
---
header: 
  seq: 311
  stamp: 
    secs: 1611879469
    nsecs: 346661477
  frame_id: ''
D: 0.506114038848
delta: -0.277382886013
dD: -1.24002838566
ddelta: -1.99999998374
---
header: 
  seq: 312
  stamp: 
    secs: 1611879469
    nsecs: 366660955
  frame_id: ''
D: 0.493714994225
delta: -0.317382886013
dD: -0.619952231118
ddelta: -2.0
---
header: 
  seq: 313
  stamp: 
    secs: 1611879469
    nsecs: 386659764
  frame_id: ''
D: 0.480138999658
delta: -0.338835178376
dD: -0.67879972837
ddelta: -1.07261461815
---
header: 
  seq: 314
  stamp: 
    secs: 1611879469
    nsecs: 406657921
  frame_id: ''
D: 0.482867925827
delta: -0.346028914797
dD: 0.136446308418
ddelta: -0.359686821725
---
header: 
  seq: 315
  stamp: 
    secs: 1611879469
    nsecs: 426656075
  frame_id: ''
D: 0.48324689111
delta: -0.345141917471
dD: 0.0189482641311
ddelta: 0.044349866275
---
header: 
  seq: 316
  stamp: 
    secs: 1611879469
    nsecs: 446665984
  frame_id: ''
D: 0.484745623648
delta: -0.338883893124
dD: 0.074936626891
ddelta: 0.312901217357
---
header: 
  seq: 317
  stamp: 
    secs: 1611879469
    nsecs: 466657067
  frame_id: ''
D: 0.485241094269
delta: -0.335681946278
dD: 0.0247735310604
ddelta: 0.160097342315
---
header: 
  seq: 318
  stamp: 
    secs: 1611879469
    nsecs: 486655986
  frame_id: ''
D: 0.480329921234
delta: -0.337417706686
dD: -0.24555865176
ddelta: -0.086788020391
---
header: 
  seq: 319
  stamp: 
    secs: 1611879469
    nsecs: 506669284
  frame_id: ''
D: 0.477592298147
delta: -0.344848564796
dD: -0.136881154312
ddelta: -0.371542905483
---
header: 
  seq: 320
  stamp: 
    secs: 1611879469
    nsecs: 526660825
  frame_id: ''
D: 0.506262830253
delta: -0.319828108068
dD: 1.43352660529
ddelta: 1.25102283636
---
header: 
  seq: 321
  stamp: 
    secs: 1611879469
    nsecs: 546660025
  frame_id: ''
D: 0.514933411507
delta: -0.310186644622
dD: 0.433529062707
ddelta: 0.482073172293
---
header: 
  seq: 322
  stamp: 
    secs: 1611879469
    nsecs: 566658139
  frame_id: ''
D: 0.51644716789
delta: -0.319482579392
dD: 0.0756878191228
ddelta: -0.464796738489
---
header: 
  seq: 323
  stamp: 
    secs: 1611879469
    nsecs: 586661966
  frame_id: ''
D: 0.508279362323
delta: -0.330752705827
dD: -0.408390278368
ddelta: -0.56350632173
---
header: 
  seq: 324
  stamp: 
    secs: 1611879469
    nsecs: 606657782
  frame_id: ''
D: 0.506218448339
delta: -0.334219866957
dD: -0.103045699184
ddelta: -0.173358056522
---
header: 
  seq: 325
  stamp: 
    secs: 1611879469
    nsecs: 626658806
  frame_id: ''
D: 0.496202385386
delta: -0.33176339289
dD: -0.500803147663
ddelta: 0.122823703369
---
header: 
  seq: 326
  stamp: 
    secs: 1611879469
    nsecs: 646664181
  frame_id: ''
D: 0.511028956599
delta: -0.291763398626
dD: 0.741328560692
ddelta: 1.9999997132
---
header: 
  seq: 327
  stamp: 
    secs: 1611879469
    nsecs: 666660650
  frame_id: ''
D: 0.522718204224
delta: -0.252886329467
dD: 0.584462381213
ddelta: 1.94385345792
---
header: 
  seq: 328
  stamp: 
    secs: 1611879469
    nsecs: 686660009
  frame_id: ''
D: 0.528668957234
delta: -0.247683995291
dD: 0.297537650493
ddelta: 0.260116708842
---
header: 
  seq: 329
  stamp: 
    secs: 1611879469
    nsecs: 706664169
  frame_id: ''
D: 0.53590809555
delta: -0.207683995293
dD: 0.361956915834
ddelta: 1.99999999987
---
header: 
  seq: 330
  stamp: 
    secs: 1611879469
    nsecs: 726659022
  frame_id: ''
D: 0.538213702396
delta: -0.170194097439
dD: 0.115280342309
ddelta: 1.87449489273
---
header: 
  seq: 331
  stamp: 
    secs: 1611879469
    nsecs: 746665098
  frame_id: ''
D: 0.53868329166
delta: -0.13019409744
dD: 0.0234794631753
ddelta: 1.99999999992
---
header: 
  seq: 332
  stamp: 
    secs: 1611879469
    nsecs: 766657843
  frame_id: ''
D: 0.537273886448
delta: -0.102233694657
dD: -0.0704702605792
ddelta: 1.39802013916
---
header: 
  seq: 333
  stamp: 
    secs: 1611879469
    nsecs: 786659126
  frame_id: ''
D: 0.535434712006
delta: -0.125004977652
dD: -0.0919587221144
ddelta: -1.13856414974
---
header: 
  seq: 334
  stamp: 
    secs: 1611879469
    nsecs: 806665922
  frame_id: ''
D: 0.531948461769
delta: -0.13054669512
dD: -0.174312511844
ddelta: -0.277085873414
---
header: 
  seq: 335
  stamp: 
    secs: 1611879469
    nsecs: 826657876
  frame_id: ''
D: 0.525105249989
delta: -0.160664053349
dD: -0.342160588999
ddelta: -1.50586791146
---
header: 
  seq: 336
  stamp: 
    secs: 1611879469
    nsecs: 846655234
  frame_id: ''
D: 0.521795031015
delta: -0.181296086317
dD: -0.165510948709
ddelta: -1.0316016484
---
header: 
  seq: 337
  stamp: 
    secs: 1611879469
    nsecs: 866668140
  frame_id: ''
D: 0.51477423293
delta: -0.221296086216
dD: -0.351039904233
ddelta: -1.99999999492
---
header: 
  seq: 338
  stamp: 
    secs: 1611879469
    nsecs: 886661257
  frame_id: ''
D: 0.507218334893
delta: -0.261296020129
dD: -0.377794901846
ddelta: -1.99999669567
---
header: 
  seq: 339
  stamp: 
    secs: 1611879469
    nsecs: 906659920
  frame_id: ''
D: 0.490840084611
delta: -0.300606052617
dD: -0.818912514118
ddelta: -1.96550162439
---
header: 
  seq: 340
  stamp: 
    secs: 1611879469
    nsecs: 926665417
  frame_id: ''
D: 0.472177314156
delta: -0.326669156359
dD: -0.933138522747
ddelta: -1.30315518711
---
header: 
  seq: 341
  stamp: 
    secs: 1611879469
    nsecs: 946659692
  frame_id: ''
D: 0.461535104335
delta: -0.336731603828
dD: -0.532110491076
ddelta: -0.503122373452
---
header: 
  seq: 342
  stamp: 
    secs: 1611879469
    nsecs: 966659336
  frame_id: ''
D: 0.460397573192
delta: -0.337724907595
dD: -0.0568765571919
ddelta: -0.0496651885447
---
header: 
  seq: 343
  stamp: 
    secs: 1611879469
    nsecs: 986667110
  frame_id: ''
D: 0.451548852681
delta: -0.347969710722
dD: -0.442436025561
ddelta: -0.512240156342
---
header: 
  seq: 344
  stamp: 
    secs: 1611879470
    nsecs:   6660794
  frame_id: ''
D: 0.435803473148
delta: -0.360662278695
dD: -0.787268976655
ddelta: -0.634628398643
---
header: 
  seq: 345
  stamp: 
    secs: 1611879470
    nsecs:  26659584
  frame_id: ''
D: 0.415876900078
delta: -0.371153831533
dD: -0.996328653478
ddelta: -0.524577641932
---
header: 
  seq: 346
  stamp: 
    secs: 1611879470
    nsecs:  46661562
  frame_id: ''
D: 0.40795292212
delta: -0.376013905675
dD: -0.396198897907
ddelta: -0.243003707095
---
header: 
  seq: 347
  stamp: 
    secs: 1611879470
    nsecs:  66658721
  frame_id: ''
D: 0.406161643709
delta: -0.378934139701
dD: -0.0895639205391
ddelta: -0.146011701333
---
header: 
  seq: 348
  stamp: 
    secs: 1611879470
    nsecs:  86664613
  frame_id: ''
D: 0.399324477767
delta: -0.372962730054
dD: -0.341858297102
ddelta: 0.298570482382
---
header: 
  seq: 349
  stamp: 
    secs: 1611879470
    nsecs: 106662480
  frame_id: ''
D: 0.397126344764
delta: -0.370916092786
dD: -0.109906650178
ddelta: 0.102331863383
---
header: 
  seq: 350
  stamp: 
    secs: 1611879470
    nsecs: 126660404
  frame_id: ''
D: 0.378668950548
delta: -0.388921183731
dD: -0.922869710755
ddelta: -0.900254547256
---
header: 
  seq: 351
  stamp: 
    secs: 1611879470
    nsecs: 146664266
  frame_id: ''
D: 0.383271875598
delta: -0.399999999873
dD: 0.230146252481
ddelta: -0.553940807074
---
header: 
  seq: 352
  stamp: 
    secs: 1611879470
    nsecs: 166655295
  frame_id: ''
D: 0.390389253235
delta: -0.397007229122
dD: 0.355868881829
ddelta: 0.149638537524
---
header: 
  seq: 353
  stamp: 
    secs: 1611879470
    nsecs: 186661658
  frame_id: ''
D: 0.396328412653
delta: -0.388240609952
dD: 0.296957970915
ddelta: 0.438330958491
---
header: 
  seq: 354
  stamp: 
    secs: 1611879470
    nsecs: 206664120
  frame_id: ''
D: 0.40270747489
delta: -0.388827311077
dD: 0.31895311187
ddelta: -0.0293350562335
---
header: 
  seq: 355
  stamp: 
    secs: 1611879470
    nsecs: 226661948
  frame_id: ''
D: 0.440490076877
delta: -0.360239840655
dD: 1.88913009934
ddelta: 1.42937352108
---
header: 
  seq: 356
  stamp: 
    secs: 1611879470
    nsecs: 246653823
  frame_id: ''
D: 0.476075027695
delta: -0.357184127353
dD: 1.77924754092
ddelta: 0.152785665137
---
header: 
  seq: 357
  stamp: 
    secs: 1611879470
    nsecs: 266666139
  frame_id: ''
D: 0.493971805594
delta: -0.365529353805
dD: 0.894838894937
ddelta: -0.417261322592
---
header: 
  seq: 358
  stamp: 
    secs: 1611879470
    nsecs: 286659036
  frame_id: ''
D: 0.502805943472
delta: -0.37411873097
