header: 
  seq: 0
  stamp: 
    secs: 1611879464
    nsecs: 926644302
  frame_id: ''
s: 0.0
n: 0.0
alpha: 0.0
v: 0.0
---
header: 
  seq: 1
  stamp: 
    secs: 1611879464
    nsecs: 936598683
  frame_id: ''
s: 0.0
n: 1.07981654113e-05
alpha: 0.000518383328244
v: 0.00319770871924
---
header: 
  seq: 2
  stamp: 
    secs: 1611879464
    nsecs: 946660070
  frame_id: ''
s: 0.0
n: 8.25786348194e-05
alpha: 0.0039232590298
v: 0.0159478834279
---
header: 
  seq: 3
  stamp: 
    secs: 1611879464
    nsecs: 956686729
  frame_id: ''
s: 0.0
n: 0.000306115461135
alpha: 0.0140443103468
v: 0.0442612120463
---
header: 
  seq: 4
  stamp: 
    secs: 1611879464
    nsecs: 966662405
  frame_id: ''
s: 0.0
n: 0.000802172642208
alpha: 0.0340798060003
v: 0.0928840102363
---
header: 
  seq: 5
  stamp: 
    secs: 1611879464
    nsecs: 976659732
  frame_id: ''
s: 0.0
n: 0.00169425824471
alpha: 0.0632789534132
v: 0.163626883186
---
header: 
  seq: 6
  stamp: 
    secs: 1611879464
    nsecs: 986658891
  frame_id: ''
s: 0.0
n: 0.00306228213144
alpha: 0.0960489895283
v: 0.253468607377
---
header: 
  seq: 7
  stamp: 
    secs: 1611879464
    nsecs: 996662944
  frame_id: ''
s: 0.0
n: 0.00440805029291
alpha: 0.0801766484586
v: 0.353038822141
---
header: 
  seq: 8
  stamp: 
    secs: 1611879465
    nsecs:   6655149
  frame_id: ''
s: 0.0
n: 0.00655707669417
alpha: 0.110104258809
v: 0.451459221767
---
header: 
  seq: 9
  stamp: 
    secs: 1611879465
    nsecs:  16655777
  frame_id: ''
s: 8.66994891465
n: 0.00886409976416
alpha: 6.41633211192
v: 0.535551486958
---
header: 
  seq: 10
  stamp: 
    secs: 1611879465
    nsecs:  26661563
  frame_id: ''
s: 8.66039269305
n: 0.0111077471859
alpha: 6.43243210369
v: 0.596834358481
---
header: 
  seq: 11
  stamp: 
    secs: 1611879465
    nsecs:  36661351
  frame_id: ''
s: 8.65116118274
n: 0.0133758098179
alpha: 6.43455801656
v: 0.64339569008
---
header: 
  seq: 12
  stamp: 
    secs: 1611879465
    nsecs:  46681758
  frame_id: ''
s: 8.64557379099
n: 0.0147162697463
alpha: 6.4383616666
v: 0.634158656493
---
header: 
  seq: 13
  stamp: 
    secs: 1611879465
    nsecs:  56659807
  frame_id: ''
s: 8.64127153013
n: 0.0157588856276
alpha: 6.43972649419
v: 0.609288436898
---
header: 
  seq: 14
  stamp: 
    secs: 1611879465
    nsecs:  66665370
  frame_id: ''
s: 8.63533343173
n: 0.017123522607
alpha: 6.4495542926
v: 0.609288436898
---
header: 
  seq: 15
  stamp: 
    secs: 1611879465
    nsecs:  76657549
  frame_id: ''
s: 8.63253185696
n: 0.0178229011558
alpha: 6.44722948242
v: 0.573187505704
---
header: 
  seq: 16
  stamp: 
    secs: 1611879465
    nsecs:  86654961
  frame_id: ''
s: 8.63078427462
n: 0.018272920074
alpha: 6.44381808891
v: 0.529544244643
---
header: 
  seq: 17
  stamp: 
    secs: 1611879465
    nsecs:  96655350
  frame_id: ''
s: 8.62989771192
n: 0.0185179132233
alpha: 6.4398522726
v: 0.481294970148
---
header: 
  seq: 18
  stamp: 
    secs: 1611879465
    nsecs: 106665917
  frame_id: ''
s: 8.6297006864
n: 0.0185976515959
alpha: 6.43573954587
v: 0.430733080319
---
header: 
  seq: 19
  stamp: 
    secs: 1611879465
    nsecs: 116667311
  frame_id: ''
s: 8.6300450783
n: 0.0185467131408
alpha: 6.43177353213
v: 0.379645490872
---
header: 
  seq: 20
  stamp: 
    secs: 1611879465
    nsecs: 126659727
  frame_id: ''
s: 8.63080402683
n: 0.0183948595674
alpha: 6.42814857966
v: 0.329427160849
---
header: 
  seq: 21
  stamp: 
    secs: 1611879465
    nsecs: 136663341
  frame_id: ''
s: 8.63186895845
n: 0.0181676666258
alpha: 6.42497720087
v: 0.281162563053
---
header: 
  seq: 22
  stamp: 
    secs: 1611879465
    nsecs: 146659609
  frame_id: ''
s: 8.63314701757
n: 0.0178870896894
alpha: 6.42230827905
v: 0.235679149393
---
header: 
  seq: 23
  stamp: 
    secs: 1611879465
    nsecs: 156682623
  frame_id: ''
s: 8.63455920368
n: 0.0175718796179
alpha: 6.42014417362
v: 0.193582409176
---
header: 
  seq: 24
  stamp: 
    secs: 1611879465
    nsecs: 166661227
  frame_id: ''
s: 8.63603909329
n: 0.0172378689896
alpha: 6.41845555185
v: 0.155281380378
---
header: 
  seq: 25
  stamp: 
    secs: 1611879465
    nsecs: 176664113
  frame_id: ''
s: 8.63753190034
n: 0.0168981820829
alpha: 6.41719347544
v: 0.121010849909
---
header: 
  seq: 26
  stamp: 
    secs: 1611879465
    nsecs: 186665235
  frame_id: ''
s: 8.64101895835
n: 0.0160861193599
alpha: 6.41641876897
v: 0.0647642469791
---
header: 
  seq: 27
  stamp: 
    secs: 1611879465
    nsecs: 196655624
  frame_id: ''
s: 8.64210973615
n: 0.0158349639423
alpha: 6.41601493399
v: 0.0425932337052
---
header: 
  seq: 28
  stamp: 
    secs: 1611879465
    nsecs: 206660321
  frame_id: ''
s: 8.64312921671
n: 0.0155991380955
alpha: 6.41577803893
v: 0.0241122556542
---
header: 
  seq: 29
  stamp: 
    secs: 1611879465
    nsecs: 216661396
  frame_id: ''
s: 8.64406429277
n: 0.0153819313652
alpha: 6.4156695454
v: 0.00904234522661
---
header: 
  seq: 30
  stamp: 
    secs: 1611879465
    nsecs: 226660268
  frame_id: ''
s: 8.64488712334
n: 0.0153178299974
alpha: 6.41565542161
v: 0.0031842551884
---
header: 
  seq: 31
  stamp: 
    secs: 1611879465
    nsecs: 236664126
  frame_id: ''
s: 8.64563689304
n: 0.015126458642
alpha: 6.41570674739
v: 0.0118981946396
---
header: 
  seq: 32
  stamp: 
    secs: 1611879465
    nsecs: 246659473
  frame_id: ''
s: 8.64627515617
n: 0.0149527466957
alpha: 6.41026726603
v: 0.0186385150698
---
header: 
  seq: 33
  stamp: 
    secs: 1611879465
    nsecs: 256660417
  frame_id: ''
s: 8.64683862088
n: 0.0148061224163
alpha: 6.41141284529
v: 0.0235896877151
---
header: 
  seq: 34
  stamp: 
    secs: 1611879465
    nsecs: 266655033
  frame_id: ''
s: 8.64731411051
n: 0.0146807456289
alpha: 6.41251087192
v: 0.0267921981223
---
header: 
  seq: 35
  stamp: 
    secs: 1611879465
    nsecs: 276656740
  frame_id: ''
s: 8.64770783901
n: 0.0145754119495
alpha: 6.41351092682
v: 0.0285395273662
---
header: 
  seq: 36
  stamp: 
    secs: 1611879465
    nsecs: 286655506
  frame_id: ''
s: 8.64802695409
n: 0.0144886165708
alpha: 6.4143843292
v: 0.029104323572
---
header: 
  seq: 37
  stamp: 
    secs: 1611879465
    nsecs: 296659439
  frame_id: ''
s: 8.64827911712
n: 0.0144186663483
alpha: 6.41511898975
v: 0.0287328291548
---
header: 
  seq: 38
  stamp: 
    secs: 1611879465
    nsecs: 306659516
  frame_id: ''
s: 8.64847216596
n: 0.0143637712973
alpha: 6.41571489822
v: 0.0276431328516
---
header: 
  seq: 39
  stamp: 
    secs: 1611879465
    nsecs: 316683011
  frame_id: ''
s: 8.64861385118
n: 0.0143221176299
alpha: 6.41618031425
v: 0.0260250689912
---
header: 
  seq: 40
  stamp: 
    secs: 1611879465
    nsecs: 326682706
  frame_id: ''
s: 8.64871163581
n: 0.0142919245868
alpha: 6.41652866685
v: 0.0240410920563
---
header: 
  seq: 41
  stamp: 
    secs: 1611879465
    nsecs: 336653735
  frame_id: ''
s: 8.64877254929
n: 0.0142714872727
alpha: 6.41677612387
v: 0.0218277875272
---
header: 
  seq: 42
  stamp: 
    secs: 1611879465
    nsecs: 346669552
  frame_id: ''
s: 8.64880308709
n: 0.0142592075782
alpha: 6.41693976485
v: 0.0194977966768
---
header: 
  seq: 43
  stamp: 
    secs: 1611879465
    nsecs: 356663620
  frame_id: ''
s: 8.64880914798
n: 0.0142536150947
alpha: 6.41703627593
v: 0.0171419925198
---
header: 
  seq: 44
  stamp: 
    secs: 1611879465
    nsecs: 366657984
  frame_id: ''
s: 8.64879600221
n: 0.0142533797445
alpha: 6.41708107981
v: 0.0148317828328
---
header: 
  seq: 45
  stamp: 
    secs: 1611879465
    nsecs: 376658143
  frame_id: ''
s: 8.64876828432
n: 0.0142573176643
alpha: 6.41708781545
v: 0.0126214447777
---
header: 
  seq: 46
  stamp: 
    secs: 1611879465
    nsecs: 386631757
  frame_id: ''
s: 8.64873000529
n: 0.0142643917012
alpha: 6.41706808806
v: 0.0105504182032
---
header: 
  seq: 47
  stamp: 
    secs: 1611879465
    nsecs: 396659411
  frame_id: ''
s: 8.64868457936
n: 0.0142737077145
alpha: 6.41703141919
v: 0.00864550309284
---
header: 
  seq: 48
  stamp: 
    secs: 1611879465
    nsecs: 406673049
  frame_id: ''
s: 8.64863486141
n: 0.0142845077214
alpha: 6.41698533664
v: 0.00692292198063
---
header: 
  seq: 49
  stamp: 
    secs: 1611879465
    nsecs: 416661881
  frame_id: ''
s: 8.64858319167
n: 0.0142961607761
alpha: 6.4169355548
v: 0.00539022128962
---
header: 
  seq: 50
  stamp: 
    secs: 1611879465
    nsecs: 426657227
  frame_id: ''
s: 8.64853144482
n: 0.0143081523374
alpha: 6.41688620618
v: 0.00404799758249
---
header: 
  seq: 51
  stamp: 
    secs: 1611879465
    nsecs: 436661617
  frame_id: ''
s: 8.64848108114
n: 0.0143200727555
alpha: 6.41684009409
v: 0.0028914486384
---
header: 
  seq: 52
  stamp: 
    secs: 1611879465
    nsecs: 446661660
  frame_id: ''
s: 8.64843319786
n: 0.0143316053916
alpha: 6.41679894488
v: 0.0019117787474
---
header: 
  seq: 53
  stamp: 
    secs: 1611879465
    nsecs: 456660221
  frame_id: ''
s: 8.64838857919
n: 0.0143425147834
alpha: 6.41676364478
v: 0.00109762803535
---
header: 
  seq: 54
  stamp: 
    secs: 1611879465
    nsecs: 466667906
  frame_id: ''
s: 8.64834774405
n: 0.0143526351751
alpha: 6.41673445201
v: 0.000438323808559
---
header: 
  seq: 55
  stamp: 
    secs: 1611879465
    nsecs: 476662355
  frame_id: ''
s: 8.6483109905
n: 0.0143618596514
alpha: 6.41671117952
v: 0.0001341117589
---
header: 
  seq: 56
  stamp: 
    secs: 1611879465
    nsecs: 486661537
  frame_id: ''
s: 8.64829855855
n: 0.0142373840515
alpha: 6.41669334656
v: 0.00163501600752
---
header: 
  seq: 57
  stamp: 
    secs: 1611879465
    nsecs: 496659344
  frame_id: ''
s: 8.64826767121
n: 0.0142612245252
alpha: 6.41668029993
v: 0.0012714792085
---
header: 
  seq: 58
  stamp: 
    secs: 1611879465
    nsecs: 506658166
  frame_id: ''
s: 8.64824088797
n: 0.0142836694217
alpha: 6.4166713073
v: 0.00111483261668
---
header: 
  seq: 59
  stamp: 
    secs: 1611879465
    nsecs: 516661977
  frame_id: ''
s: 8.64821804375
n: 0.0143044029091
alpha: 6.41666562582
v: 0.00110659611255
---
header: 
  seq: 60
  stamp: 
    secs: 1611879465
    nsecs: 526663074
  frame_id: ''
s: 8.64819890029
n: 0.0143232270744
alpha: 6.41666254963
v: 0.00116179147188
---
header: 
  seq: 61
  stamp: 
    secs: 1611879465
    nsecs: 536658161
  frame_id: ''
s: 8.64818316906
n: 0.0143400412376
alpha: 6.41666144031
v: 0.00122163757188
---
header: 
  seq: 62
  stamp: 
    secs: 1611879465
    nsecs: 546654390
  frame_id: ''
s: 8.64817053049
n: 0.0143548231505
alpha: 6.4166617436
v: 0.00125983105555
---
header: 
  seq: 63
  stamp: 
    secs: 1611879465
    nsecs: 556654104
  frame_id: ''
s: 8.64816064979
n: 0.014367612187
alpha: 6.41666299591
v: 0.00126852565932
---
header: 
  seq: 64
  stamp: 
    secs: 1611879465
    nsecs: 566656707
  frame_id: ''
s: 8.64815318963
n: 0.0143784945504
alpha: 6.41666482332
v: 0.00124823809362
---
header: 
  seq: 65
  stamp: 
    secs: 1611879465
    nsecs: 576663903
  frame_id: ''
s: 8.64814782017
n: 0.0143875904622
alpha: 6.41666693557
v: 0.00120291235409
---
header: 
  seq: 66
  stamp: 
    secs: 1611879465
    nsecs: 586658402
  frame_id: ''
s: 8.64814422653
n: 0.0143950432489
alpha: 6.416669117
v: 0.00113765908334
---
header: 
  seq: 67
  stamp: 
    secs: 1611879465
    nsecs: 596654719
  frame_id: ''
s: 8.64812612995
n: 0.0143964936634
alpha: 6.41113855609
v: 0.00120262645781
---
header: 
  seq: 68
  stamp: 
    secs: 1611879465
    nsecs: 606657212
  frame_id: ''
s: 8.64812722081
n: 0.0144017014361
alpha: 6.41216997966
v: 0.00107055335984
---
header: 
  seq: 69
  stamp: 
    secs: 1611879465
    nsecs: 616656027
  frame_id: ''
s: 8.64812922632
n: 0.0144057366005
alpha: 6.41314474076
v: 0.000941372404018
---
header: 
  seq: 70
  stamp: 
    secs: 1611879465
    nsecs: 626658810
  frame_id: ''
s: 8.64813188729
n: 0.0144087472076
alpha: 6.41402263881
v: 0.000817668942608
---
header: 
  seq: 71
  stamp: 
    secs: 1611879465
    nsecs: 636662408
  frame_id: ''
s: 8.64813498384
n: 0.0144108769806
alpha: 6.41478192288
v: 0.000701444082175
---
header: 
  seq: 72
  stamp: 
    secs: 1611879465
    nsecs: 646678686
  frame_id: ''
s: 8.64812234848
n: 0.0144077457214
alpha: 6.40988210889
v: 0.000720737574345
---
header: 
  seq: 73
  stamp: 
    secs: 1611879465
    nsecs: 656657606
  frame_id: ''
s: 8.64812779238
n: 0.0144090761909
alpha: 6.4114201986
v: 0.000581428262456
---
header: 
  seq: 74
  stamp: 
    secs: 1611879465
    nsecs: 666660141
  frame_id: ''
s: 8.64813316763
n: 0.0144098900243
alpha: 6.4127864947
v: 0.000461200032122
---
header: 
  seq: 75
  stamp: 
    secs: 1611879465
    nsecs: 676656427
  frame_id: ''
s: 8.64815846164
n: 0.0142775329545
alpha: 6.41395378249
v: 0.00139898058139
---
header: 
  seq: 76
  stamp: 
    secs: 1611879465
    nsecs: 686658317
  frame_id: ''
s: 8.64816082359
n: 0.0142941241579
alpha: 6.4149152866
v: 0.00101592000869
---
header: 
  seq: 77
  stamp: 
    secs: 1611879465
    nsecs: 696671717
  frame_id: ''
s: 8.64816288059
n: 0.0143100132176
alpha: 6.4156786282
v: 0.000690980138987
---
header: 
  seq: 78
  stamp: 
    secs: 1611879465
    nsecs: 706654509
  frame_id: ''
s: 8.64818476511
n: 0.0141921666628
alpha: 6.41626083032
v: 0.00210646095607
---
header: 
  seq: 79
  stamp: 
    secs: 1611879465
    nsecs: 716659183
  frame_id: ''
s: 8.64818374169
n: 0.014222424491
alpha: 6.41668433848
v: 0.00146573103158
---
header: 
  seq: 80
  stamp: 
    secs: 1611879465
    nsecs: 726664459
  frame_id: ''
s: 8.64818252648
n: 0.014250942676
alpha: 6.41697397324
v: 0.000928771073482
---
header: 
  seq: 81
  stamp: 
    secs: 1611879465
    nsecs: 736663576
  frame_id: ''
s: 8.648181196
n: 0.0142773124831
alpha: 6.41715470242
v: 0.000491129410623
---
header: 
  seq: 82
  stamp: 
    secs: 1611879465
    nsecs: 746663570
  frame_id: ''
s: 8.64817981297
n: 0.0143012759248
alpha: 6.41725010723
v: 0.000170895376962
---
header: 
  seq: 83
  stamp: 
    secs: 1611879465
    nsecs: 756660943
  frame_id: ''
s: 8.64817842763
n: 0.0143226994556
alpha: 6.4172814147
v: 0.00020981628905
---
header: 
  seq: 84
  stamp: 
    secs: 1611879465
    nsecs: 766660502
  frame_id: ''
s: 8.64817707914
n: 0.014341550042
alpha: 6.41726697562
v: 0.000402693267403
---
header: 
  seq: 85
  stamp: 
    secs: 1611879465
    nsecs: 776660666
  frame_id: ''
s: 8.64817579692
n: 0.0143578737473
alpha: 6.41722207839
v: 0.000553133007414
---
header: 
  seq: 86
  stamp: 
    secs: 1611879465
    nsecs: 786670977
  frame_id: ''
s: 8.64817460199
n: 0.0143717768692
alpha: 6.41715900409
v: 0.00065689011888
---
header: 
  seq: 87
  stamp: 
    secs: 1611879465
    nsecs: 796669493
  frame_id: ''
s: 8.64817350829
n: 0.0143834095899
alpha: 6.41708724333
v: 0.000720003613357
---
header: 
  seq: 88
  stamp: 
    secs: 1611879465
    nsecs: 806661316
  frame_id: ''
s: 8.64817252381
n: 0.0143929520351
alpha: 6.41701381093
v: 0.000749339137283
---
header: 
  seq: 89
  stamp: 
    secs: 1611879465
    nsecs: 816660689
  frame_id: ''
s: 8.64819177382
n: 0.0142678562114
alpha: 6.41694360886
v: 0.000945269597715
---
header: 
  seq: 90
  stamp: 
    secs: 1611879465
    nsecs: 826660133
  frame_id: ''
s: 8.64818850589
n: 0.0142903648865
alpha: 6.4168798006
v: 0.000543895120138
---
header: 
  seq: 91
  stamp: 
    secs: 1611879465
    nsecs: 836657656
  frame_id: ''
s: 8.64818541209
n: 0.0143109612331
alpha: 6.41682417098
v: 0.00022196925819
---
header: 
  seq: 92
  stamp: 
    secs: 1611879465
    nsecs: 846671570
  frame_id: ''
s: 8.64818254002
n: 0.0143294958207
alpha: 6.41677745464
v: 8.58718366176e-05
---
header: 
  seq: 93
  stamp: 
    secs: 1611879465
    nsecs: 856674156
  frame_id: ''
s: 8.6481799205
n: 0.0143459099259
alpha: 6.41673962352
v: 0.00026170659565
---
header: 
  seq: 94
  stamp: 
    secs: 1611879465
    nsecs: 866662394
  frame_id: ''
s: 8.64817757046
n: 0.0143602170122
alpha: 6.41671012908
v: 0.000408086172216
---
header: 
  seq: 95
  stamp: 
    secs: 1611879465
    nsecs: 876656851
  frame_id: ''
s: 8.64817549556
n: 0.0143724863131
alpha: 6.41668809911
v: 0.000512056394046
---
header: 
  seq: 96
  stamp: 
    secs: 1611879465
    nsecs: 886652487
  frame_id: ''
s: 8.64817369251
n: 0.0143828285076
alpha: 6.4166724918
v: 0.000579050098651
---
header: 
  seq: 97
  stamp: 
    secs: 1611879465
    nsecs: 896661938
  frame_id: ''
s: 8.64817215119
n: 0.0143913834226
alpha: 6.4166622113
v: 0.000615171141207
---
header: 
  seq: 98
  stamp: 
    secs: 1611879465
    nsecs: 906659388
  frame_id: ''
s: 8.64817085642
n: 0.0143983096566
alpha: 6.41665619001
v: 0.000626189995108
---
header: 
  seq: 99
  stamp: 
    secs: 1611879465
    nsecs: 916658086
  frame_id: ''
s: 8.64816978952
n: 0.0144037759847
alpha: 6.41665344334
v: 0.000617342652336
---
header: 
  seq: 100
  stamp: 
    secs: 1611879465
    nsecs: 926662658
  frame_id: ''
s: 8.6481689296
n: 0.0144079543901
alpha: 6.41665310211
v: 0.000593273507002
---
header: 
  seq: 101
  stamp: 
    secs: 1611879465
    nsecs: 936654461
  frame_id: ''
s: 8.64816825466
n: 0.014411014555
alpha: 6.416654428
v: 0.000558027241796
---
header: 
  seq: 102
  stamp: 
    secs: 1611879465
    nsecs: 946658591
  frame_id: ''
s: 8.6481677424
n: 0.0144131196395
alpha: 6.41665681621
v: 0.000515065298846
---
header: 
  seq: 103
  stamp: 
    secs: 1611879465
    nsecs: 956664318
  frame_id: ''
s: 8.64816737095
n: 0.0144144231812
alpha: 6.41665978942
v: 0.000467297164269
---
header: 
  seq: 104
  stamp: 
    secs: 1611879465
    nsecs: 966660327
  frame_id: ''
s: 8.6481671194
n: 0.0144150669509
alpha: 6.41666298599
v: 0.000417121009469
---
header: 
  seq: 105
  stamp: 
    secs: 1611879465
    nsecs: 976657320
  frame_id: ''
s: 8.6481669681
n: 0.0144151796145
alpha: 6.41666614504
v: 0.000366469981015
---
header: 
  seq: 106
  stamp: 
    secs: 1611879465
    nsecs: 986656458
  frame_id: ''
s: 8.648166899
n: 0.0144148760562
alpha: 6.4166690902
v: 0.000316861383596
---
header: 
  seq: 107
  stamp: 
    secs: 1611879465
    nsecs: 996655959
  frame_id: ''
s: 8.64816689576
n: 0.0144142572379
alpha: 6.41667171348
v: 0.000269446647564
---
header: 
  seq: 108
  stamp: 
    secs: 1611879466
    nsecs:   6668111
  frame_id: ''
s: 8.64816694383
n: 0.014413410477
alpha: 6.4166739601
v: 0.000225060471731
---
header: 
  seq: 109
  stamp: 
    secs: 1611879466
    nsecs:  16668108
  frame_id: ''
s: 8.64816703047
n: 0.0144124100436
alpha: 6.41667581503
v: 0.00018426794222
---
header: 
  seq: 110
  stamp: 
    secs: 1611879466
    nsecs:  26663122
  frame_id: ''
s: 8.64816714469
n: 0.0144113179885
alpha: 6.41667729129
v: 0.00014740877711
---
header: 
  seq: 111
  stamp: 
    secs: 1611879466
    nsecs:  36661622
  frame_id: ''
s: 8.64816727718
n: 0.0144101851286
alpha: 6.41667842036
v: 0.000114638157881
---
header: 
  seq: 112
  stamp: 
    secs: 1611879466
    nsecs:  46658517
  frame_id: ''
s: 8.64816742018
n: 0.0144090521256
alpha: 6.41667924449
v: 8.5963928274e-05
---
header: 
  seq: 113
  stamp: 
    secs: 1611879466
    nsecs:  56660446
  frame_id: ''
s: 8.64908533389
n: 0.01452813034
alpha: 6.41114715102
v: 0.0116100798293
---
header: 
  seq: 114
  stamp: 
    secs: 1611879466
    nsecs:  66669537
  frame_id: ''
s: 8.64899122971
n: 0.0143793607794
alpha: 6.41217701334
v: 0.00889292691875
---
header: 
  seq: 115
  stamp: 
    secs: 1611879466
    nsecs:  76662503
  frame_id: ''
s: 8.64887750233
n: 0.0143803469713
alpha: 6.41315028657
v: 0.00635156337321
---
header: 
  seq: 116
  stamp: 
    secs: 1611879466
    nsecs:  86660317
  frame_id: ''
s: 8.64876928109
n: 0.014381694252
alpha: 6.41402683562
v: 0.00419885039638
---
header: 
  seq: 117
  stamp: 
    secs: 1611879466
    nsecs:  96655222
  frame_id: ''
s: 8.64866836052
n: 0.0143832848039
alpha: 6.41478494613
v: 0.00240972009206
---
header: 
  seq: 118
  stamp: 
    secs: 1611879466
    nsecs: 106658724
  frame_id: ''
s: 8.64857593274
n: 0.0143850202072
alpha: 6.41541680832
v: 0.000960187598866
---
header: 
  seq: 119
  stamp: 
    secs: 1611879466
    nsecs: 116654149
  frame_id: ''
s: 8.64847670375
n: 0.0143823033264
alpha: 6.41039193714
v: 0.000489901014698
---
header: 
  seq: 120
  stamp: 
    secs: 1611879466
    nsecs: 126656586
  frame_id: ''
s: 8.64840491505
n: 0.0143846656402
alpha: 6.41181403883
v: 0.00128893629726
---
header: 
  seq: 121
  stamp: 
    secs: 1611879466
    nsecs: 136653055
  frame_id: ''
s: 8.64834249235
n: 0.0143869627891
alpha: 6.41307746573
v: 0.00190412920824
---
header: 
  seq: 122
  stamp: 
    secs: 1611879466
    nsecs: 146688844
  frame_id: ''
s: 8.64828909515
n: 0.0143891451903
alpha: 6.414156994
v: 0.00233313086079
---
header: 
  seq: 123
  stamp: 
    secs: 1611879466
    nsecs: 156662291
  frame_id: ''
s: 8.64824420691
n: 0.0143911774798
alpha: 6.41504631107
v: 0.00260281302655
---
header: 
  seq: 124
  stamp: 
    secs: 1611879466
    nsecs: 166656861
  frame_id: ''
s: 8.64819120421
n: 0.0143885197914
alpha: 6.41021976745
v: 0.0029418961262
---
header: 
  seq: 125
  stamp: 
    secs: 1611879466
    nsecs: 176659937
  frame_id: ''
s: 8.64816333123
n: 0.0143907547751
alpha: 6.41178790241
v: 0.00292191488095
---
header: 
  seq: 126
  stamp: 
    secs: 1611879466
    nsecs: 186660714
  frame_id: ''
s: 8.64814180239
n: 0.0143927830729
alpha: 6.41315286162
v: 0.00282521427074
---
header: 
  seq: 127
  stamp: 
    secs: 1611879466
    nsecs: 196663722
  frame_id: ''
s: 8.64812580827
n: 0.0143945940496
alpha: 6.41429740779
v: 0.00267143069883
---
header: 
  seq: 128
  stamp: 
    secs: 1611879466
    nsecs: 206662365
  frame_id: ''
s: 8.64811456494
n: 0.0143961854946
alpha: 6.4152228713
v: 0.00247747570917
---
header: 
  seq: 129
  stamp: 
    secs: 1611879466
    nsecs: 216657573
  frame_id: ''
s: 8.64810733022
n: 0.0143975618107
alpha: 6.41594321486
v: 0.00225764771295
---
header: 
  seq: 130
  stamp: 
    secs: 1611879466
    nsecs: 226654377
  frame_id: ''
s: 8.64810341504
n: 0.0143987324219
alpha: 6.41648021747
v: 0.00202380329641
---
header: 
  seq: 131
  stamp: 
    secs: 1611879466
    nsecs: 236659717
  frame_id: ''
s: 8.6481021909
n: 0.0143997103949
alpha: 6.41685971175
v: 0.00178556372962
---
header: 
  seq: 132
  stamp: 
    secs: 1611879466
    nsecs: 246660407
  frame_id: ''
s: 8.64810309392
n: 0.0144005112649
alpha: 6.41710876644
v: 0.00155054046194
---
header: 
  seq: 133
  stamp: 
    secs: 1611879466
    nsecs: 256666681
  frame_id: ''
s: 8.6481056262
n: 0.014401152054
alpha: 6.41725368394
v: 0.00132456792648
---
header: 
  seq: 134
  stamp: 
    secs: 1611879466
    nsecs: 266660222
  frame_id: ''
s: 8.64798460034
n: 0.0134322169008
alpha: 6.37256517877
v: 0.0123959334406
---
header: 
  seq: 135
  stamp: 
    secs: 1611879466
    nsecs: 276656723
  frame_id: ''
s: 8.64800470286
n: 0.0135534020517
alpha: 6.38089922159
v: 0.00930123804264
---
header: 
  seq: 136
  stamp: 
    secs: 1611879466
    nsecs: 286655408
  frame_id: ''
s: 8.64800892762
n: 0.0136667825346
alpha: 6.38320370112
v: 0.00674082293188
---
header: 
  seq: 137
  stamp: 
    secs: 1611879466
    nsecs: 296657091
  frame_id: ''
s: 8.648030648
n: 0.0137793970306
alpha: 6.39126326436
v: 0.00446100339084
---
header: 
  seq: 138
  stamp: 
    secs: 1611879466
    nsecs: 306698526
  frame_id: ''
s: 8.64805139186
n: 0.0138843253647
alpha: 6.39829505321
v: 0.00256814539541
---
header: 
  seq: 139
  stamp: 
    secs: 1611879466
    nsecs: 316664343
  frame_id: ''
s: 8.6480707977
n: 0.0139803493126
alpha: 6.40420430136
v: 0.001042977172
---
header: 
  seq: 140
  stamp: 
    secs: 1611879466
    nsecs: 326660733
  frame_id: ''
s: 8.64808862166
n: 0.0140667697035
alpha: 6.40899300682
v: 0.000360801538003
---
header: 
  seq: 141
  stamp: 
    secs: 1611879466
    nsecs: 336657003
  frame_id: ''
s: 8.64810471818
n: 0.0141433105713
alpha: 6.41272929402
v: 0.00121152730384
---
header: 
  seq: 142
  stamp: 
    secs: 1611879466
    nsecs: 346656267
  frame_id: ''
s: 8.64811902225
n: 0.0142100328028
alpha: 6.41552249939
v: 0.0019061601739
---
header: 
  seq: 143
  stamp: 
    secs: 1611879466
    nsecs: 356658458
  frame_id: ''
s: 8.64813153328
n: 0.0142672575819
alpha: 6.41750365959
v: 0.00239862379451
---
header: 
  seq: 144
  stamp: 
    secs: 1611879466
    nsecs: 366679864
  frame_id: ''
s: 8.64814230082
n: 0.014315499587
alpha: 6.41881086085
v: 0.00271619604977
---
header: 
  seq: 145
  stamp: 
    secs: 1611879466
    nsecs: 376658746
  frame_id: ''
s: 8.64815141202
n: 0.0143554096375
alpha: 6.41957878907
v: 0.00288801961566
---
header: 
  seq: 146
  stamp: 
    secs: 1611879466
    nsecs: 386662891
  frame_id: ''
s: 8.64815898087
n: 0.014387726289
alpha: 6.41993177831
v: 0.00294140034582
---
header: 
  seq: 147
  stamp: 
    secs: 1611879466
    nsecs: 396659403
  frame_id: ''
s: 8.64816513905
n: 0.0144132357388
alpha: 6.41997966847
v: 0.00290104770711
---
header: 
  seq: 148
  stamp: 
    secs: 1611879466
    nsecs: 406659694
  frame_id: ''
s: 8.64817002829
n: 0.0144327393127
alpha: 6.41981583295
v: 0.00278885716144
---
header: 
  seq: 149
  stamp: 
    secs: 1611879466
    nsecs: 416666973
  frame_id: ''
s: 8.64817379424
n: 0.0144470277551
alpha: 6.41951680931
v: 0.00262388949261
---
header: 
  seq: 150
  stamp: 
    secs: 1611879466
    nsecs: 426666655
  frame_id: ''
s: 8.64817658149
n: 0.0144568615277
alpha: 6.4191430495
v: 0.00242245512732
---
header: 
  seq: 151
  stamp: 
    secs: 1611879466
    nsecs: 436663139
  frame_id: ''
s: 8.64817852981
n: 0.014462956331
alpha: 6.41874039168
v: 0.00219826418313
---
header: 
  seq: 152
  stamp: 
    secs: 1611879466
    nsecs: 446660902
  frame_id: ''
s: 8.64819989337
n: 0.0143332267066
alpha: 6.41834193854
v: 0.000701225900426
---
header: 
  seq: 153
  stamp: 
    secs: 1611879466
    nsecs: 456660760
  frame_id: ''
s: 8.6481820585
n: 0.0143457917019
alpha: 6.41243744216
v: 0.000515553751991
---
header: 
  seq: 154
  stamp: 
    secs: 1611879466
    nsecs: 466660337
  frame_id: ''
s: 8.64818179314
n: 0.0143610580947
alpha: 6.41313548589
v: 0.000604684783008
---
header: 
  seq: 155
  stamp: 
    secs: 1611879466
    nsecs: 476660283
  frame_id: ''
s: 8.64818122188
n: 0.0143740500612
alpha: 6.41382449295
v: 0.000672423295004
---
header: 
  seq: 156
  stamp: 
    secs: 1611879466
    nsecs: 486665407
  frame_id: ''
s: 8.64818042863
n: 0.0143849107143
alpha: 6.41446626572
v: 0.000712942198685
---
header: 
  seq: 157
  stamp: 
    secs: 1611879466
    nsecs: 496661327
  frame_id: ''
s: 8.64817948484
n: 0.0143938108024
alpha: 6.41503746787
v: 0.000727868174341
---
header: 
  seq: 158
  stamp: 
    secs: 1611879466
    nsecs: 506659325
  frame_id: ''
s: 8.64817845028
n: 0.0144009378064
alpha: 6.41552632747
v: 0.000721033059424
---
header: 
  seq: 159
  stamp: 
    secs: 1611879466
    nsecs: 516654977
  frame_id: ''
s: 8.64817737399
n: 0.0144064869925
alpha: 6.41592969096
v: 0.000696755598407
---
header: 
  seq: 160
  stamp: 
    secs: 1611879466
    nsecs: 526655335
  frame_id: ''
s: 8.64817629525
n: 0.0144106542364
alpha: 6.41625049283
v: 0.000659207722702
---
header: 
  seq: 161
  stamp: 
    secs: 1611879466
    nsecs: 536663159
  frame_id: ''
s: 8.64817524468
n: 0.0144136304253
alpha: 6.41649566071
v: 0.000612165299676
---
header: 
  seq: 162
  stamp: 
    secs: 1611879466
    nsecs: 546663720
  frame_id: ''
s: 8.64817424534
n: 0.0144155972428
alpha: 6.41667444318
v: 0.000558916006005
---
header: 
  seq: 163
  stamp: 
    secs: 1611879466
    nsecs: 556655321
  frame_id: ''
s: 8.6481733137
n: 0.0144167241473
alpha: 6.4167971268
v: 0.000502239445425
---
header: 
  seq: 164
  stamp: 
    secs: 1611879466
    nsecs: 566671941
  frame_id: ''
s: 8.6481724607
n: 0.0144171663629
alpha: 6.41687409592
v: 0.00044442340296
---
header: 
  seq: 165
  stamp: 
    secs: 1611879466
    nsecs: 576660354
  frame_id: ''
s: 8.64817169266
n: 0.0144170637136
alpha: 6.41691518317
v: 0.000387298938444
---
header: 
  seq: 166
  stamp: 
    secs: 1611879466
    nsecs: 586666056
  frame_id: ''
s: 8.64817101211
n: 0.0144165401461
alpha: 6.4169292577
v: 0.000332285135258
---
header: 
  seq: 167
  stamp: 
    secs: 1611879466
    nsecs: 596659183
  frame_id: ''
s: 8.64817041859
n: 0.0144157038015
alpha: 6.41692400067
v: 0.000280438233762
---
header: 
  seq: 168
  stamp: 
    secs: 1611879466
    nsecs: 606661878
  frame_id: ''
s: 8.64816990931
n: 0.0144146475122
alpha: 6.41690582233
v: 0.000232502019881
---
header: 
  seq: 169
  stamp: 
    secs: 1611879466
    nsecs: 616661463
  frame_id: ''
s: 8.64816947976
n: 0.0144134496141
alpha: 6.41687988097
v: 0.00018895773197
---
header: 
  seq: 170
  stamp: 
    secs: 1611879466
    nsecs: 626656332
  frame_id: ''
s: 8.64816912419
n: 0.0144121749844
alpha: 6.41685017045
v: 0.000150072960599
---
header: 
  seq: 171
  stamp: 
    secs: 1611879466
    nsecs: 636657473
  frame_id: ''
s: 8.64816883609
n: 0.0144108762225
alpha: 6.41681964956
v: 0.000115950653522
---
header: 
  seq: 172
  stamp: 
    secs: 1611879466
    nsecs: 646662712
  frame_id: ''
s: 8.64816860849
n: 0.014409594912
alpha: 6.41679039217
v: 8.65827538041e-05
---
header: 
  seq: 173
  stamp: 
    secs: 1611879466
    nsecs: 656658366
  frame_id: ''
s: 8.6481684343
n: 0.0144083629084
alpha: 6.4167637428
v: 6.19224186514e-05
---
header: 
  seq: 174
  stamp: 
    secs: 1611879466
    nsecs: 666656976
  frame_id: ''
s: 8.6481683065
n: 0.0144072036134
alpha: 6.41674046653
v: 4.2018755271e-05
---
header: 
  seq: 175
  stamp: 
    secs: 1611879466
    nsecs: 676671899
  frame_id: ''
s: 8.64818834042
n: 0.0142733868149
alpha: 6.4167208862
v: 0.00166467403077
---
header: 
  seq: 176
  stamp: 
    secs: 1611879466
    nsecs: 686656399
  frame_id: ''
s: 8.64818577795
n: 0.0142889583156
alpha: 6.41670500264
v: 0.00125778508813
---
header: 
  seq: 177
  stamp: 
    secs: 1611879466
    nsecs: 696661363
  frame_id: ''
s: 8.64818330892
n: 0.0143041983465
alpha: 6.41669259616
v: 0.000906262008562
---
header: 
  seq: 178
  stamp: 
    secs: 1611879466
    nsecs: 706666736
  frame_id: ''
s: 8.64818098143
n: 0.0143187555467
alpha: 6.41668330924
v: 0.000607618747219
---
header: 
  seq: 179
  stamp: 
    secs: 1611879466
    nsecs: 716655708
  frame_id: ''
s: 8.64817882894
n: 0.0143323756804
alpha: 6.41667671126
v: 0.000358473162234
---
header: 
  seq: 180
  stamp: 
    secs: 1611879466
    nsecs: 726657536
  frame_id: ''
s: 8.64817687258
n: 0.0143448871435
alpha: 6.41667234721
v: 0.000154968249929
---
header: 
  seq: 181
  stamp: 
    secs: 1611879466
    nsecs: 736662305
  frame_id: ''
s: 8.64817512333
n: 0.0143561873864
alpha: 6.41666977252
v: 1.60441368252e-05
---
header: 
  seq: 182
  stamp: 
    secs: 1611879466
    nsecs: 746657087
  frame_id: ''
s: 8.64819370603
n: 0.0142334840428
alpha: 6.41666857623
v: 0.0015499447798
---
header: 
  seq: 183
  stamp: 
    secs: 1611879466
    nsecs: 756663663
  frame_id: ''
s: 8.64818986518
n: 0.0142588121137
alpha: 6.41666839485
v: 0.0010339565937
---
header: 
  seq: 184
  stamp: 
    secs: 1611879466
    nsecs: 766658392
  frame_id: ''
s: 8.64818628789
n: 0.0142824812704
alpha: 6.41666891911
v: 0.000603810346939
---
header: 
  seq: 185
  stamp: 
    secs: 1611879466
    nsecs: 776677570
  frame_id: ''
s: 8.64818301535
n: 0.0143042000706
alpha: 6.41666989521
v: 0.000252454836859
---
header: 
  seq: 186
  stamp: 
    secs: 1611879466
    nsecs: 786658346
  frame_id: ''
s: 8.64818007109
n: 0.0143237962307
alpha: 6.41667112249
v: 2.87398164508e-05
---
header: 
  seq: 187
  stamp: 
    secs: 1611879466
    nsecs: 796661001
  frame_id: ''
s: 8.64817746428
n: 0.0143411949511
alpha: 6.41667244862
v: 0.000245336710896
---
header: 
  seq: 188
  stamp: 
    secs: 1611879466
    nsecs: 806694125
  frame_id: ''
s: 8.64817519263
n: 0.014356399338
alpha: 6.41667376342
v: 0.000407446277195
---
header: 
  seq: 189
  stamp: 
    secs: 1611879466
    nsecs: 816662752
  frame_id: ''
s: 8.648173245
n: 0.014369473004
alpha: 6.41667499213
v: 0.000522183622826
---
header: 
  seq: 190
  stamp: 
    secs: 1611879466
    nsecs: 826662695
  frame_id: ''
s: 8.64804684901
n: 0.0134110912832
alpha: 6.37192259246
v: 0.0116942519738
---
header: 
  seq: 191
  stamp: 
    secs: 1611879466
    nsecs: 836655725
  frame_id: ''
s: 8.64806103876
n: 0.0135410737663
alpha: 6.38025117495
v: 0.00858685664009
---
header: 
  seq: 192
  stamp: 
    secs: 1611879466
    nsecs: 846653815
  frame_id: ''
s: 8.64807507795
n: 0.0136661569375
alpha: 6.38812318354
v: 0.00593100632117
---
header: 
  seq: 193
  stamp: 
    secs: 1611879466
    nsecs: 856655724
  frame_id: ''
s: 8.64808860851
n: 0.0137839411679
alpha: 6.39521364237
v: 0.00370085280158
---
header: 
  seq: 194
  stamp: 
    secs: 1611879466
    nsecs: 866679908
  frame_id: ''
s: 8.64810136611
n: 0.0138927636494
alpha: 6.40134663204
v: 0.0018655994128
---
header: 
  seq: 195
  stamp: 
    secs: 1611879466
    nsecs: 876656870
  frame_id: ''
s: 8.64811316675
n: 0.0139915810261
alpha: 6.40645875852
v: 0.000408811316834
---
header: 
  seq: 196
  stamp: 
    secs: 1611879466
    nsecs: 886659213
  frame_id: ''
s: 8.64810790962
n: 0.0140753442849
alpha: 6.40503478032
v: 0.000783475734333
---
header: 
  seq: 197
  stamp: 
    secs: 1611879466
    nsecs: 896657429
  frame_id: ''
s: 8.64811949479
n: 0.0141535291167
alpha: 6.40924122827
v: 0.0016327563324
---
header: 
  seq: 198
  stamp: 
    secs: 1611879466
    nsecs: 906653991
  frame_id: ''
s: 8.6481138936
n: 0.0142167284498
alpha: 6.407031451
v: 0.00222357265677
---
header: 
  seq: 199
  stamp: 
    secs: 1611879466
    nsecs: 916661492
  frame_id: ''
s: 8.64812504429
n: 0.0142749762246
alpha: 6.4105809842
v: 0.00267215734943
---
header: 
  seq: 200
  stamp: 
    secs: 1611879466
    nsecs: 926665363
  frame_id: ''
s: 8.64813493475
n: 0.0143237986256
alpha: 6.41337432271
v: 0.00295298660269
---
header: 
  seq: 201
  stamp: 
    secs: 1611879466
    nsecs: 936659377
  frame_id: ''
s: 8.64812758487
n: 0.0143594120961
alpha: 6.40995089242
v: 0.00302641146521
---
header: 
  seq: 202
  stamp: 
    secs: 1611879466
    nsecs: 946660835
  frame_id: ''
s: 8.64813699364
n: 0.0143922251042
alpha: 6.4124956253
v: 0.00306182349313
---
header: 
  seq: 203
  stamp: 
    secs: 1611879466
    nsecs: 956660043
  frame_id: ''
s: 8.64816531812
n: 0.0142852487559
alpha: 6.41448700644
v: 0.00141756021019
---
header: 
  seq: 204
  stamp: 
    secs: 1611879466
    nsecs: 966659875
  frame_id: ''
s: 8.64816984586
n: 0.0143213652061
alpha: 6.41598092277
v: 0.00168804748097
---
header: 
  seq: 205
  stamp: 
    secs: 1611879466
    nsecs: 976662057
  frame_id: ''
s: 8.64817333573
n: 0.0143516807506
alpha: 6.4170452714
v: 0.0018545441505
---
header: 
  seq: 206
  stamp: 
    secs: 1611879466
    nsecs: 986665807
  frame_id: ''
s: 8.64817592105
n: 0.0143766390531
alpha: 6.41775212664
v: 0.00193373598746
---
header: 
  seq: 207
  stamp: 
    secs: 1611879466
    nsecs: 996662707
  frame_id: ''
s: 8.64817773073
n: 0.0143967345891
alpha: 6.41817212876
v: 0.0019421442828
---
header: 
  seq: 208
  stamp: 
    secs: 1611879467
    nsecs:   6660267
  frame_id: ''
s: 8.64819900874
n: 0.0142797411785
alpha: 6.41837072784
v: 0.000651520248161
---
header: 
  seq: 209
  stamp: 
    secs: 1611879467
    nsecs:  16659764
  frame_id: ''
s: 8.64819711636
n: 0.0143082202324
alpha: 6.41840592151
v: 0.000739908981265
---
header: 
  seq: 210
  stamp: 
    secs: 1611879467
    nsecs:  26666471
  frame_id: ''
s: 8.6481948523
n: 0.0143329622149
alpha: 6.4183271502
v: 0.000880676841588
---
header: 
  seq: 211
  stamp: 
    secs: 1611879467
    nsecs:  36665812
  frame_id: ''
s: 8.6481923623
n: 0.0143541075879
alpha: 6.41817505062
v: 0.000999372317953
---
header: 
  seq: 212
  stamp: 
    secs: 1611879467
    nsecs:  46656458
  frame_id: ''
s: 8.64818976601
n: 0.0143718659029
alpha: 6.41798181144
v: 0.00107752298866
---
header: 
  seq: 213
  stamp: 
    secs: 1611879467
    nsecs:  56660401
  frame_id: ''
s: 8.64818715947
n: 0.0143864946034
alpha: 6.41777192011
v: 0.00111475834402
---
header: 
  seq: 214
  stamp: 
    secs: 1611879467
    nsecs:  66659965
  frame_id: ''
s: 8.64818461764
n: 0.0143982812026
alpha: 6.41756313295
v: 0.00111614278173
---
header: 
  seq: 215
  stamp: 
    secs: 1611879467
    nsecs:  76660457
  frame_id: ''
s: 8.64818219702
n: 0.0144075285822
alpha: 6.41736754024
v: 0.00108819372495
---
header: 
  seq: 216
  stamp: 
    secs: 1611879467
    nsecs:  86667807
  frame_id: ''
s: 8.64816395385
n: 0.0144100265831
alpha: 6.41165997329
v: 0.000990161740541
---
header: 
  seq: 217
  stamp: 
    secs: 1611879467
    nsecs:  96663514
  frame_id: ''
s: 8.64816387583
n: 0.0144156717261
alpha: 6.41253915393
v: 0.000936163559288
---
header: 
  seq: 218
  stamp: 
    secs: 1611879467
    nsecs: 106661165
  frame_id: ''
s: 8.64816394997
n: 0.0144196574535
alpha: 6.413387695
v: 0.000868131386868
---
header: 
  seq: 219
  stamp: 
    secs: 1611879467
    nsecs: 116659248
  frame_id: ''
s: 8.64816414038
n: 0.0144222413771
alpha: 6.41416470802
v: 0.000791063219332
---
header: 
  seq: 220
  stamp: 
    secs: 1611879467
    nsecs: 126655666
  frame_id: ''
s: 8.64816441591
n: 0.0144236629542
alpha: 6.4148464618
v: 0.000709105082522
---
header: 
  seq: 221
  stamp: 
    secs: 1611879467
    nsecs: 136661139
  frame_id: ''
s: 8.64814876561
n: 0.0144196242971
alpha: 6.4098897252
v: 0.000624993859082
---
header: 
  seq: 222
  stamp: 
    secs: 1611879467
    nsecs: 146666516
  frame_id: ''
s: 8.64815112784
n: 0.0144199177411
alpha: 6.41138839162
v: 0.000538018130995
---
header: 
  seq: 223
  stamp: 
    secs: 1611879467
    nsecs: 156658197
  frame_id: ''
s: 8.64815345546
n: 0.0144196226494
alpha: 6.4127295932
v: 0.000456764387786
---
header: 
  seq: 224
  stamp: 
    secs: 1611879467
    nsecs: 166655096
  frame_id: ''
s: 8.64815569124
n: 0.0144188780404
alpha: 6.41388309106
v: 0.000382212486867
---
header: 
  seq: 225
  stamp: 
    secs: 1611879467
    nsecs: 176657801
  frame_id: ''
s: 8.64803303853
n: 0.0134483710102
alpha: 6.37008586973
v: 0.0119685036254
---
header: 
  seq: 226
  stamp: 
    secs: 1611879467
    nsecs: 186652025
  frame_id: ''
s: 8.64803454051
n: 0.013563366536
alpha: 6.37364513634
v: 0.00903596535852
---
header: 
  seq: 227
  stamp: 
    secs: 1611879467
    nsecs: 196663615
  frame_id: ''
s: 8.64805342888
n: 0.0136801212924
alpha: 6.38313318773
v: 0.0064177380427
---
header: 
  seq: 228
  stamp: 
    secs: 1611879467
    nsecs: 206666697
  frame_id: ''
s: 8.64807133476
n: 0.0137910384654
alpha: 6.39162727902
v: 0.00420238059833
---
header: 
  seq: 229
  stamp: 
    secs: 1611879467
    nsecs: 216659156
  frame_id: ''
s: 8.64808797711
n: 0.0138943220056
alpha: 6.39893486208
v: 0.00236215939399
---
header: 
  seq: 230
  stamp: 
    secs: 1611879467
    nsecs: 226659511
  frame_id: ''
s: 8.6481031726
n: 0.013988787886
alpha: 6.40499480381
v: 0.000865103689249
---
header: 
  seq: 231
  stamp: 
    secs: 1611879467
    nsecs: 236657402
  frame_id: ''
s: 8.64811681897
n: 0.0140737611152
alpha: 6.40983958063
v: 0.00032413637865
---
header: 
  seq: 232
  stamp: 
    secs: 1611879467
    nsecs: 246655774
  frame_id: ''
s: 8.6481288799
n: 0.01414898144
alpha: 6.4135638198
v: 0.00123919597975
---
header: 
  seq: 233
  stamp: 
    secs: 1611879467
    nsecs: 256659820
  frame_id: ''
s: 8.64813937136
n: 0.0142145184372
alpha: 6.41629905996
v: 0.0019165790787
---
header: 
  seq: 234
  stamp: 
    secs: 1611879467
    nsecs: 266663403
  frame_id: ''
s: 8.64814834954
n: 0.0142706962758
alpha: 6.41819427308
v: 0.0023899975454
---
header: 
  seq: 235
  stamp: 
    secs: 1611879467
    nsecs: 276658699
  frame_id: ''
s: 8.64815590034
n: 0.0143180280991
alpha: 6.41940149102
v: 0.00269156111206
---
header: 
  seq: 236
  stamp: 
    secs: 1611879467
    nsecs: 286656673
  frame_id: ''
s: 8.64814614603
n: 0.0143526431711
alpha: 6.41453312343
v: 0.00276928576019
---
header: 
  seq: 237
  stamp: 
    secs: 1611879467
    nsecs: 296654865
  frame_id: ''
s: 8.64802841235
n: 0.013415434863
alpha: 6.3710621601
v: 0.00943376042103
---
header: 
  seq: 238
  stamp: 
    secs: 1611879467
    nsecs: 306658098
  frame_id: ''
s: 8.64792509888
n: 0.0125923307414
alpha: 6.33556578564
v: 0.0186603510436
---
header: 
  seq: 239
  stamp: 
    secs: 1611879467
    nsecs: 316660283
  frame_id: ''
s: 8.64796063702
n: 0.0128503624742
alpha: 6.35239706191
v: 0.0130499512025
---
header: 
  seq: 240
  stamp: 
    secs: 1611879467
    nsecs: 326684233
  frame_id: ''
s: 8.64799408045
n: 0.0130943017736
alpha: 6.36774947937
v: 0.00832247975873
---
header: 
  seq: 241
  stamp: 
    secs: 1611879467
    nsecs: 336667719
  frame_id: ''
s: 8.648024962
n: 0.013320477248
alpha: 6.38117483784
v: 0.00441370423752
---
header: 
  seq: 242
  stamp: 
    secs: 1611879467
    nsecs: 346671560
  frame_id: ''
s: 8.64805298974
n: 0.0135265287981
alpha: 6.39248110181
v: 0.00125188477772
---
header: 
  seq: 243
  stamp: 
    secs: 1611879467
    nsecs: 356663885
  frame_id: ''
s: 8.64807801621
n: 0.0137111820309
alpha: 6.40166304813
v: 0.00124790657982
---
header: 
  seq: 244
  stamp: 
    secs: 1611879467
    nsecs: 366660707
  frame_id: ''
s: 8.64810001043
n: 0.0138740425276
alpha: 6.40884365769
v: 0.00315254349552
---
header: 
  seq: 245
  stamp: 
    secs: 1611879467
    nsecs: 376660822
  frame_id: ''
s: 8.6481030485
n: 0.0140108947406
alpha: 6.40869369428
v: 0.00446561374916
---
header: 
  seq: 246
  stamp: 
    secs: 1611879467
    nsecs: 386658636
  frame_id: ''
s: 8.64810523666
n: 0.0141276515556
alpha: 6.40802169994
v: 0.00536689544715
---
header: 
  seq: 247
  stamp: 
    secs: 1611879467
    nsecs: 396662334
  frame_id: ''
s: 8.64814280919
n: 0.0140972927056
alpha: 6.4125650141
v: 0.00438008654824
---
header: 
  seq: 248
  stamp: 
    secs: 1611879467
    nsecs: 406667131
  frame_id: ''
s: 8.64815515756
n: 0.0141982419598
alpha: 6.41592050187
v: 0.00510416401339
---
header: 
  seq: 249
  stamp: 
    secs: 1611879467
    nsecs: 416662291
  frame_id: ''
s: 8.64816513974
n: 0.0142824164034
alpha: 6.41826289282
v: 0.00552590022199
---
header: 
  seq: 250
  stamp: 
    secs: 1611879467
    nsecs: 426659867
  frame_id: ''
s: 8.64817300316
n: 0.0143511963568
alpha: 6.4197721633
v: 0.00570023155802
---
header: 
  seq: 251
  stamp: 
    secs: 1611879467
    nsecs: 436660813
  frame_id: ''
s: 8.64817899939
n: 0.0144060847252
alpha: 6.42062115949
v: 0.00567708203573
---
header: 
  seq: 252
  stamp: 
    secs: 1611879467
    nsecs: 446659322
  frame_id: ''
s: 8.64818337612
n: 0.0144486378438
alpha: 6.42096754889
v: 0.0055008920547
---
header: 
  seq: 253
  stamp: 
    secs: 1611879467
    nsecs: 456666293
  frame_id: ''
s: 8.64818637121
n: 0.0144804101992
alpha: 6.42094921452
v: 0.00521053749212
---
header: 
  seq: 254
  stamp: 
    secs: 1611879467
    nsecs: 466666860
  frame_id: ''
s: 8.64818820815
n: 0.0145029114886
alpha: 6.42068228038
v: 0.00483945938487
---
header: 
  seq: 255
  stamp: 
    secs: 1611879467
    nsecs: 476665934
  frame_id: ''
s: 8.64817310874
n: 0.0145130579222
alpha: 6.41472839631
v: 0.00433682623473
---
header: 
  seq: 256
  stamp: 
    secs: 1611879467
    nsecs: 486661619
  frame_id: ''
s: 8.64817522055
n: 0.0145217784083
alpha: 6.41525614485
v: 0.00390401367968
---
header: 
  seq: 257
  stamp: 
    secs: 1611879467
    nsecs: 496661431
  frame_id: ''
s: 8.64817668148
n: 0.014525196889
alpha: 6.41570222812
v: 0.00345856519392
---
header: 
  seq: 258
  stamp: 
    secs: 1611879467
    nsecs: 506660384
  frame_id: ''
s: 8.64817759543
n: 0.0145243962795
alpha: 6.41606582736
v: 0.00301570413598
---
header: 
  seq: 259
  stamp: 
    secs: 1611879467
    nsecs: 516667135
  frame_id: ''
s: 8.64817805847
n: 0.0145203365058
alpha: 6.41635129605
v: 0.00258720182986
---
header: 
  seq: 260
  stamp: 
    secs: 1611879467
    nsecs: 526663078
  frame_id: ''
s: 8.64819827997
n: 0.0143811086802
alpha: 6.41656626924
v: 0.000707487475425
---
header: 
  seq: 261
  stamp: 
    secs: 1611879467
    nsecs: 536662437
  frame_id: ''
s: 8.64819558618
n: 0.0143894674241
alpha: 6.41672017374
v: 0.000676432047796
---
header: 
  seq: 262
  stamp: 
    secs: 1611879467
    nsecs: 546660095
  frame_id: ''
s: 8.64819274148
n: 0.0143962945161
alpha: 6.41682310134
v: 0.000644150028882
---
header: 
  seq: 263
  stamp: 
    secs: 1611879467
    nsecs: 556659836
  frame_id: ''
s: 8.64818985875
n: 0.0144017399337
alpha: 6.41688499794
v: 0.000608600685537
---
header: 
  seq: 264
  stamp: 
    secs: 1611879467
    nsecs: 566669421
  frame_id: ''
s: 8.64818702683
n: 0.014405958858
alpha: 6.41691511696
v: 0.000569371976501
---
header: 
  seq: 265
  stamp: 
    secs: 1611879467
    nsecs: 576665959
  frame_id: ''
s: 8.6481843134
n: 0.0144091061898
alpha: 6.41692168652
v: 0.000526963888317
---
header: 
  seq: 266
  stamp: 
    secs: 1611879467
    nsecs: 586662133
  frame_id: ''
s: 8.64818176781
n: 0.0144113322921
alpha: 6.4169117426
v: 0.000482319975494
---
header: 
  seq: 267
  stamp: 
    secs: 1611879467
    nsecs: 596661914
  frame_id: ''
s: 8.64817942375
n: 0.0144127798046
alpha: 6.41689108587
v: 0.000436539869966
---
header: 
  seq: 268
  stamp: 
    secs: 1611879467
    nsecs: 606660995
  frame_id: ''
s: 8.64817730182
n: 0.0144135813822
alpha: 6.4168643257
v: 0.000390711229974
---
header: 
  seq: 269
  stamp: 
    secs: 1611879467
    nsecs: 616658846
  frame_id: ''
s: 8.64817541181
n: 0.0144138582148
alpha: 6.41683498134
v: 0.000345817441584
---
header: 
  seq: 270
  stamp: 
    secs: 1611879467
    nsecs: 626676514
  frame_id: ''
s: 8.64814215816
n: 0.0145259211775
alpha: 6.4112729563
v: 0.00176297575373
---
header: 
  seq: 271
  stamp: 
    secs: 1611879467
    nsecs: 636663349
  frame_id: ''
s: 8.64814466638
n: 0.0145114799191
alpha: 6.4122748324
v: 0.00135842084834
---
header: 
  seq: 272
  stamp: 
    secs: 1611879467
    nsecs: 646661613
  frame_id: ''
s: 8.64814728774
n: 0.0144971710436
alpha: 6.41322311852
v: 0.00100606525761
---
header: 
  seq: 273
  stamp: 
    secs: 1611879467
    nsecs: 656660923
  frame_id: ''
s: 8.64814992399
n: 0.0144833641859
alpha: 6.41407822226
v: 0.000704228421431
---
header: 
  seq: 274
  stamp: 
    secs: 1611879467
    nsecs: 666660108
  frame_id: ''
s: 8.64815249831
n: 0.0144703328375
alpha: 6.41481858982
v: 0.000450327146701
---
header: 
  seq: 275
  stamp: 
    secs: 1611879467
    nsecs: 676665161
  frame_id: ''
s: 8.64815495265
n: 0.0144582680844
alpha: 6.41543630076
v: 0.000241550946259
---
header: 
  seq: 276
  stamp: 
    secs: 1611879467
    nsecs: 686666905
  frame_id: ''
s: 8.64815724525
n: 0.0144472915912
alpha: 6.41593323999
v: 7.94931746094e-05
---
header: 
  seq: 277
  stamp: 
    secs: 1611879467
    nsecs: 696665357
  frame_id: ''
s: 8.64814336374
n: 0.0144329510879
alpha: 6.41078523322
v: 0.000260043330952
---
header: 
  seq: 278
  stamp: 
    secs: 1611879467
    nsecs: 706656558
  frame_id: ''
s: 8.64813126799
n: 0.0144203438271
alpha: 6.40656694515
v: 0.000442451179128
---
header: 
  seq: 279
  stamp: 
    secs: 1611879467
    nsecs: 716660054
  frame_id: ''
s: 8.64896146244
n: 0.0134524967203
alpha: 6.36401561687
v: 0.0159903426822
---
header: 
  seq: 280
  stamp: 
    secs: 1611879467
    nsecs: 726655122
  frame_id: ''
s: 8.65062989393
n: 0.0135628409899
alpha: 6.32956862928
v: 0.0312451646068
---
header: 
  seq: 281
  stamp: 
    secs: 1611879467
    nsecs: 736661916
  frame_id: ''
s: 8.6520725547
n: 0.0146208562004
alpha: 6.3027221076
v: 0.0444343081221
---
header: 
  seq: 282
  stamp: 
    secs: 1611879467
    nsecs: 746659746
  frame_id: ''
s: 8.65318157616
n: 0.0145868071595
alpha: 6.32743179305
v: 0.0526762987915
---
header: 
  seq: 283
  stamp: 
    secs: 1611879467
    nsecs: 756659099
  frame_id: ''
s: 8.65422193609
n: 0.0147049584775
alpha: 6.34966512695
v: 0.0591983084874
---
header: 
  seq: 284
  stamp: 
    secs: 1611879467
    nsecs: 766658290
  frame_id: ''
s: 8.65523422968
n: 0.0146918814608
alpha: 6.36887858041
v: 0.0644265254322
---
header: 
  seq: 285
  stamp: 
    secs: 1611879467
    nsecs: 776660034
  frame_id: ''
s: 8.6560468067
n: 0.0146710755808
alpha: 6.37934730066
v: 0.066506950633
---
header: 
  seq: 286
  stamp: 
    secs: 1611879467
    nsecs: 786659143
  frame_id: ''
s: 8.6583244328
n: 0.0147618185921
alpha: 6.39322589694
v: 0.0867653091067
---
header: 
  seq: 287
  stamp: 
    secs: 1611879467
    nsecs: 796665799
  frame_id: ''
s: 8.66025338809
n: 0.014837956228
alpha: 6.40412450575
v: 0.100102456267
---
header: 
  seq: 288
  stamp: 
    secs: 1611879467
    nsecs: 806657979
  frame_id: ''
s: 8.66201819283
n: 0.0138386312941
alpha: 6.36758021444
v: 0.109932667283
---
header: 
  seq: 289
  stamp: 
    secs: 1611879467
    nsecs: 816658176
  frame_id: ''
s: 8.66359021448
n: 0.0139288503598
alpha: 6.38178681423
v: 0.115747068129
---
header: 
  seq: 290
  stamp: 
    secs: 1611879467
    nsecs: 826656658
  frame_id: ''
s: 8.66473460009
n: 0.013046763106
alpha: 6.34883796573
v: 0.116622503039
---
header: 
  seq: 291
  stamp: 
    secs: 1611879467
    nsecs: 836653314
  frame_id: ''
s: 8.66656492223
n: 0.0132381277804
alpha: 6.36662260027
v: 0.124507472017
---
header: 
  seq: 292
  stamp: 
    secs: 1611879467
    nsecs: 846660267
  frame_id: ''
s: 8.6689958379
n: 0.0143791951447
alpha: 6.33702670667
v: 0.138918861839
---
header: 
  seq: 293
  stamp: 
    secs: 1611879467
    nsecs: 856659721
  frame_id: ''
s: 8.67101081169
n: 0.0144405933739
alpha: 6.35781045212
v: 0.146783743661
---
header: 
  seq: 294
  stamp: 
    secs: 1611879467
    nsecs: 866656062
  frame_id: ''
s: 8.67279201495
n: 0.0143780793459
alpha: 6.37554624932
v: 0.150693062737
---
header: 
  seq: 295
  stamp: 
    secs: 1611879467
    nsecs: 876655319
  frame_id: ''
s: 0.0
n: 0.0145567843734
alpha: -6.18176447757
v: 0.159397796248
---
header: 
  seq: 296
  stamp: 
    secs: 1611879467
    nsecs: 886654954
  frame_id: ''
s: 0.0
n: 0.015551167281
alpha: -6.2139171735
v: 0.174417338804
---
header: 
  seq: 297
  stamp: 
    secs: 1611879467
    nsecs: 896679657
  frame_id: ''
s: 0.0
n: 0.0164171223983
alpha: -6.24055637675
v: 0.181687056228
---
header: 
  seq: 298
  stamp: 
    secs: 1611879467
    nsecs: 906662669
  frame_id: ''
s: 0.0
n: 0.0162298137553
alpha: -6.21708047804
v: 0.182624157759
---
header: 
  seq: 299
  stamp: 
    secs: 1611879467
    nsecs: 916661149
  frame_id: ''
s: 0.0
n: 0.0162548290102
alpha: -6.20252667655
v: 0.198845062735
---
header: 
  seq: 300
  stamp: 
    secs: 1611879467
    nsecs: 926659313
  frame_id: ''
s: 0.0
n: 0.0169889091406
alpha: -6.22968128931
v: 0.208596730466
---
header: 
  seq: 301
  stamp: 
    secs: 1611879467
    nsecs: 936654859
  frame_id: ''
s: 0.0
n: 0.0176143136486
alpha: -6.25195962488
v: 0.210481233935
---
header: 
  seq: 302
  stamp: 
    secs: 1611879467
    nsecs: 946654846
  frame_id: ''
s: 0.0
n: 0.0181537066238
alpha: -6.26957239583
v: 0.229737753751
---
header: 
  seq: 303
  stamp: 
    secs: 1611879467
    nsecs: 956661322
  frame_id: ''
s: 0.0
n: 0.0185972065737
alpha: -6.28294180923
v: 0.238308302338
---
header: 
  seq: 304
  stamp: 
    secs: 1611879467
    nsecs: 966661706
  frame_id: ''
s: 0.0
n: 0.0189537549916
alpha: -6.29260970946
v: 0.238328382866
---
header: 
  seq: 305
  stamp: 
    secs: 1611879467
    nsecs: 976660486
  frame_id: ''
s: 0.0
n: 0.0192486862878
alpha: -6.29916756481
v: 0.255325704322
---
header: 
  seq: 306
  stamp: 
    secs: 1611879467
    nsecs: 986658466
  frame_id: ''
s: 0.0
n: 0.0194735155462
alpha: -6.30320557951
v: 0.261447713092
---
header: 
  seq: 307
  stamp: 
    secs: 1611879467
    nsecs: 996653109
  frame_id: ''
s: 0.0
n: 0.0196455287097
alpha: -6.30527793092
v: 0.270777562974
---
header: 
  seq: 308
  stamp: 
    secs: 1611879468
    nsecs:   6656263
  frame_id: ''
s: 0.0
n: 0.0197726669104
alpha: -6.3058811169
v: 0.282367426996
---
header: 
  seq: 309
  stamp: 
    secs: 1611879468
    nsecs:  16661836
  frame_id: ''
s: 0.0
n: 0.0198543805362
alpha: -6.30544256868
v: 0.283535472893
---
header: 
  seq: 310
  stamp: 
    secs: 1611879468
    nsecs:  26658440
  frame_id: ''
s: 0.0
n: 0.0198984853033
alpha: -6.3043169697
v: 0.276553482496
---
header: 
  seq: 311
  stamp: 
    secs: 1611879468
    nsecs:  36656941
  frame_id: ''
s: 0.0
n: 0.0199280639271
alpha: -6.30278806953
v: 0.287198436864
---
header: 
  seq: 312
  stamp: 
    secs: 1611879468
    nsecs:  46656353
  frame_id: ''
s: 0.0
n: 0.0199315668851
alpha: -6.30107415155
v: 0.287494592484
---
header: 
  seq: 313
  stamp: 
    secs: 1611879468
    nsecs:  56654500
  frame_id: ''
s: 0.0
n: 0.0199306462257
alpha: -6.29933567633
v: 0.303527040665
---
header: 
  seq: 314
  stamp: 
    secs: 1611879468
    nsecs:  66675571
  frame_id: ''
s: 0.0
n: 0.0199123579481
alpha: -6.2976839591
v: 0.307554021636
---
header: 
  seq: 315
  stamp: 
    secs: 1611879468
    nsecs:  76664997
  frame_id: ''
s: 0.0
n: 0.0198890491544
alpha: -6.29619003832
v: 0.314030928001
---
header: 
  seq: 316
  stamp: 
    secs: 1611879468
    nsecs:  86656435
  frame_id: ''
s: 0.0
n: 0.019863486732
alpha: -6.29489314656
v: 0.322232853344
---
header: 
  seq: 317
  stamp: 
    secs: 1611879468
    nsecs:  96659710
  frame_id: ''
s: 0.0317327898744
n: 0.0198299080355
alpha: -6.29380840463
v: 0.319634292059
---
header: 
  seq: 318
  stamp: 
    secs: 1611879468
    nsecs: 106655705
  frame_id: ''
s: 0.035958398853
n: 0.0198069859731
alpha: -6.29293352545
v: 0.332530913538
---
header: 
  seq: 319
  stamp: 
    secs: 1611879468
    nsecs: 116654083
  frame_id: ''
s: 0.0393455241557
n: 0.0197790388841
alpha: -6.29225444065
v: 0.33329293464
---
header: 
  seq: 320
  stamp: 
    secs: 1611879468
    nsecs: 126667478
  frame_id: ''
s: 0.0429353712423
n: 0.019755940377
alpha: -6.29174985447
v: 0.336507609485
---
header: 
  seq: 321
  stamp: 
    secs: 1611879468
    nsecs: 136659727
  frame_id: ''
s: 0.0467019111528
n: 0.0197382582888
alpha: -6.29139479189
v: 0.341539491177
---
header: 
  seq: 322
  stamp: 
    secs: 1611879468
    nsecs: 146660026
  frame_id: ''
s: 0.0515693049296
n: 0.0197342607161
alpha: -6.29116324698
v: 0.359757856558
---
header: 
  seq: 323
  stamp: 
    secs: 1611879468
    nsecs: 156657409
  frame_id: ''
s: 0.0554967753488
n: 0.0197270653426
alpha: -6.29103005733
v: 0.363895405348
---
header: 
  seq: 324
  stamp: 
    secs: 1611879468
    nsecs: 166654355
  frame_id: ''
s: 0.0604823344707
n: 0.0197335384855
alpha: -6.29097213706
v: 0.380793718652
---
header: 
  seq: 325
  stamp: 
    secs: 1611879468
    nsecs: 176654372
  frame_id: ''
s: 0.0644914132069
n: 0.0197365093707
alpha: -6.29096919727
v: 0.383317230654
---
header: 
  seq: 326
  stamp: 
    secs: 1611879468
    nsecs: 186670372
  frame_id: ''
s: 0.0685785382971
n: 0.019744650947
alpha: -6.29100407258
v: 0.386504005744
---
header: 
  seq: 327
  stamp: 
    secs: 1611879468
    nsecs: 196667049
  frame_id: ''
s: 0.0727315187251
n: 0.0197575882289
alpha: -6.29106275863
v: 0.390117675719
---
header: 
  seq: 328
  stamp: 
    secs: 1611879468
    nsecs: 206661659
  frame_id: ''
s: 0.0759897026828
n: 0.0197669183129
alpha: -6.29113424941
v: 0.38204848632
---
header: 
  seq: 329
  stamp: 
    secs: 1611879468
    nsecs: 216656324
  frame_id: ''
s: 0.0803597392359
n: 0.0197891376241
alpha: -6.2912102473
v: 0.388945822348
---
header: 
  seq: 330
  stamp: 
    secs: 1611879468
    nsecs: 226681181
  frame_id: ''
s: 0.0857109442437
n: 0.0198227644389
alpha: -6.29128480321
v: 0.407291360201
---
header: 
  seq: 331
  stamp: 
    secs: 1611879468
    nsecs: 236655439
  frame_id: ''
s: 0.0900156450758
n: 0.0198503731652
alpha: -6.29135393023
v: 0.410201254796
---
header: 
  seq: 332
  stamp: 
    secs: 1611879468
    nsecs: 246664985
  frame_id: ''
s: 0.0952850185708
n: 0.0198884862293
alpha: -6.29141522236
v: 0.424852734216
---
header: 
  seq: 333
  stamp: 
    secs: 1611879468
    nsecs: 256686415
  frame_id: ''
s: 0.0994973400819
n: 0.0199197536325
alpha: -6.29146749917
v: 0.424399741934
---
header: 
  seq: 334
  stamp: 
    secs: 1611879468
    nsecs: 266660484
  frame_id: ''
s: 0.104668706789
n: 0.0199607796753
alpha: -6.29151048965
v: 0.436039728524
---
header: 
  seq: 335
  stamp: 
    secs: 1611879468
    nsecs: 276660759
  frame_id: ''
s: 0.108781377893
n: 0.0199942988348
alpha: -6.29154456148
v: 0.432932493698
---
header: 
  seq: 336
  stamp: 
    secs: 1611879468
    nsecs: 286659231
  frame_id: ''
s: 0.113854594938
n: 0.020036999555
alpha: -6.29157049772
v: 0.442270147231
---
header: 
  seq: 337
  stamp: 
    secs: 1611879468
    nsecs: 296666219
  frame_id: ''
s: 0.117873020873
n: 0.0200716978515
alpha: -6.29158931912
v: 0.437198460377
---
header: 
  seq: 338
  stamp: 
    secs: 1611879468
    nsecs: 306662820
  frame_id: ''
s: 0.12285765792
n: 0.0201151594067
alpha: -6.29160214838
v: 0.444889262402
---
header: 
  seq: 339
  stamp: 
    secs: 1611879468
    nsecs: 316658316
  frame_id: ''
s: 0.12869304716
n: 0.0201662269849
alpha: -6.29161011107
v: 0.462291902222
---
header: 
  seq: 340
  stamp: 
    secs: 1611879468
    nsecs: 326656945
  frame_id: ''
s: 0.133366994844
n: 0.0202078333899
alpha: -6.2916142677
v: 0.462934554583
---
header: 
  seq: 341
  stamp: 
    secs: 1611879468
    nsecs: 336681896
  frame_id: ''
s: 0.138905922298
n: 0.020256875821
alpha: -6.29161557106
v: 0.474352079843
---
header: 
  seq: 342
  stamp: 
    secs: 1611879468
    nsecs: 346660258
  frame_id: ''
s: 0.143447618481
n: 0.0211330757614
alpha: -6.24686134715
v: 0.472020935662
---
header: 
  seq: 343
  stamp: 
    secs: 1611879468
    nsecs: 356658897
  frame_id: ''
s: 0.148726273684
n: 0.0218923418588
alpha: -6.2104334126
v: 0.47934526103
---
header: 
  seq: 344
  stamp: 
    secs: 1611879468
    nsecs: 366661838
  frame_id: ''
s: 0.154773105684
n: 0.0217424709717
alpha: -6.22662941241
v: 0.494937730295
---
header: 
  seq: 345
  stamp: 
    secs: 1611879468
    nsecs: 376667206
  frame_id: ''
s: 0.159723778321
n: 0.0225592816832
alpha: -6.19683373714
v: 0.495340462969
---
header: 
  seq: 346
  stamp: 
    secs: 1611879468
    nsecs: 386665791
  frame_id: ''
s: 0.165332625744
n: 0.0242025711807
alpha: -6.21838041994
v: 0.504816754322
---
header: 
  seq: 347
  stamp: 
    secs: 1611879468
    nsecs: 396659520
  frame_id: ''
s: 0.16975964458
n: 0.0256162793925
alpha: -6.23749278542
v: 0.498495262642
---
header: 
  seq: 348
  stamp: 
    secs: 1611879468
    nsecs: 406653915
  frame_id: ''
s: 0.175042673209
n: 0.026827954315
alpha: -6.2537999797
v: 0.503572047295
---
header: 
  seq: 349
  stamp: 
    secs: 1611879468
    nsecs: 416655354
  frame_id: ''
s: 0.181082420768
n: 0.0278507037138
alpha: -6.26721523271
v: 0.517195235411
---
header: 
  seq: 350
  stamp: 
    secs: 1611879468
    nsecs: 426659842
  frame_id: ''
s: 0.187780557751
n: 0.0286999913107
alpha: -6.27785142916
v: 0.537019709865
---
header: 
  seq: 351
  stamp: 
    secs: 1611879468
    nsecs: 436663725
  frame_id: ''
s: 0.193143577917
n: 0.0293767269553
alpha: -6.2859514135
v: 0.537462287426
---
header: 
  seq: 352
  stamp: 
    secs: 1611879468
    nsecs: 446659045
  frame_id: ''
s: 0.199217280775
n: 0.0299163382663
alpha: -6.29183253381
v: 0.546477182942
---
header: 
  seq: 353
  stamp: 
    secs: 1611879468
    nsecs: 456660019
  frame_id: ''
s: 0.204963287014
n: 0.0303282738401
alpha: -6.29584423777
v: 0.550102436186
---
header: 
  seq: 354
  stamp: 
    secs: 1611879468
    nsecs: 466657080
  frame_id: ''
s: 0.210413309066
n: 0.0306304195915
alpha: -6.2983371302
v: 0.549450378534
---
header: 
  seq: 355
  stamp: 
    secs: 1611879468
    nsecs: 476656418
  frame_id: ''
s: 0.216549599922
n: 0.030847726078
alpha: -6.29964172073
v: 0.557367655259
---
header: 
  seq: 356
  stamp: 
    secs: 1611879468
    nsecs: 486670020
  frame_id: ''
s: 0.221396104364
n: 0.0300297004683
alpha: -6.30005507154
v: 0.547159075784
---
header: 
  seq: 357
  stamp: 
    secs: 1611879468
    nsecs: 496661849
  frame_id: ''
s: 0.22699597676
n: 0.0292753869132
alpha: -6.29983364894
v: 0.548122574184
---
header: 
  seq: 358
  stamp: 
    secs: 1611879468
    nsecs: 506661371
  frame_id: ''
s: 0.233255922267
n: 0.0295429992092
alpha: -6.29919084802
v: 0.557966873855
---
header: 
  seq: 359
  stamp: 
    secs: 1611879468
    nsecs: 516661141
  frame_id: ''
s: 0.240107901607
n: 0.0288204466152
alpha: -6.29829786404
v: 0.573599138032
---
header: 
  seq: 360
  stamp: 
    secs: 1611879468
    nsecs: 526661965
  frame_id: ''
s: 0.247460554495
