
header: 
  seq: 1730
  stamp: 
    secs: 1602557429
    nsecs: 704812552
  frame_id: ''
s: 0.032338952905
n: 0.0434994738389
alpha: 0.1053882094
v: 0.0890441922218
---
header: 
  seq: 1731
  stamp: 
    secs: 1602557429
    nsecs: 714817104
  frame_id: ''
s: 0.0343714158411
n: 0.0437121506446
alpha: 0.113078663449
v: 0.103438321927
---
header: 
  seq: 1732
  stamp: 
    secs: 1602557429
    nsecs: 724824002
  frame_id: ''
s: 0.0362815134721
n: 0.044044920396
alpha: 0.0792939323246
v: 0.114613443284
---
header: 
  seq: 1733
  stamp: 
    secs: 1602557429
    nsecs: 734818913
  frame_id: ''
s: 0.0378526798268
n: 0.0443324819209
alpha: 0.0509401390956
v: 0.120163940554
---
header: 
  seq: 1734
  stamp: 
    secs: 1602557429
    nsecs: 744814064
  frame_id: ''
s: 0.0400657505526
n: 0.0445848395577
alpha: 0.0279935811557
v: 0.133027882244
---
header: 
  seq: 1735
  stamp: 
    secs: 1602557429
    nsecs: 754814621
  frame_id: ''
s: 0.0428354945385
n: 0.044803779828
alpha: 0.0101158943618
v: 0.151199013527
---
header: 
  seq: 1736
  stamp: 
    secs: 1602557429
    nsecs: 764816467
  frame_id: ''
s: 0.0451307631927
n: 0.0449836466972
alpha: -0.00322654644909
v: 0.161115948248
---
header: 
  seq: 1737
  stamp: 
    secs: 1602557429
    nsecs: 774815839
  frame_id: ''
s: 0.0469929862484
n: 0.045128107122
alpha: -0.0126692524484
v: 0.164336093366
---
header: 
  seq: 1738
  stamp: 
    secs: 1602557429
    nsecs: 784826647
  frame_id: ''
s: 0.0503651303549
n: 0.0452569556045
alpha: -0.0188796258535
v: 0.186026472033
---
header: 
  seq: 1739
  stamp: 
    secs: 1602557429
    nsecs: 794817455
  frame_id: ''
s: 0.0531572126612
n: 0.0453561154221
alpha: -0.0225071410495
v: 0.197720621434
---
header: 
  seq: 1740
  stamp: 
    secs: 1602557429
    nsecs: 804819414
  frame_id: ''
s: 0.0554282492058
n: 0.0444800854282
alpha: -0.0241503063463
v: 0.201015258101
---
header: 
  seq: 1741
  stamp: 
    secs: 1602557429
    nsecs: 814813760
  frame_id: ''
s: 0.0572157408865
n: 0.044649540511
alpha: -0.0243370821194
v: 0.198238554751
---
header: 
  seq: 1742
  stamp: 
    secs: 1602557429
    nsecs: 824817165
  frame_id: ''
s: 0.058592247979
n: 0.0438478896019
alpha: -0.0235156778611
v: 0.190773757668
---
header: 
  seq: 1743
  stamp: 
    secs: 1602557429
    nsecs: 834814624
  frame_id: ''
s: 0.0615024041294
n: 0.0431594473737
alpha: -0.0220530029641
v: 0.203797994034
---
header: 
  seq: 1744
  stamp: 
    secs: 1602557429
    nsecs: 844844906
  frame_id: ''
s: 0.063863837654
n: 0.042564302681
alpha: -0.0202384495901
v: 0.208401103561
---
header: 
  seq: 1745
  stamp: 
    secs: 1602557429
    nsecs: 854820188
  frame_id: ''
s: 0.0676392770636
n: 0.0411249416236
alpha: -0.0182911005487
v: 0.231578286375
---
header: 
  seq: 1746
  stamp: 
    secs: 1602557429
    nsecs: 864819539
  frame_id: ''
s: 0.0707418308079
n: 0.0398853575912
alpha: -0.0163688525489
v: 0.243586604507
---
header: 
  seq: 1747
  stamp: 
    secs: 1602557429
    nsecs: 874814269
  frame_id: ''
s: 0.0741838401982
n: 0.0388437023548
alpha: -0.0145783072053
v: 0.257968183216
---
header: 
  seq: 1748
  stamp: 
    secs: 1602557429
    nsecs: 884818063
  frame_id: ''
s: 0.0779130132231
n: 0.0379860420981
alpha: -0.0129845983958
v: 0.273612038216
---
header: 
  seq: 1749
  stamp: 
    secs: 1602557429
    nsecs: 894815772
  frame_id: ''
s: 0.0809313366533
n: 0.0372884306212
alpha: -0.0116205905774
v: 0.278149689741
---
header: 
  seq: 1750
  stamp: 
    secs: 1602557429
    nsecs: 904825146
  frame_id: ''
s: 0.0833126041342
n: 0.0367347560611
alpha: -0.0104950984645
v: 0.273922288654
---
header: 
  seq: 1751
  stamp: 
    secs: 1602557429
    nsecs: 914823023
  frame_id: ''
s: 0.087030643631
n: 0.0363244278689
alpha: -0.00959994703833
v: 0.28625982003
---
header: 
  seq: 1752
  stamp: 
    secs: 1602557429
    nsecs: 924820024
  frame_id: ''
s: 0.0900243042531
n: 0.036023081271
alpha: -0.00891581703738
v: 0.287930323176
---
header: 
  seq: 1753
  stamp: 
    secs: 1602557429
    nsecs: 934816961
  frame_id: ''
s: 0.0942697407567
n: 0.0358308566884
alpha: -0.00841691073509
v: 0.304685793786
---
header: 
  seq: 1754
  stamp: 
    secs: 1602557429
    nsecs: 944817187
  frame_id: ''
s: 0.0977099823857
n: 0.0357149123438
alpha: -0.00807453211485
v: 0.309339009651
---
header: 
  seq: 1755
  stamp: 
    secs: 1602557429
    nsecs: 954818709
  frame_id: ''
s: 0.100428022211
n: 0.0356615301878
alpha: -0.00785971054492
v: 0.304398938935
---
header: 
  seq: 1756
  stamp: 
    secs: 1602557429
    nsecs: 964826125
  frame_id: ''
s: 0.104407217855
n: 0.0356742509385
alpha: -0.00774501332208
v: 0.31575962216
---
header: 
  seq: 1757
  stamp: 
    secs: 1602557429
    nsecs: 974823639
  frame_id: ''
s: 0.107595939158
n: 0.035724077218
alpha: -0.00770569492709
v: 0.315881737377
---
header: 
  seq: 1758
  stamp: 
    secs: 1602557429
    nsecs: 984819331
  frame_id: ''
s: 0.110080922426
n: 0.035801373571
alpha: -0.00772032372234
v: 0.30722246518
---
header: 
  seq: 1759
  stamp: 
    secs: 1602557429
    nsecs: 994816779
  frame_id: ''
s: 0.113847921736
n: 0.0359138347141
alpha: -0.00777101356737
v: 0.315715542184
---
header: 
  seq: 1760
  stamp: 
    secs: 1602557430
    nsecs:   4816978
  frame_id: ''
s: 0.116846589066
n: 0.0360365569546
alpha: -0.00784337116059
v: 0.313574224089
---
header: 
  seq: 1761
  stamp: 
    secs: 1602557430
    nsecs:  14817713
  frame_id: ''
s: 0.119164040411
n: 0.0361638374457
alpha: -0.00792625190244
v: 0.30319908983
---
header: 
  seq: 1762
  stamp: 
    secs: 1602557430
    nsecs:  24823599
  frame_id: ''
s: 0.122785697056
n: 0.0363070685563
alpha: -0.00801139921575
v: 0.310506931795
---
header: 
  seq: 1763
  stamp: 
    secs: 1602557430
    nsecs:  34819839
  frame_id: ''
s: 0.12595674711
n: 0.0359360280561
alpha: -0.047313854213
v: 0.311475134396
---
header: 
  seq: 1764
  stamp: 
    secs: 1602557430
    nsecs:  44817686
  frame_id: ''
s: 0.129942574559
n: 0.0354795930742
alpha: -0.0848435800191
v: 0.322620022515
---
header: 
  seq: 1765
  stamp: 
    secs: 1602557430
    nsecs:  54816515
  frame_id: ''
s: 0.133394049615
n: 0.0350567222848
alpha: -0.114436240362
v: 0.325679408741
---
header: 
  seq: 1766
  stamp: 
    secs: 1602557430
    nsecs:  64816976
  frame_id: ''
s: 0.136233981534
n: 0.0346851385419
alpha: -0.136832149985
v: 0.32067689223
---
header: 
  seq: 1767
  stamp: 
    secs: 1602557430
    nsecs:  74819417
  frame_id: ''
s: 0.139999533317
n: 0.034164989119
alpha: -0.152966880676
v: 0.328043872592
---
header: 
  seq: 1768
  stamp: 
    secs: 1602557430
    nsecs:  84826520
  frame_id: ''
s: 0.142983567606
n: 0.0337313195941
alpha: -0.171187378403
v: 0.324646564653
---
header: 
  seq: 1769
  stamp: 
    secs: 1602557430
    nsecs:  94820918
  frame_id: ''
s: 0.145406361986
n: 0.0331984900936
alpha: -0.183802100114
v: 0.314800614688
---
header: 
  seq: 1770
  stamp: 
    secs: 1602557430
    nsecs: 104824140
  frame_id: ''
s: 0.148931662449
n: 0.0326456683867
alpha: -0.191827549884
v: 0.320015749405
---
header: 
  seq: 1771
  stamp: 
    secs: 1602557430
    nsecs: 114820368
  frame_id: ''
s: 0.152766644201
n: 0.0318675740932
alpha: -0.196233039233
v: 0.328783300589
---
header: 
  seq: 1772
  stamp: 
    secs: 1602557430
    nsecs: 124817760
  frame_id: ''
s: 0.156030352699
n: 0.0314700156511
alpha: -0.209113895011
v: 0.328783300589
---
header: 
  seq: 1773
  stamp: 
    secs: 1602557430
    nsecs: 134815468
  frame_id: ''
s: 0.160791782437
n: 0.0310858294369
alpha: -0.103105475211
v: 0.346262102592
---
header: 
  seq: 1774
  stamp: 
    secs: 1602557430
    nsecs: 144825275
  frame_id: ''
s: 0.164991976633
n: 0.0303355572083
alpha: -0.0682271877532
v: 0.356257437027
---
header: 
  seq: 1775
  stamp: 
    secs: 1602557430
    nsecs: 154818546
  frame_id: ''
s: 0.168332884039
n: 0.02971657887
alpha: -0.0407852727546
v: 0.354118410164
---
header: 
  seq: 1776
  stamp: 
    secs: 1602557430
    nsecs: 164819319
  frame_id: ''
s: 0.172810955452
n: 0.0292329347312
alpha: -0.0200691999893
v: 0.366191608157
---
header: 
  seq: 1777
  stamp: 
    secs: 1602557430
    nsecs: 174814159
  frame_id: ''
s: 0.176388202179
n: 0.0288540852202
alpha: -0.0051918427999
v: 0.365371928055
---
header: 
  seq: 1778
  stamp: 
    secs: 1602557430
    nsecs: 184816596
  frame_id: ''
s: 0.179165047996
n: 0.0285673076537
alpha: 0.00480197366457
v: 0.354546321599
---
header: 
  seq: 1779
  stamp: 
    secs: 1602557430
    nsecs: 194815475
  frame_id: ''
s: 0.183033374151
n: 0.0275777073682
alpha: -0.0338964010363
v: 0.359802075831
---
header: 
  seq: 1780
  stamp: 
    secs: 1602557430
    nsecs: 204824760
  frame_id: ''
s: 0.186335532905
n: 0.0268226714451
alpha: -0.0617916362706
v: 0.357021651769
---
header: 
  seq: 1781
  stamp: 
    secs: 1602557430
    nsecs: 214825263
  frame_id: ''
s: 0.190632816043
n: 0.0260061260073
alpha: -0.0906493954423
v: 0.367076606235
---
header: 
  seq: 1782
  stamp: 
    secs: 1602557430
    nsecs: 224818748
  frame_id: ''
s: 0.194182996213
n: 0.0253253402445
alpha: -0.11395929378
v: 0.366351681503
---
header: 
  seq: 1783
  stamp: 
    secs: 1602557430
    nsecs: 234814041
  frame_id: ''
s: 0.198285365007
n: 0.0247391328284
alpha: -0.132082401816
v: 0.372375210871
---
header: 
  seq: 1784
  stamp: 
    secs: 1602557430
    nsecs: 244811744
  frame_id: ''
s: 0.20207030793
n: 0.0241836585087
alpha: -0.152908351651
v: 0.37364928426
---
header: 
  seq: 1785
  stamp: 
    secs: 1602557430
    nsecs: 254841163
  frame_id: ''
s: 0.205332911756
n: 0.0237054955365
alpha: -0.168395758112
v: 0.368137746841
---
header: 
  seq: 1786
  stamp: 
    secs: 1602557430
    nsecs: 264829278
  frame_id: ''
s: 0.209240405253
n: 0.023278292679
alpha: -0.17930570086
v: 0.371223333291
---
header: 
  seq: 1787
  stamp: 
    secs: 1602557430
    nsecs: 274817833
  frame_id: ''
s: 0.212911864663
n: 0.0227296014023
alpha: -0.19236571629
v: 0.371223333291
---
header: 
  seq: 1788
  stamp: 
    secs: 1602557430
    nsecs: 284811485
  frame_id: ''
s: 0.216635991222
n: 0.0215479858905
alpha: -0.0960615889275
v: 0.373876265023
---
header: 
  seq: 1789
  stamp: 
    secs: 1602557430
    nsecs: 294817222
  frame_id: ''
s: 0.220025207608
n: 0.020932010917
alpha: -0.0646302801373
v: 0.370183276704
---
header: 
  seq: 1790
  stamp: 
    secs: 1602557430
    nsecs: 304817360
  frame_id: ''
s: 0.224530875021
n: 0.0204694312297
alpha: -0.0397624735277
v: 0.380462251431
---
header: 
  seq: 1791
  stamp: 
    secs: 1602557430
    nsecs: 314813124
  frame_id: ''
s: 0.228118838149
n: 0.020125106128
alpha: -0.020869583972
v: 0.37787120115
---
header: 
  seq: 1792
  stamp: 
    secs: 1602557430
    nsecs: 324845538
  frame_id: ''
s: 0.232791639735
n: 0.0198983139274
alpha: -0.0071927056729
v: 0.3888983143
---
header: 
  seq: 1793
  stamp: 
    secs: 1602557430
    nsecs: 334817952
  frame_id: ''
s: 0.236669698658
n: 0.0190262760404
alpha: -0.0371223709215
v: 0.389817390137
---
header: 
  seq: 1794
  stamp: 
    secs: 1602557430
    nsecs: 344817782
  frame_id: ''
s: 0.241460631125
n: 0.01824297114
alpha: -0.068842589594
v: 0.401813219072
---
header: 
  seq: 1795
  stamp: 
    secs: 1602557430
    nsecs: 354817979
  frame_id: ''
s: 0.245393297745
n: 0.0174619299963
alpha: -0.0954112896472
v: 0.401655713694
---
header: 
  seq: 1796
  stamp: 
    secs: 1602557430
    nsecs: 364813712
  frame_id: ''
s: 0.248865116574
n: 0.0169158678332
alpha: -0.116870393798
v: 0.395355091929
---
header: 
  seq: 1797
  stamp: 
    secs: 1602557430
    nsecs: 374817710
  frame_id: ''
s: 0.252978381675
n: 0.0160519461361
alpha: -0.151056881207
v: 0.398423704403
---
header: 
  seq: 1798
  stamp: 
    secs: 1602557430
    nsecs: 384845845
  frame_id: ''
s: 0.256146849505
n: 0.0150304683451
alpha: -0.192729828891
v: 0.389782236551
---
header: 
  seq: 1799
  stamp: 
    secs: 1602557430
    nsecs: 394816345
  frame_id: ''
s: 0.260381341108
n: 0.0139910715706
alpha: -0.224872720022
v: 0.395491709503
---
header: 
  seq: 1800
  stamp: 
    secs: 1602557430
    nsecs: 404813928
  frame_id: ''
s: 0.264267634758
n: 0.013257524781
alpha: -0.246362579479
v: 0.395491709503
---
header: 
  seq: 1801
  stamp: 
    secs: 1602557430
    nsecs: 414838517
  frame_id: ''
s: 0.269812069506
n: 0.0125125022903
alpha: -0.124937949248
v: 0.413872645761
---
header: 
  seq: 1802
  stamp: 
    secs: 1602557430
    nsecs: 424818528
  frame_id: ''
s: 0.274991315567
n: 0.0120304664393
alpha: -0.086247720177
v: 0.427010145317
---
header: 
  seq: 1803
  stamp: 
    secs: 1602557430
    nsecs: 434818971
  frame_id: ''
s: 0.279159900134
n: 0.0108849278854
alpha: -0.107209494171
v: 0.427424146871
---
header: 
  seq: 1804
  stamp: 
    secs: 1602557430
    nsecs: 444820990
  frame_id: ''
s: 0.283358606923
n: 0.0100706101956
alpha: -0.118178968906
v: 0.427453870153
---
header: 
  seq: 1805
  stamp: 
    secs: 1602557430
    nsecs: 454820150
  frame_id: ''
s: 0.28769120493
n: 0.00914920130613
alpha: -0.134935799343
v: 0.42937716385
---
header: 
  seq: 1806
  stamp: 
    secs: 1602557430
    nsecs: 464817422
  frame_id: ''
s: 0.29184416772
n: 0.00829543882585
alpha: -0.148708181404
v: 0.428691555001
---
header: 
  seq: 1807
  stamp: 
    secs: 1602557430
    nsecs: 474817899
  frame_id: ''
s: 0.296171039271
n: 0.00760825306292
alpha: -0.159616899966
v: 0.429853958257
---
header: 
  seq: 1808
  stamp: 
    secs: 1602557430
    nsecs: 484813342
  frame_id: ''
s: 0.301324333732
n: 0.00632926918937
alpha: -0.115828304737
v: 0.442438018024
---
header: 
  seq: 1809
  stamp: 
    secs: 1602557430
    nsecs: 494818465
  frame_id: ''
s: 0.305422816105
n: 0.00528578841848
alpha: -0.0794504939606
v: 0.43991126574
---
header: 
  seq: 1810
  stamp: 
    secs: 1602557430
    nsecs: 504824441
  frame_id: ''
s: 0.310485260615
n: 0.00447053166648
alpha: -0.05031336562
v: 0.449012671587
---
header: 
  seq: 1811
  stamp: 
    secs: 1602557430
    nsecs: 514824749
  frame_id: ''
s: 0.314495871466
n: 0.00384156488528
alpha: -0.0278691016701
v: 0.443578572698
---
header: 
  seq: 1812
  stamp: 
    secs: 1602557430
    nsecs: 524813964
  frame_id: ''
s: 0.319475211605
n: 0.0033909853024
alpha: -0.011343933831
v: 0.450393749904
---
header: 
  seq: 1813
  stamp: 
    secs: 1602557430
    nsecs: 534811744
  frame_id: ''
s: 0.323408743508
n: 0.00307776365962
alpha: 0.000144495624962
v: 0.443191070866
---
header: 
  seq: 1814
  stamp: 
    secs: 1602557430
    nsecs: 544811558
  frame_id: ''
s: 0.328317840728
n: 0.00289606554953
alpha: 0.00750031874876
v: 0.448790917319
---
header: 
  seq: 1815
  stamp: 
    secs: 1602557430
    nsecs: 554812256
  frame_id: ''
s: 0.33218840556
n: 0.00280777739196
alpha: 0.0115887105609
v: 0.440723657063
---
header: 
  seq: 1816
  stamp: 
    secs: 1602557430
    nsecs: 564826283
  frame_id: ''
s: 0.337041950726
n: 0.00281055816016
alpha: 0.0131966328828
v: 0.4458541963
---
header: 
  seq: 1817
  stamp: 
    secs: 1602557430
    nsecs: 574819074
  frame_id: ''
s: 0.342655732335
n: 0.00208770799421
alpha: -0.031742887837
v: 0.460928461678
---
header: 
  seq: 1818
  stamp: 
    secs: 1602557430
    nsecs: 584818732
  frame_id: ''
s: 0.347244825837
n: 0.00230326778821
alpha: -0.0248183156694
v: 0.460061600645
---
header: 
  seq: 1819
  stamp: 
    secs: 1602557430
    nsecs: 594830427
  frame_id: ''
s: 0.352588766548
n: 0.00162898812989
alpha: -0.063853277976
v: 0.469897488536
---
header: 
  seq: 1820
  stamp: 
    secs: 1602557430
    nsecs: 604815868
  frame_id: ''
s: 0.357085913367
n: 0.00104629289818
alpha: -0.0957269338049
v: 0.46781664299
---
header: 
  seq: 1821
  stamp: 
    secs: 1602557430
    nsecs: 614814386
  frame_id: ''
s: 0.36218097128
n: 0.000500965250936
alpha: -0.12079903728
v: 0.473413471508
---
header: 
  seq: 1822
  stamp: 
    secs: 1602557430
    nsecs: 624848968
  frame_id: ''
s: 0.366345849756
n: -0.000763073617748
alpha: -0.0949675753852
v: 0.467752947666
---
header: 
  seq: 1823
  stamp: 
    secs: 1602557430
    nsecs: 634817356
  frame_id: ''
s: 0.370455601613
n: -0.000997148450756
alpha: -0.116879612747
v: 0.460599900176
---
header: 
  seq: 1824
  stamp: 
    secs: 1602557430
    nsecs: 644816126
  frame_id: ''
s: 0.374575485198
n: -0.00195271367128
alpha: -0.0891182515792
v: 0.455592666577
---
header: 
  seq: 1825
  stamp: 
    secs: 1602557430
    nsecs: 654818042
  frame_id: ''
s: 0.377735535232
n: -0.00273593162757
alpha: -0.0653040365377
v: 0.439044740662
---
header: 
  seq: 1826
  stamp: 
    secs: 1602557430
    nsecs: 664817604
  frame_id: ''
s: 0.381959590628
n: -0.00334730479336
alpha: -0.0456107978801
v: 0.437508869917
---
header: 
  seq: 1827
  stamp: 
    secs: 1602557430
    nsecs: 674814023
  frame_id: ''
s: 0.387131671425
n: -0.00380596921099
alpha: -0.0299120327727
v: 0.447685553356
---
header: 
  seq: 1828
  stamp: 
    secs: 1602557430
    nsecs: 684826067
  frame_id: ''
s: 0.391236465812
n: -0.00414702220468
alpha: -0.0178831650162
v: 0.443133669786
---
header: 
  seq: 1829
  stamp: 
    secs: 1602557430
    nsecs: 694817825
  frame_id: ''
s: 0.396295344117
n: -0.00437113378497
alpha: -0.00908335291769
v: 0.450878837404
---
header: 
  seq: 1830
  stamp: 
    secs: 1602557430
    nsecs: 704818537
  frame_id: ''
s: 0.400294805216
n: -0.004511994132
alpha: -0.00301842198271
v: 0.444371222648
---
header: 
  seq: 1831
  stamp: 
    secs: 1602557430
    nsecs: 714815029
  frame_id: ''
s: 0.405257408279
n: -0.00456822056179
alpha: 0.000812873681478
v: 0.450640186128
---
header: 
  seq: 1832
  stamp: 
    secs: 1602557430
    nsecs: 724818921
  frame_id: ''
s: 0.409170324211
n: -0.00457100571534
alpha: 0.00288675925709
v: 0.443002217565
---
header: 
  seq: 1833
  stamp: 
    secs: 1602557430
    nsecs: 734817557
  frame_id: ''
s: 0.413107030153
n: -0.00452417053895
alpha: 0.00363395938382
v: 0.436614719081
---
header: 
  seq: 1834
  stamp: 
    secs: 1602557430
    nsecs: 744843977
  frame_id: ''
s: 0.417071587319
n: -0.00443904706264
alpha: 0.00342838825007
v: 0.431390501537
---
header: 
  seq: 1835
  stamp: 
    secs: 1602557430
    nsecs: 754821606
  frame_id: ''
s: 0.421066377679
n: -0.004325516833
alpha: 0.00258279125775
v: 0.427225053612
---
header: 
  seq: 1836
  stamp: 
    secs: 1602557430
    nsecs: 764818963
  frame_id: ''
s: 0.425092410703
n: -0.00419205766832
alpha: 0.00134940542396
v: 0.424003759455
---
header: 
  seq: 1837
  stamp: 
    secs: 1602557430
    nsecs: 774819194
  frame_id: ''
s: 0.430098933576
n: -0.00403784166699
alpha: -7.59837042541e-05
v: 0.433512769973
---
header: 
  seq: 1838
  stamp: 
    secs: 1602557430
    nsecs: 784814889
  frame_id: ''
s: 0.434068037166
n: -0.00388573516071
alpha: -0.00154790155371
v: 0.428850429986
---
header: 
  seq: 1839
  stamp: 
    secs: 1602557430
    nsecs: 794825580
  frame_id: ''
s: 0.439018238724
n: -0.00372355638574
alpha: -0.00296398341839
v: 0.437105328665
---
header: 
  seq: 1840
  stamp: 
    secs: 1602557430
    nsecs: 804831025
  frame_id: ''
s: 0.442933064698
n: -0.00357201933862
alpha: -0.00425747625982
v: 0.431353993607
---
header: 
  seq: 1841
  stamp: 
    secs: 1602557430
    nsecs: 814821559
  frame_id: ''
s: 0.44593342518
n: -0.00343298528592
alpha: -0.00538998382299
v: 0.414862470037
---
header: 
  seq: 1842
  stamp: 
    secs: 1602557430
    nsecs: 824816044
  frame_id: ''
s: 0.450037530561
n: -0.00329159816976
alpha: -0.00634481053848
v: 0.414301276582
---
header: 
  seq: 1843
  stamp: 
    secs: 1602557430
    nsecs: 834817696
  frame_id: ''
s: 0.453225248174
n: -0.0031662767168
alpha: -0.00712111189589
v: 0.402317111516
---
header: 
  seq: 1844
  stamp: 
    secs: 1602557430
    nsecs: 844819443
  frame_id: ''
s: 0.457517967978
n: -0.00399032408182
alpha: -0.00772894542484
v: 0.405788592087
---
header: 
  seq: 1845
  stamp: 
    secs: 1602557430
    nsecs: 854822533
  frame_id: ''
s: 0.461832374709
n: -0.00470556181693
alpha: -0.00818523307609
v: 0.409261959102
---
header: 
  seq: 1846
  stamp: 
    secs: 1602557430
    nsecs: 864822807
  frame_id: ''
s: 0.466170440914
n: -0.00626455568166
alpha: -0.00851058809467
v: 0.413453334906
---
header: 
  seq: 1847
  stamp: 
    secs: 1602557430
    nsecs: 874816687
  frame_id: ''
s: 0.470510109584
n: -0.0066557909466
alpha: -0.00872692276882
v: 0.416247238357
---
header: 
  seq: 1848
  stamp: 
    secs: 1602557430
    nsecs: 884814868
  frame_id: ''
s: 0.474856110926
n: -0.00695705987271
alpha: -0.00885573329013
v: 0.418676530906
---
header: 
  seq: 1849
  stamp: 
    secs: 1602557430
    nsecs: 894816373
  frame_id: ''
s: 0.478255637631
n: -0.00718692986358
alpha: -0.00891695034782
v: 0.408890676127
---
header: 
  seq: 1850
  stamp: 
    secs: 1602557430
    nsecs: 904816342
  frame_id: ''
s: 0.482722881231
n: -0.007338901976
alpha: -0.00892824550387
v: 0.413619566239
---
header: 
  seq: 1851
  stamp: 
    secs: 1602557430
    nsecs: 914827825
  frame_id: ''
s: 0.486235588066
n: -0.0074400017071
alpha: -0.00890469092141
v: 0.405773382681
---
header: 
  seq: 1852
  stamp: 
    secs: 1602557430
    nsecs: 924822992
  frame_id: ''
s: 0.488907918143
n: -0.00749871477525
alpha: -0.0088586812725
v: 0.388361450967
---
header: 
  seq: 1853
  stamp: 
    secs: 1602557430
    nsecs: 934818401
  frame_id: ''
s: 0.492750765595
n: -0.00750686823276
alpha: -0.00880003978784
v: 0.387766766256
---
header: 
  seq: 1854
  stamp: 
    secs: 1602557430
    nsecs: 944813496
  frame_id: ''
s: 0.497643089406
n: -0.00842280150854
alpha: -0.00873624405319
v: 0.401135348889
---
header: 
  seq: 1855
  stamp: 
    secs: 1602557430
    nsecs: 954817608
  frame_id: ''
s: 0.501539880719
n: -0.00825365995394
alpha: -0.00867272033327
v: 0.399432874605
---
header: 
  seq: 1856
  stamp: 
    secs: 1602557430
    nsecs: 964812161
  frame_id: ''
s: 0.504568652222
n: -0.00902482382838
alpha: -0.00861316727542
v: 0.387912620303
---
header: 
  seq: 1857
  stamp: 
    secs: 1602557430
    nsecs: 974826160
  frame_id: ''
s: 0.508729524091
n: -0.00965967343303
alpha: -0.00855988044232
v: 0.39193963874
---
header: 
  seq: 1858
  stamp: 
    secs: 1602557430
    nsecs: 984819791
  frame_id: ''
s: 0.511994479156
n: -0.0101847492338
alpha: -0.00851405807798
v: 0.384165274438
---
header: 
  seq: 1859
  stamp: 
    secs: 1602557430
    nsecs: 994817556
  frame_id: ''
s: 0.516370226615
n: -0.0105938473726
alpha: -0.00847607580996
v: 0.391106863005
---
header: 
  seq: 1860
  stamp: 
    secs: 1602557431
    nsecs:   4817709
  frame_id: ''
s: 0.519827491942
n: -0.0109152848466
alpha: -0.00844572371969
v: 0.385598546385
---
header: 
  seq: 1861
  stamp: 
    secs: 1602557431
    nsecs:  14817395
  frame_id: ''
s: 0.523423302355
n: -0.0111516003353
alpha: -0.00842240352622
v: 0.382411455165
---
header: 
  seq: 1862
  stamp: 
    secs: 1602557431
    nsecs:  24821510
  frame_id: ''
s: 0.527145724417
n: -0.0113141186474
alpha: -0.00840528671611
v: 0.381129573232
---
header: 
  seq: 1863
  stamp: 
    secs: 1602557431
    nsecs:  34826851
  frame_id: ''
s: 0.53003261225
n: -0.0114216835095
alpha: -0.00839343651632
v: 0.369513280045
---
header: 
  seq: 1864
  stamp: 
    secs: 1602557431
    nsecs:  44817389
  frame_id: ''
s: 0.534087800134
n: -0.0114675522536
alpha: -0.0083858978471
v: 0.373924773207
---
header: 
  seq: 1865
  stamp: 
    secs: 1602557431
    nsecs:  54814203
  frame_id: ''
s: 0.539176840429
n: -0.0114621539614
alpha: -0.00838175999486
v: 0.390719520815
---
header: 
  seq: 1866
  stamp: 
    secs: 1602557431
    nsecs:  64813598
  frame_id: ''
s: 0.543267664075
n: -0.0114309848586
alpha: -0.00838019687535
v: 0.392921938073
---
header: 
  seq: 1867
  stamp: 
    secs: 1602557431
    nsecs:  74815732
  frame_id: ''
s: 0.548366681822
n: -0.0113646861825
alpha: -0.00838048955616
v: 0.407495224977
---
header: 
  seq: 1868
  stamp: 
    secs: 1602557431
    nsecs:  84813130
  frame_id: ''
s: 0.552447248337
n: -0.0112868663944
alpha: -0.00838203529226
v: 0.407492956955
---
header: 
  seq: 1869
  stamp: 
    secs: 1602557431
    nsecs:  94824666
  frame_id: ''
s: 0.556571223748
n: -0.0111942785812
alpha: -0.0083843467898
v: 0.408049853135
---
header: 
  seq: 1870
  stamp: 
    secs: 1602557431
    nsecs: 104821193
  frame_id: ''
s: 0.560733086733
n: -0.0110917856058
alpha: -0.00838704482418
v: 0.409026714505
---
header: 
  seq: 1871
  stamp: 
    secs: 1602557431
    nsecs: 114813223
  frame_id: ''
s: 0.564927486331
n: -0.0109834459096
alpha: -0.00838984674797
v: 0.410302550437
---
header: 
  seq: 1872
  stamp: 
    secs: 1602557431
    nsecs: 124813023
  frame_id: ''
s: 0.569149353313
n: -0.0108725790932
alpha: -0.00839255286985
v: 0.41177431413
---
header: 
  seq: 1873
  stamp: 
    secs: 1602557431
    nsecs: 134814772
  frame_id: ''
s: 0.574343312305
n: -0.0107538600237
alpha: -0.00839503218738
v: 0.425269272577
---
header: 
  seq: 1874
  stamp: 
    secs: 1602557431
    nsecs: 144810896
  frame_id: ''
s: 0.578488093079
n: -0.0106462973199
alpha: -0.00839720852747
v: 0.423911850604
---
header: 
  seq: 1875
  stamp: 
    secs: 1602557431
    nsecs: 154824885
  frame_id: ''
s: 0.583599926663
n: -0.0105344564908
alpha: -0.00839904779147
v: 0.434865737178
---
header: 
  seq: 1876
  stamp: 
    secs: 1602557431
    nsecs: 164819513
  frame_id: ''
s: 0.587660953039
n: -0.0104363600613
alpha: -0.00840054671668
v: 0.431260744708
---
header: 
  seq: 1877
  stamp: 
    secs: 1602557431
    nsecs: 174818826
  frame_id: ''
s: 0.59269010103
n: -0.0103357344071
alpha: -0.00840172334514
v: 0.440259834532
---
header: 
  seq: 1878
  stamp: 
    secs: 1602557431
    nsecs: 184813236
  frame_id: ''
s: 0.596671579084
n: -0.0102499006239
alpha: -0.00840260922948
v: 0.434982172065
---
header: 
  seq: 1879
  stamp: 
    secs: 1602557431
    nsecs: 194819348
  frame_id: ''
s: 0.600676503964
n: -0.0101699878271
alpha: -0.00840324329192
v: 0.430661246623
---
header: 
  seq: 1880
  stamp: 
    secs: 1602557431
    nsecs: 204854968
  frame_id: ''
s: 0.604707110622
n: -0.010095907723
alpha: -0.00840366718122
v: 0.427204599005
---
header: 
  seq: 1881
  stamp: 
    secs: 1602557431
    nsecs: 214821783
  frame_id: ''
s: 0.608756443607
n: -0.00907809561253
alpha: -0.00840392193144
v: 0.424725861675
---
header: 
  seq: 1882
  stamp: 
    secs: 1602557431
    nsecs: 224822984
  frame_id: ''
s: 0.614724213996
n: -0.0072185668215
alpha: -0.00840404571127
v: 0.447652657277
---
header: 
  seq: 1883
  stamp: 
    secs: 1602557431
    nsecs: 234818383
  frame_id: ''
s: 0.619534047153
n: -0.00560735893485
alpha: -0.00840407245378
v: 0.453588595379
---
header: 
  seq: 1884
  stamp: 
    secs: 1602557431
    nsecs: 244811519
  frame_id: ''
s: 0.625207795995
n: -0.0042182674804
alpha: -0.00840403117078
v: 0.46951402619
---
header: 
  seq: 1885
  stamp: 
    secs: 1602557431
    nsecs: 254815205
  frame_id: ''
s: 0.629734849402
n: -0.00305462456732
alpha: -0.00840394577657
v: 0.468917206593
---
header: 
  seq: 1886
  stamp: 
    secs: 1602557431
    nsecs: 264811600
  frame_id: ''
s: 0.635142448376
n: -0.00208282664497
alpha: -0.00840383527093
v: 0.479000131979
---
header: 
  seq: 1887
  stamp: 
    secs: 1602557431
    nsecs: 274822706
  frame_id: ''
s: 0.639423708719
n: -0.00130129525056
alpha: -0.00840371415727
v: 0.473488287911
---
header: 
  seq: 1888
  stamp: 
    secs: 1602557431
    nsecs: 284827049
  frame_id: ''
s: 0.643658869047
n: -0.000681566206601
alpha: -0.00840359299666
v: 0.467778958702
---
header: 
  seq: 1889
  stamp: 
    secs: 1602557431
    nsecs: 294820179
  frame_id: ''
s: 0.648279238594
n: 4.91188619288e-05
alpha: -0.0084036664485
v: 0.467778958702
---
header: 
  seq: 1890
  stamp: 
    secs: 1602557431
    nsecs: 304811440
  frame_id: ''
s: 0.652067785764
n: -8.77494486493e-06
alpha: 0.104526691868
v: 0.456686143374
---
header: 
  seq: 1891
  stamp: 
    secs: 1602557431
    nsecs: 314814938
  frame_id: ''
s: 0.657170909502
n: 0.000271607998362
alpha: 0.0819922347974
v: 0.46331114388
---
header: 
  seq: 1892
  stamp: 
    secs: 1602557431
    nsecs: 324817813
  frame_id: ''
s: 0.662960614014
n: 0.0012393222084
alpha: 0.113266616031
v: 0.478790840848
---
header: 
  seq: 1893
  stamp: 
    secs: 1602557431
    nsecs: 334827302
  frame_id: ''
s: 0.668502705528
n: 0.00219020582771
alpha: 0.137267511283
v: 0.489233252967
---
header: 
  seq: 1894
  stamp: 
    secs: 1602557431
    nsecs: 344815402
  frame_id: ''
s: 0.673225387184
n: 0.00286023703341
alpha: 0.154859076828
v: 0.487697657034
---
header: 
  seq: 1895
  stamp: 
    secs: 1602557431
    nsecs: 354820233
  frame_id: ''
s: 0.678396989705
n: 0.0038036881885
alpha: 0.167014756319
v: 0.492418418101
---
header: 
  seq: 1896
  stamp: 
    secs: 1602557431
    nsecs: 364816789
  frame_id: ''
s: 0.682660308795
n: 0.00428284957852
alpha: 0.174724819073
v: 0.484435505971
---
header: 
  seq: 1897
  stamp: 
    secs: 1602557431
    nsecs: 374816958
  frame_id: ''
s: 0.686839169945
n: 0.00479454956818
alpha: 0.178932057851
v: 0.476466623037
---
header: 
  seq: 1898
  stamp: 
    secs: 1602557431
    nsecs: 384821853
  frame_id: ''
s: 0.691105240569
n: 0.0053645277041
alpha: 0.180490600855
v: 0.470684234222
---
header: 
  seq: 1899
  stamp: 
    secs: 1602557431
    nsecs: 394827241
  frame_id: ''
s: 0.695724208042
n: 0.00631440411654
alpha: 0.20532088453
v: 0.470687293255
---
header: 
  seq: 1900
  stamp: 
    secs: 1602557431
    nsecs: 404821613
  frame_id: ''
s: 0.69975827435
n: 0.00719794108786
alpha: 0.234691088266
v: 0.463334097012
---
header: 
  seq: 1901
  stamp: 
    secs: 1602557431
    nsecs: 414821377
  frame_id: ''
s: 0.704619636679
n: 0.00846702004424
alpha: 0.231378803099
v: 0.467961549663
---
header: 
  seq: 1902
  stamp: 
    secs: 1602557431
    nsecs: 424817153
  frame_id: ''
s: 0.709559900873
n: 0.00955447526176
alpha: 0.226586019648
v: 0.472651357502
---
header: 
  seq: 1903
  stamp: 
    secs: 1602557431
    nsecs: 434811597
  frame_id: ''
s: 0.714163187705
n: 0.0105822884178
alpha: 0.221065209473
v: 0.472474352546
---
header: 
  seq: 1904
  stamp: 
    secs: 1602557431
    nsecs: 444825174
  frame_id: ''
s: 0.718832005394
n: 0.011630246138
alpha: 0.215374891372
v: 0.473186881339
---
header: 
  seq: 1905
  stamp: 
    secs: 1602557431
    nsecs: 454825583
  frame_id: ''
s: 0.723441577281
n: 0.0123192478781
alpha: 0.199737050667
v: 0.472259924467
---
header: 
  seq: 1906
  stamp: 
    secs: 1602557431
    nsecs: 464820530
  frame_id: ''
s: 0.727945111262
n: 0.0129990176475
alpha: 0.196640546912
v: 0.470127033015
---
header: 
  seq: 1907
  stamp: 
    secs: 1602557431
    nsecs: 474819360
  frame_id: ''
s: 0.732345252349
n: 0.0137014818956
alpha: 0.194065027726
v: 0.467038725497
---
header: 
  seq: 1908
  stamp: 
    secs: 1602557431
    nsecs: 484818085
  frame_id: ''
s: 0.735937108117
n: 0.0140803315774
alpha: 0.181829136345
v: 0.453654853673
---
header: 
  seq: 1909
  stamp: 
    secs: 1602557431
    nsecs: 494812479
  frame_id: ''
s: 0.740323424917
n: 0.0146292039058
alpha: 0.17195801651
v: 0.452153260773
---
header: 
  seq: 1910
  stamp: 
    secs: 1602557431
    nsecs: 504823664
  frame_id: ''
s: 0.744785432888
n: 0.0153604644551
alpha: 0.167771367848
v: 0.452153260773
---
header: 
  seq: 1911
  stamp: 
    secs: 1602557431
    nsecs: 514823746
  frame_id: ''
s: 0.750643400753
n: 0.0165041718636
alpha: 0.141380543182
v: 0.468821207129
---
header: 
  seq: 1912
  stamp: 
    secs: 1602557431
    nsecs: 524820048
  frame_id: ''
s: 0.755721812321
n: 0.0172040020661
alpha: 0.0897593630237
v: 0.474295760227
---
header: 
  seq: 1913
  stamp: 
    secs: 1602557431
    nsecs: 534814986
  frame_id: ''
s: 0.759716088352
n: 0.017740688297
alpha: 0.110828552811
v: 0.465331543811
---
header: 
  seq: 1914
  stamp: 
    secs: 1602557431
    nsecs: 544818170
  frame_id: ''
s: 0.764654425484
n: 0.0181515003941
alpha: 0.0676518762185
v: 0.468964786397
---
header: 
  seq: 1915
  stamp: 
    secs: 1602557431
    nsecs: 554816096
  frame_id: ''
s: 0.769291870427
n: 0.0188492836656
alpha: 0.0528949002956
v: 0.468964786397
---
header: 
  seq: 1916
  stamp: 
    secs: 1602557431
    nsecs: 564825076
  frame_id: ''
s: 0.772524813567
n: 0.0191340399473
alpha: 0.147875982096
v: 0.452052771711
---
header: 
  seq: 1917
  stamp: 
    secs: 1602557431
    nsecs: 574824762
  frame_id: ''
s: 0.776421205147
n: 0.0191838474574
alpha: 0.101259590369
v: 0.44384512829
---
header: 
  seq: 1918
  stamp: 
    secs: 1602557431
    nsecs: 584815012
  frame_id: ''
s: 0.78039701653
n: 0.0197228459263
alpha: 0.107566054364
v: 0.438495187591
---
header: 
  seq: 1919
  stamp: 
    secs: 1602557431
    nsecs: 594815391
  frame_id: ''
s: 0.786081850475
n: 0.0205335861134
alpha: 0.120761584777
v: 0.455526431347
---
header: 
  seq: 1920
  stamp: 
    secs: 1602557431
    nsecs: 604816861
  frame_id: ''
s: 0.790807666083
n: 0.0210816709692
alpha: 0.124605651716
v: 0.458056724015
---
header: 
  seq: 1921
  stamp: 
    secs: 1602557431
    nsecs: 614817748
  frame_id: ''
s: 0.795460053548
n: 0.0214896800013
alpha: 0.13510027298
v: 0.459135214217
---
header: 
  seq: 1922
  stamp: 
    secs: 1602557431
    nsecs: 624827176
  frame_id: ''
s: 0.799899056528
n: 0.0217976049368
alpha: 0.136241051231
v: 0.457281429657
---
header: 
  seq: 1923
  stamp: 
    secs: 1602557431
    nsecs: 634824613
  frame_id: ''
s: 0.804402209904
n: 0.0221721677565
alpha: 0.14419180376
v: 0.456571820212
---
header: 
  seq: 1924
  stamp: 
    secs: 1602557431
    nsecs: 644824893
  frame_id: ''
s: 0.808697396427
n: 0.0225681088712
alpha: 0.143049404639
v: 0.453393994018
---
header: 
  seq: 1925
  stamp: 
    secs: 1602557431
    nsecs: 654818361
  frame_id: ''
s: 0.813089800467
n: 0.0229131982938
alpha: 0.149031471414
v: 0.451761693553
---
header: 
  seq: 1926
  stamp: 
    secs: 1602557431
    nsecs: 664814560
  frame_id: ''
s: 0.81731841764
n: 0.0231331062686
alpha: 0.146252974222
v: 0.448135374591
---
header: 
  seq: 1927
  stamp: 
    secs: 1602557431
    nsecs: 674817038
  frame_id: ''
s: 0.820827037824
n: 0.0234514329758
alpha: 0.143590678849
v: 0.436106827671
---
header: 
  seq: 1928
  stamp: 
    secs: 1602557431
    nsecs: 684826885
  frame_id: ''
s: 0.825402063348
n: 0.0234366353009
alpha: 0.141166542741
v: 0.43852876775
---
header: 
  seq: 1929
  stamp: 
    secs: 1602557431
    nsecs: 694823233
  frame_id: ''
s: 0.83074136932
n: 0.0243265588238
alpha: 0.0942963740524
v: 0.451245401933
---
header: 
  seq: 1930
  stamp: 
    secs: 1602557431
    nsecs: 704817039
  frame_id: ''
s: 0.834988839221
n: 0.0250687657277
alpha: 0.0560904397102
v: 0.448593877111
---
header: 
  seq: 1931
  stamp: 
    secs: 1602557431
    nsecs: 714816845
  frame_id: ''
s: 0.840167319974
n: 0.0256913386357
alpha: 0.0260922178182
v: 0.457748477957
---
header: 
  seq: 1932
  stamp: 
    secs: 1602557431
    nsecs: 724814595
  frame_id: ''
s: 0.844265102385
n: 0.0261895481238
alpha: 0.00350019457893
v: 0.45210372777
---
header: 
  seq: 1933
  stamp: 
    secs: 1602557431
    nsecs: 734844460
  frame_id: ''
s: 0.849306732838
n: 0.0265930918302
alpha: -0.0126755769313
v: 0.458814090418
---
header: 
  seq: 1934
  stamp: 
    secs: 1602557431
    nsecs: 744819635
  frame_id: ''
s: 0.853281465918
n: 0.0268978001172
alpha: -0.0234950697622
v: 0.451243072496
---
header: 
  seq: 1935
  stamp: 
    secs: 1602557431
    nsecs: 754817958
  frame_id: ''
s: 0.857264879365
n: 0.0271251165649
alpha: -0.0300030491393
v: 0.444638961735
---
header: 
  seq: 1936
  stamp: 
    secs: 1602557431
    nsecs: 764815057
  frame_id: ''
s: 0.861263089565
n: 0.0272869013839
alpha: -0.0331716268106
v: 0.438982911879
---
header: 
  seq: 1937
  stamp: 
    secs: 1602557431
    nsecs: 774813679
  frame_id: ''
s: 0.866229774379
n: 0.0274021842067
alpha: -0.0338652617613
v: 0.446115493031
---
header: 
  seq: 1938
  stamp: 
    secs: 1602557431
    nsecs: 784816338
  frame_id: ''
s: 0.871100139176
n: 0.0274721087639
alpha: -0.0328232129337
v: 0.451137756847
---
header: 
  seq: 1939
  stamp: 
    secs: 1602557431
    nsecs: 794816946
  frame_id: ''
s: 0.875878898518
n: 0.0275058059576
alpha: -0.0306549850754
v: 0.454383324605
---
header: 
  seq: 1940
  stamp: 
    secs: 1602557431
    nsecs: 804845407
  frame_id: ''
s: 0.880572274006
n: 0.0275113878815
alpha: -0.0278449410744
v: 0.456159337868
---
header: 
  seq: 1941
  stamp: 
    secs: 1602557431
    nsecs: 814818726
  frame_id: ''
s: 0.885187485863
n: 0.0274959479931
alpha: -0.0247629149436
v: 0.456744183449
---
header: 
  seq: 1942
  stamp: 
    secs: 1602557431
    nsecs: 824813767
  frame_id: ''
s: 0.888782996291
n: 0.0274576121519
alpha: -0.0216783006148
v: 0.444479024696
---
header: 
  seq: 1943
  stamp: 
    secs: 1602557431
    nsecs: 834818324
  frame_id: ''
s: 0.892434470768
n: 0.0274105151061
alpha: -0.0187756809489
v: 0.434464635091
---
header: 
  seq: 1944
  stamp: 
    secs: 1602557431
    nsecs: 844811450
  frame_id: ''
s: 0.896146775247
n: 0.0273589184477
alpha: -0.0161705800858
v: 0.426480864864
---
header: 
  seq: 1945
  stamp: 
    secs: 1602557431
    nsecs: 854814591
  frame_id: ''
s: 0.899921997872
n: 0.027306262213
alpha: -0.0139243617845
v: 0.420298963261
---
header: 
  seq: 1946
  stamp: 
    secs: 1602557431
    nsecs: 864818598
  frame_id: ''
s: 0.903760008047
n: 0.0272552515178
alpha: -0.0120576555293
v: 0.415690157487
---
header: 
  seq: 1947
  stamp: 
    secs: 1602557431
    nsecs: 874827645
  frame_id: ''
s: 0.908608286501
n: 0.0272159219391
alpha: -0.010561974875
v: 0.424345974395
---
header: 
  seq: 1948
  stamp: 
    secs: 1602557431
    nsecs: 884819309
  frame_id: ''
s: 0.913396053085
n: 0.0271807992349
alpha: -0.00940940602196
v: 0.431162901839
---
header: 
  seq: 1949
  stamp: 
    secs: 1602557431
    nsecs: 894839719
  frame_id: ''
s: 0.91812236835
n: 0.027150929185
alpha: -0.00856039805994
v: 0.436357907371
---
header: 
  seq: 1950
  stamp: 
    secs: 1602557431
    nsecs: 904816781
  frame_id: ''
s: 0.921838882046
n: 0.0271190011748
alpha: -0.00796978949839
v: 0.428231262188
---
header: 
  seq: 1951
  stamp: 
    secs: 1602557431
    nsecs: 914815173
  frame_id: ''
s: 0.925615685019
n: 0.0270943404709
alpha: -0.00759126831598
v: 0.42188335932
---
header: 
  seq: 1952
  stamp: 
    secs: 1602557431
    nsecs: 924818139
  frame_id: ''
s: 0.929453186806
n: 0.0270770209708
alpha: -0.00738049387984
v: 0.417095410566
---
header: 
  seq: 1953
  stamp: 
    secs: 1602557431
    nsecs: 934823401
  frame_id: ''
s: 0.934299346491
n: 0.0270748729185
alpha: -0.00729711678389
v: 0.425567931148
---
header: 
  seq: 1954
  stamp: 
    secs: 1602557431
    nsecs: 944820332
  frame_id: ''
s: 0.938134467523
n: 0.0270706286189
alpha: -0.00680761423854
v: 0.420289370832
---
header: 
  seq: 1955
  stamp: 
    secs: 1602557431
    nsecs: 954816423
  frame_id: ''
s: 0.942025607875
n: 0.0270726880142
alpha: -0.00382291199089
v: 0.416376726309
---
header: 
  seq: 1956
  stamp: 
    secs: 1602557431
    nsecs: 964815945
  frame_id: ''
s: 0.946920270639
n: 0.0270882918146
alpha: -8.86380376703e-05
v: 0.4255494692
---
header: 
  seq: 1957
  stamp: 
    secs: 1602557431
    nsecs: 974813127
  frame_id: ''
s: 0.951747881191
n: 0.0271079315288
alpha: 0.00357310466135
v: 0.432729812568
---
header: 
  seq: 1958
  stamp: 
    secs: 1602557431
    nsecs: 984815925
  frame_id: ''
s: 0.955558508974
n: 0.0271233843023
alpha: 0.00643024488907
v: 0.426246270848
---
header: 
  seq: 1959
  stamp: 
    secs: 1602557431
    nsecs: 994826990
  frame_id: ''
s: 0.960370549348
n: 0.0271505128846
alpha: 0.0100779623108
v: 0.433144189111
---
header: 
  seq: 1960
  stamp: 
    secs: 1602557432
    nsecs:   4820593
  frame_id: ''
s: 0.964166867409
n: 0.0271725227213
alpha: 0.0129385624512
v: 0.426429452701
---
header: 
  seq: 1961
  stamp: 
    secs: 1602557432
    nsecs:  14821539
  frame_id: ''
s: 0.968965977486
n: 0.0272050233598
alpha: 0.0166012402348
v: 0.43314252322
---
header: 
  seq: 1962
  stamp: 
    secs: 1602557432
    nsecs:  24817124
  frame_id: ''
s: 0.972750798737
n: 0.0272315757676
alpha: 0.0194835618904
v: 0.426284085182
---
header: 
  seq: 1963
  stamp: 
    secs: 1602557432
    nsecs:  34816702
  frame_id: ''
s: 0.976590514201
n: 0.0272602266049
alpha: 0.0224255099513
v: 0.42097543501
---
header: 
  seq: 1964
  stamp: 
    secs: 1602557432
    nsecs:  44810222
  frame_id: ''
s: 0.980500932816
n: 0.0253929741496
alpha: 0.025438686867
v: 0.417762495671
---
header: 
  seq: 1965
  stamp: 
    secs: 1602557432
    nsecs:  54820756
  frame_id: ''
s: 0.984262118752
n: 0.0229979135621
alpha: -0.0222675454771
v: 0.428268011854
---
header: 
  seq: 1966
  stamp: 
    secs: 1602557432
    nsecs:  64820152
  frame_id: ''
s: 0.989165418517
n: 0.0218735165501
alpha: -0.00267795113711
v: 0.436770205055
---
header: 
  seq: 1967
  stamp: 
    secs: 1602557432
    nsecs:  74819816
  frame_id: ''
s: 0.993987818641
n: 0.0209539623699
alpha: 0.0165982384297
v: 0.443206088364
---
header: 
  seq: 1968
  stamp: 
    secs: 1602557432
    nsecs:  84820512
  frame_id: ''
s: 0.998731752142
n: 0.0202261644151
alpha: 0.0355687653897
v: 0.447709693629
---
header: 
  seq: 1969
  stamp: 
    secs: 1602557432
    nsecs:  94817103
  frame_id: ''
s: 1.00340129968
n: 0.0196742160635
alpha: 0.0542480976744
v: 0.450517892645
---
header: 
  seq: 1970
  stamp: 
    secs: 1602557432
    nsecs: 104810661
  frame_id: ''
s: 1.00705390916
n: 0.0192281362862
alpha: 0.0688628468992
v: 0.44014034013
---
header: 
  seq: 1971
  stamp: 
    secs: 1602557432
    nsecs: 114848356
  frame_id: ''
s: 1.01170930705
n: 0.018981748367
alpha: 0.0874937541161
v: 0.44333656521
---
header: 
  seq: 1972
  stamp: 
    secs: 1602557432
    nsecs: 124821597
  frame_id: ''
s: 1.01535699823
n: 0.0188059813119
alpha: 0.102094420003
v: 0.433471999185
---
header: 
  seq: 1973
  stamp: 
    secs: 1602557432
    nsecs: 134820594
  frame_id: ''
s: 1.01929368758
n: 0.0179326410164
alpha: 0.0657658754504
v: 0.429278944446
---
header: 
  seq: 1974
  stamp: 
    secs: 1602557432
    nsecs: 144821809
  frame_id: ''
s: 1.02333708714
n: 0.0172174525102
alpha: 0.0524232511199
v: 0.426789556577
---
header: 
  seq: 1975
  stamp: 
    secs: 1602557432
    nsecs: 154813645
  frame_id: ''
s: 1.02663310036
n: 0.0168121441978
alpha: 0.019820256487
v: 0.435840864846
---
header: 
  seq: 1976
  stamp: 
    secs: 1602557432
    nsecs: 164816558
  frame_id: ''
s: 1.03148732515
n: 0.0159704357126
alpha: 0.0659849375911
v: 0.442352365634
---
header: 
  seq: 1977
  stamp: 
    secs: 1602557432
    nsecs: 174825846
  frame_id: ''
s: 1.03650796987
n: 0.0153505479875
alpha: 0.0226070204038
v: 0.450131567332
---
header: 
  seq: 1978
  stamp: 
    secs: 1602557432
    nsecs: 184819361
  frame_id: ''
s: 1.04130381891
n: 0.0146853223677
alpha: 0.0272348672735
v: 0.454195110209
---
header: 
  seq: 1979
  stamp: 
    secs: 1602557432
    nsecs: 194818867
  frame_id: ''
s: 1.04619666364
n: 0.0140067828087
alpha: 0.0274827349696
v: 0.459017527987
---
header: 
  seq: 1980
  stamp: 
    secs: 1602557432
    nsecs: 204817876
  frame_id: ''
s: 1.04923225021
n: 0.0133946806787
alpha: 0.0114278939163
v: 0.456539920886
---
header: 
  seq: 1981
  stamp: 
    secs: 1602557432
    nsecs: 214815141
  frame_id: ''
s: 1.05401945533
n: 0.0128861342732
alpha: 0.0101622552136
v: 0.459284594055
---
header: 
  seq: 1982
  stamp: 
    secs: 1602557432
    nsecs: 224817583
  frame_id: ''
s: 1.05840828142
n: 0.0125284921356
alpha: -0.0103681920007
v: 0.456751630885
---
header: 
  seq: 1983
  stamp: 
    secs: 1602557432
    nsecs: 234845918
  frame_id: ''
s: 1.06299988986
n: 0.0121299937172
alpha: -0.0202754930044
v: 0.457125149343
---
header: 
  seq: 1984
  stamp: 
    secs: 1602557432
    nsecs: 244819976
  frame_id: ''
s: 1.06773093469
n: 0.0111022471203
alpha: -0.0397540386157
v: 0.459522143995
---
header: 
  seq: 1985
  stamp: 
    secs: 1602557432
    nsecs: 254815417
  frame_id: ''
s: 1.07260405899
n: 0.00982857597851
alpha: -0.0297482160915
v: 0.463848410356
---
header: 
  seq: 1986
  stamp: 
    secs: 1602557432
    nsecs: 264816928
  frame_id: ''
s: 1.07627828881
n: 0.00984070815429
alpha: -0.0391934516466
v: 0.463848410356
---
header: 
  seq: 1987
  stamp: 
    secs: 1602557432
    nsecs: 274813320
  frame_id: ''
s: 1.08096692833
n: 0.00957504418415
alpha: 0.0449136127083
v: 0.46436023602
---
header: 
  seq: 1988
  stamp: 
    secs: 1602557432
    nsecs: 284818878
  frame_id: ''
s: 1.08548730536
n: 0.0095408491747
alpha: 0.0559720864549
v: 0.462804709683
---
header: 
  seq: 1989
  stamp: 
    secs: 1602557432
    nsecs: 294830508
  frame_id: ''
s: 1.08949209159
n: 0.00979987935871
alpha: 0.0811896143885
v: 0.455028141178
---
header: 
  seq: 1990
  stamp: 
    secs: 1602557432
    nsecs: 304825471
  frame_id: ''
s: 1.09354553971
n: 0.00976487930595
alpha: 0.0923403623317
v: 0.448781427665
---
header: 
  seq: 1991
  stamp: 
    secs: 1602557432
    nsecs: 314822362
  frame_id: ''
s: 1.09760142935
n: 0.00908106388837
alpha: 0.0866237519807
v: 0.443324176537
---
header: 
  seq: 1992
  stamp: 
    secs: 1602557432
    nsecs: 324813192
  frame_id: ''
s: 1.10008483462
n: 0.00914295280373
alpha: 0.0979299711318
v: 0.430005641257
---
header: 
  seq: 1993
  stamp: 
    secs: 1602557432
    nsecs: 334817181
  frame_id: ''
s: 1.1054034241
n: 0.0086543771125
alpha: 0.0952086442827
v: 0.442168863871
---
header: 
  seq: 1994
  stamp: 
    secs: 1602557432
    nsecs: 344818697
  frame_id: ''
s: 1.110496016
n: 0.008599538909
alpha: 0.0783805392041
v: 0.450457565068
---
header: 
  seq: 1995
  stamp: 
    secs: 1602557432
    nsecs: 354820213
  frame_id: ''
s: 1.11579665719
n: 0.00850385068946
alpha: 0.0705939212803
v: 0.460332319195
---
header: 
  seq: 1996
  stamp: 
    secs: 1602557432
    nsecs: 364824106
  frame_id: ''
s: 1.11999188062
n: 0.0079736431588
alpha: 0.0657313091543
v: 0.454985474304
---
header: 
  seq: 1997
  stamp: 
    secs: 1602557432
    nsecs: 374825460
  frame_id: ''
s: 1.12328481931
n: 0.00804220477245
alpha: 0.0635780447653
v: 0.449042657542
---
header: 
  seq: 1998
  stamp: 
    secs: 1602557432
    nsecs: 384815670
  frame_id: ''
s: 1.12724806231
n: 0.00835636343969
alpha: 0.0693470800571
v: 0.442555236913
---
header: 
  seq: 1999
  stamp: 
    secs: 1602557432
    nsecs: 394817425
  frame_id: ''
s: 1.1311281093
n: 0.00865036040172
alpha: 0.0789716363611
v: 0.43582583834
---
header: 
  seq: 2000
  stamp: 
    secs: 1602557432
    nsecs: 404815903
  frame_id: ''
s: 1.13494135763
n: 0.00892884676472
alpha: 0.0915479267568
v: 0.429097033195
---
header: 
  seq: 2001
  stamp: 
    secs: 1602557432
    nsecs: 414810737
  frame_id: ''
s: 1.1386137878
n: 0.00963562461839
alpha: 0.124455530725
v: 0.422037586158
---
header: 
  seq: 2002
  stamp: 
    secs: 1602557432
    nsecs: 424818888
  frame_id: ''
s: 1.14361607236
n: 0.00994235273991
alpha: 0.1423423916
v: 0.431914570729
---
header: 
  seq: 2003
  stamp: 
    secs: 1602557432
    nsecs: 434826598
  frame_id: ''
s: 1.14749500661
n: 0.00993786218778
alpha: 0.156965314142
v: 0.438168899486
---
header: 
  seq: 2004
  stamp: 
    secs: 1602557432
    nsecs: 444814483
  frame_id: ''
s: 1.15173621962
n: 0.0102429866325
alpha: 0.173934374809
v: 0.436239146674
---
header: 
  seq: 2005
  stamp: 
    secs: 1602557432
    nsecs: 454822023
  frame_id: ''
s: 1.1558636478
n: 0.0105820041643
alpha: 0.191062018564
v: 0.433286630184
---
header: 
  seq: 2006
  stamp: 
    secs: 1602557432
    nsecs: 464812800
  frame_id: ''
s: 1.15996959488
n: 0.0105392064252
alpha: 0.208487565154
v: 0.429779876102
---
header: 
  seq: 2007
  stamp: 
    secs: 1602557432
    nsecs: 474812725
  frame_id: ''
s: 1.16398127983
n: 0.0105844020903
alpha: 0.225739417145
v: 0.425832243209
---
header: 
  seq: 2008
  stamp: 
    secs: 1602557432
    nsecs: 484822242
  frame_id: ''
s: 1.16707772877
n: 0.0105640566874
alpha: 0.239396770973
v: 0.410954823343
---
header: 
  seq: 2009
  stamp: 
    secs: 1602557432
    nsecs: 494819891
  frame_id: ''
s: 1.17116047431
n: 0.0110151694335
alpha: 0.254676916224
v: 0.410954823343
---
header: 
  seq: 2010
  stamp: 
    secs: 1602557432
    nsecs: 504813363
  frame_id: ''
s: 1.17384577355
n: 0.0114308413866
alpha: 0.186266135552
v: 0.407089096894
---
header: 
  seq: 2011
  stamp: 
    secs: 1602557432
    nsecs: 514813448
  frame_id: ''
s: 1.17783305047
n: 0.0122484853026
alpha: 0.18995095765
v: 0.407089096894
---
header: 
  seq: 2012
  stamp: 
    secs: 1602557432
    nsecs: 524810820
  frame_id: ''
s: 1.18214228354
n: 0.0118256188695
alpha: 0.115942469459
v: 0.40911510947
---
header: 
  seq: 2013
  stamp: 
    secs: 1602557432
    nsecs: 534845603
  frame_id: ''
s: 1.18651268224
n: 0.0119376813398
alpha: 0.119721510553
v: 0.412192529926
---
header: 
  seq: 2014
  stamp: 
    secs: 1602557432
    nsecs: 544819281
  frame_id: ''
s: 1.19088921307
n: 0.0120605909311
alpha: 0.129267623897
v: 0.415094161175
---
header: 
  seq: 2015
  stamp: 
    secs: 1602557432
    nsecs: 554850134
  frame_id: ''
s: 1.19470012715
n: 0.0121442818355
alpha: 0.140956370192
v: 0.410606123073
---
header: 
  seq: 2016
  stamp: 
    secs: 1602557432
    nsecs: 564819899
  frame_id: ''
s: 1.19713607847
n: 0.0126409000805
alpha: 0.10561809466
v: 0.405267161943
---
header: 
  seq: 2017
  stamp: 
    secs: 1602557432
    nsecs: 574818978
  frame_id: ''
s: 1.2012573634
n: 0.0132047592404
alpha: 0.0875815940894
v: 0.406479548762
---
header: 
  seq: 2018
  stamp: 
    secs: 1602557432
    nsecs: 584816600
  frame_id: ''
s: 1.20466456568
n: 0.0136492586169
alpha: 0.120726005722
v: 0.398496567932
---
header: 
  seq: 2019
  stamp: 
    secs: 1602557432
    nsecs: 594820300
  frame_id: ''
s: 1.20841290359
n: 0.0139932760323
alpha: 0.110014767461
v: 0.395518632649
---
header: 
  seq: 2020
  stamp: 
    secs: 1602557432
    nsecs: 604826067
  frame_id: ''
s: 1.21149860496
n: 0.0142540364123
alpha: 0.148278671062
v: 0.384594793614
---
header: 
  seq: 2021
  stamp: 
    secs: 1602557432
    nsecs: 614820246
  frame_id: ''
s: 1.21612881925
n: 0.0144802313614
alpha: 0.190223199419
v: 0.394155686698
---
header: 
  seq: 2022
  stamp: 
    secs: 1602557432
    nsecs: 624820495
  frame_id: ''
s: 1.22066863644
n: 0.0146820327319
alpha: 0.183946024004
v: 0.401457485674
---
header: 
  seq: 2023
  stamp: 
    secs: 1602557432
    nsecs: 634814549
  frame_id: ''
s: 1.2234496738
n: 0.015260950688
alpha: 0.175621817222
v: 0.404405689173
---
header: 
  seq: 2024
  stamp: 
    secs: 1602557432
    nsecs: 644817657
  frame_id: ''
s: 1.22784795827
n: 0.0156696219187
alpha: 0.213245583034
v: 0.408676764178
---
header: 
  seq: 2025
  stamp: 
    secs: 1602557432
    nsecs: 654815655
  frame_id: ''
s: 1.23156049353
n: 0.0161559568557
alpha: 0.210749247498
v: 0.404274154725
---
header: 
  seq: 2026
  stamp: 
    secs: 1602557432
    nsecs: 664825673
  frame_id: ''
s: 1.23518746581
n: 0.0159363265467
alpha: 0.21166468407
v: 0.397804182593
---
header: 
  seq: 2027
  stamp: 
    secs: 1602557432
    nsecs: 674820136
  frame_id: ''
s: 1.23863874628
n: 0.0157662089125
alpha: 0.215257311587
v: 0.390344837215
---
header: 
  seq: 2028
  stamp: 
    secs: 1602557432
    nsecs: 684819569
  frame_id: ''
s: 1.24194044448
n: 0.0156517319986
alpha: 0.221174242362
v: 0.382237760995
---
header: 
  seq: 2029
  stamp: 
    secs: 1602557432
    nsecs: 694830822
  frame_id: ''
s: 1.24511694886
n: 0.0155959454867
alpha: 0.229025821965
v: 0.373789493738
---
header: 
  seq: 2030
  stamp: 
    secs: 1602557432
    nsecs: 704818146
  frame_id: ''
s: 1.24793829669
n: 0.0162338007312
alpha: 0.237413201621
v: 0.382091159074
---
header: 
  seq: 2031
  stamp: 
    secs: 1602557432
    nsecs: 714815152
  frame_id: ''
s: 1.25269453516
n: 0.017067433037
alpha: 0.25505593019
v: 0.394733910213
---
header: 
  seq: 2032
  stamp: 
    secs: 1602557432
    nsecs: 724850137
  frame_id: ''
s: 1.25714248882
n: 0.0178840045277
alpha: 0.272583401208
v: 0.401973315307
---
header: 
  seq: 2033
  stamp: 
    secs: 1602557432
    nsecs: 734825714
  frame_id: ''
s: 1.26195783783
n: 0.0188494428881
alpha: 0.292362871691
v: 0.413214659749
---
header: 
  seq: 2034
  stamp: 
    secs: 1602557432
    nsecs: 744817315
  frame_id: ''
s: 1.26595692983
n: 0.0189644315853
alpha: 0.274480204639
v: 0.410993571695
---
header: 
  seq: 2035
  stamp: 
    secs: 1602557432
    nsecs: 754821912
  frame_id: ''
s: 1.26966176516
n: 0.0190789251801
alpha: 0.268506439662
v: 0.405543901012
---
header: 
  seq: 2036
  stamp: 
    secs: 1602557432
    nsecs: 764815226
  frame_id: ''
s: 1.27131784392
n: 0.0195760554568
alpha: 0.259416792818
v: 0.399220876756
---
header: 
  seq: 2037
  stamp: 
    secs: 1602557432
    nsecs: 774813738
  frame_id: ''
s: 1.27402883128
n: 0.0199269744073
alpha: 0.258964279531
v: 0.38321575421
---
header: 
  seq: 2038
  stamp: 
    secs: 1602557432
    nsecs: 784848175
  frame_id: ''
s: 1.27725298821
n: 0.0207152035934
alpha: 0.292855212671
v: 0.376795430801
---
header: 
  seq: 2039
  stamp: 
    secs: 1602557432
    nsecs: 794822701
  frame_id: ''
s: 1.28269507618
n: 0.020970107173
alpha: 0.298383715856
v: 0.396907524605
---
header: 
  seq: 2040
  stamp: 
    secs: 1602557432
    nsecs: 804814991
  frame_id: ''
s: 1.28710159425
n: 0.0211006473241
alpha: 0.33845199795
v: 0.401740841796
---
header: 
  seq: 2041
  stamp: 
    secs: 1602557432
    nsecs: 814816851
  frame_id: ''
s: 1.29057966195
n: 0.0211333830038
alpha: 0.371643289931
v: 0.394445747494
---
header: 
  seq: 2042
  stamp: 
    secs: 1602557432
    nsecs: 824816743
  frame_id: ''
s: 1.29323860822
n: 0.0210911689104
alpha: 0.398244044969
v: 0.377866382492
---
header: 
  seq: 2043
  stamp: 
    secs: 1602557432
    nsecs: 834818607
  frame_id: ''
s: 1.29591853361
n: 0.0215947567379
alpha: 0.386809321629
v: 0.390247347209
---
header: 
  seq: 2044
  stamp: 
    secs: 1602557432
    nsecs: 844823110
  frame_id: ''
s: 1.29971950442
n: 0.0220498427314
alpha: 0.383392101171
v: 0.389074116555
---
header: 
  seq: 2045
  stamp: 
    secs: 1602557432
    nsecs: 854828530
  frame_id: ''
s: 1.30421385145
n: 0.0218690871826
alpha: 0.358920138087
v: 0.395145979365
---
header: 
  seq: 2046
  stamp: 
    secs: 1602557432
    nsecs: 864819535
  frame_id: ''
s: 1.30850890916
n: 0.0219788364169
alpha: 0.327048260111
v: 0.398957601775
---
header: 
  seq: 2047
  stamp: 
    secs: 1602557432
    nsecs: 874817781
  frame_id: ''
s: 1.31236630901
n: 0.0222267274817
alpha: 0.3190077296
v: 0.397247379856
---
header: 
  seq: 2048
  stamp: 
    secs: 1602557432
    nsecs: 884816022
  frame_id: ''
s: 1.31659884249
n: 0.0222021928402
alpha: 0.279987532416
v: 0.400012984492
---
header: 
  seq: 2049
  stamp: 
    secs: 1602557432
    nsecs: 894814377
  frame_id: ''
s: 1.31989997376
n: 0.0222898647158
alpha: 0.25014970865
v: 0.417858772167
---
header: 
  seq: 2050
  stamp: 
    secs: 1602557432
    nsecs: 904818223
  frame_id: ''
s: 1.32431201306
n: 0.0224917042878
alpha: 0.236159809209
v: 0.420285330805
---
header: 
  seq: 2051
  stamp: 
    secs: 1602557432
    nsecs: 914819861
  frame_id: ''
s: 1.32777449431
n: 0.0225828327891
alpha: 0.228061604828
v: 0.410569385724
---
header: 
  seq: 2052
  stamp: 
    secs: 1602557432
    nsecs: 924815895
  frame_id: ''
s: 1.33040187181
n: 0.0225873483567
alpha: 0.224564365444
v: 0.391638488825
---
header: 
  seq: 2053
  stamp: 
    secs: 1602557432
    nsecs: 934818668
  frame_id: ''
s: 1.33230639578
n: 0.0225258602297
alpha: 0.224446891087
v: 0.366045169058
---
header: 
  seq: 2054
  stamp: 
    secs: 1602557432
    nsecs: 944810555
  frame_id: ''
s: 1.33359569309
n: 0.0224157300661
alpha: 0.226622633329
v: 0.335969980448
---
header: 
  seq: 2055
  stamp: 
    secs: 1602557432
    nsecs: 954818344
  frame_id: ''
s: 1.33692766803
n: 0.0228258327361
alpha: 0.221340963028
v: 0.335969980448
---
header: 
  seq: 2056
  stamp: 
    secs: 1602557432
    nsecs: 964817466
  frame_id: ''
s: 1.33738154086
n: 0.0226113218036
alpha: 0.227207910901
v: 0.303239126596
---
header: 
  seq: 2057
  stamp: 
    secs: 1602557432
    nsecs: 974827235
  frame_id: ''
s: 1.33740097723
n: 0.0223811236843
alpha: 0.233418641546
v: 0.269350156181
---
header: 
  seq: 2058
  stamp: 
    secs: 1602557432
    nsecs: 984822987
  frame_id: ''
s: 1.33708197882
n: 0.0221450907419
alpha: 0.239335221644
v: 0.235502112021
---
header: 
  seq: 2059
  stamp: 
    secs: 1602557432
    nsecs: 994819339
  frame_id: ''
s: 1.3365086516
n: 0.0219109473398
alpha: 0.244531320656
v: 0.202627822144
---
header: 
  seq: 2060
  stamp: 
    secs: 1602557433
    nsecs:   4816387
  frame_id: ''
s: 1.33345724883
n: 0.0213823655805
alpha: 0.248504135261
v: 0.142397189408
---
header: 
  seq: 2061
  stamp: 
    secs: 1602557433
    nsecs:  14817618
  frame_id: ''
s: 1.33277630674
n: 0.0212151697662
alpha: 0.250331644026
v: 0.115867273967
---
header: 
  seq: 2062
  stamp: 
    secs: 1602557433
    nsecs:  24811088
  frame_id: ''
s: 1.33204154874
n: 0.0210599236486
alpha: 0.251392338571
v: 0.0920238892522
---
header: 
  seq: 2063
  stamp: 
    secs: 1602557433
    nsecs:  34828592
  frame_id: ''
s: 1.33128542557
n: 0.0209182318655
alpha: 0.251751647393
v: 0.0709397367076
---
header: 
  seq: 2064
  stamp: 
    secs: 1602557433
    nsecs:  44823416
  frame_id: ''
s: 1.3305338314
n: 0.0207909823283
alpha: 0.251505773886
v: 0.0525986287758
---
header: 
  seq: 2065
  stamp: 
    secs: 1602557433
    nsecs:  54819891
  frame_id: ''
s: 1.32980661731
n: 0.0206784896314
alpha: 0.250766211471
v: 0.0369207846752
---
header: 
  seq: 2066
  stamp: 
    secs: 1602557433
    nsecs:  64814809
  frame_id: ''
s: 1.32911869228
n: 0.020580593914
alpha: 0.249649790352
v: 0.023795338864
---
header: 
  seq: 2067
  stamp: 
    secs: 1602557433
    nsecs:  74818630
  frame_id: ''
s: 1.32848051043
n: 0.0204967772335
alpha: 0.248269300865
v: 0.013161946483
---
header: 
  seq: 2068
  stamp: 
    secs: 1602557433
    nsecs:  84816792
  frame_id: ''
s: 1.32789881544
n: 0.0204262516209
alpha: 0.246727896668
v: 0.00557632923693
---
header: 
  seq: 2069
  stamp: 
    secs: 1602557433
    nsecs:  94818635
  frame_id: ''
s: 1.32737727702
n: 0.020368038129
alpha: 0.245115460445
v: 0.00544514874065
---
header: 
  seq: 2070
  stamp: 
    secs: 1602557433
    nsecs: 104825333
  frame_id: ''
s: 1.32691707168
n: 0.0203210342938
alpha: 0.243506754001
v: 0.0096948514765
---
header: 
  seq: 2071
  stamp: 
    secs: 1602557433
    nsecs: 114818615
  frame_id: ''
s: 1.32651740398
n: 0.0202840706772
alpha: 0.241960953022
v: 0.0132912009555
---
header: 
  seq: 2072
  stamp: 
    secs: 1602557433
    nsecs: 124819527
  frame_id: ''
s: 1.3263917744
n: 0.0202410049177
alpha: 0.242195985347
v: 0.0132912009555
---
header: 
  seq: 2073
  stamp: 
    secs: 1602557433
    nsecs: 134817236
  frame_id: ''
s: 1.34558992061
n: 0.0160618487918
alpha: 0.144940391104
v: 0.226797890349
---
header: 
  seq: 2074
  stamp: 
    secs: 1602557433
    nsecs: 144812415
  frame_id: ''
s: 1.3658957853
n: 0.0136367979402
alpha: 0.0896164765282
v: 0.429428858973
---
header: 
  seq: 2075
  stamp: 
    secs: 1602557433
    nsecs: 154824929
  frame_id: ''
s: 1.38085059494
n: 0.0131382024084
alpha: 0.0466891442127
v: 0.563160637645
---
header: 
  seq: 2076
  stamp: 
    secs: 1602557433
    nsecs: 164819704
  frame_id: ''
s: 1.39525713705
n: 0.0131848794992
alpha: 0.0308363713821
v: 0.675297264639
---
header: 
  seq: 2077
  stamp: 
    secs: 1602557433
    nsecs: 174817548
  frame_id: ''
s: 1.40810260851
n: 0.0141799373294
alpha: 0.0331530727542
v: 0.74368186622
---
header: 
  seq: 2078
  stamp: 
    secs: 1602557433
    nsecs: 184811948
  frame_id: ''
s: 1.41721361873
n: 0.0151694588011
alpha: 0.0714677346226
v: 0.779721778623
---
header: 
  seq: 2079
  stamp: 
    secs: 1602557433
    nsecs: 194810086
  frame_id: ''
s: 1.42340100006
n: 0.0162796554078
alpha: 0.0864740539221
v: 0.760770398307
---
header: 
  seq: 2080
  stamp: 
    secs: 1602557433
    nsecs: 204811308
  frame_id: ''
s: 1.4308924901
n: 0.0175832224974
alpha: 0.0776650940747
v: 0.760770398307
---
header: 
  seq: 2081
  stamp: 
    secs: 1602557433
    nsecs: 214822649
  frame_id: ''
s: 1.43520485549
n: 0.0183454813634
alpha: 0.099812951111
v: 0.72481381639
---
header: 
  seq: 2082
  stamp: 
    secs: 1602557433
    nsecs: 224820315
